Province,Employer,Address,Positions,NOC 2011,NOC Name,Latitude,Longitude
Newfoundland and Labrador,10113 Newfoundland Limited,"Clarenville, NL A5A 1K6",1,6311,Food service supervisors,48.171733,-53.989211
Newfoundland and Labrador,10565 NFLD. Inc.,"Goose Bay, NL A0P 1C0",1,6312,Executive housekeepers,53.308255,-60.378852
Newfoundland and Labrador,10565 NFLD. Inc.,"Happy Valley Goose Bay, NL A0P 1C0",2,6312,Executive housekeepers,53.308255,-60.378852
Newfoundland and Labrador,75038 Newfoundland and Labrador Limited,"St. John's, NL A1C 4Z5",1,6322,Cooks,47.565811,-52.727617
Newfoundland and Labrador,A&W Restaurant,"Happy Valley - Goose Bay, NL A0P 1C0",2,6311,Food service supervisors,53.308255,-60.378852
Newfoundland and Labrador,Aker Solutions AIM Canada Inc.,"St John's, NL A1C 6C9",1,2261,Non,47.5630158,-52.7084738
Newfoundland and Labrador,Arup Canada Inc.,"St. John's, NL A1B 4M7",1,0711,Construction managers,47.56146,-52.772715
Newfoundland and Labrador,Arup Canada Inc.,,1,2153,Urban and land use planners,,
Newfoundland and Labrador,Atlantic Grocery Distributors,"Bay Roberts, NL A0A 1G0",4,7452,Material handlers,47.571957,-53.278126
Newfoundland and Labrador,Atlantic Grocery Distributors,,1,7514,Delivery and courier service drivers,,
Newfoundland and Labrador,Avalla Construction Inc.,"St. John's, NL A1E 6A3",4,7281,Bricklayers,47.5042173,-52.7769892
Newfoundland and Labrador,Bojo's Restaurants Inc.,"Springdale, NL A0J 1T0",1,6321,Chefs,49.5340194702148,-56.191593170166
Newfoundland and Labrador,Braven NL Inc.,"St. John's, NL A1C 6J9",1,5222,Film and video camera operators,47.568789,-52.717831
Newfoundland and Labrador,Bugden Enterprises,"Conception Bay South, NL A1W 3A3",1,6311,Food service supervisors,47.5208424,-52.9479729
Newfoundland and Labrador,Carol Automobile Ltd.,"Labrador City, NL A2V 2K6",1,7321,"Automotive service technicians, truck and bus mechanics and mechanical repairers",52.939826,-66.90674
Newfoundland and Labrador,CBS Foods Ltd,"Conception Bay South, NL A1W 3A6",2,6322,Cooks,47.5183451,-52.9567005
Newfoundland and Labrador,Central Regional Health Authority,"Grand Falls-Windsor, NL A2A 2E1",5,3111,Specialist physicians,48.933254,-55.647212
Newfoundland and Labrador,Central Regional Health Authority,,2,3112,General practitioners and family physicians,,
Newfoundland and Labrador,CG Aberdeen Holdings Inc,"Paradise, NL A1L 1K9",2,6311,Food service supervisors,47.53759,-52.90348
Newfoundland and Labrador,City Light Holdings Inc.,"St.John's, NL A1E 2C2",1,6322,Cooks,47.5305253,-52.7575025
Newfoundland and Labrador,Connie Parsons School Of Dance,"St. John's, NL A1B 2M4",1,5134,Dancers,47.582357,-52.713477
Newfoundland and Labrador,D. J. Gift Shop Ltd.,"Hopedale, NL A0P 1G0",1,6211,Retail sales supervisors,55.459297,-60.203854
Newfoundland and Labrador,DOF Subsea Canada Corp.,"Mount Pearl, NL A1N 0A1",7,2273,"Deck officers, water transport",47.519571,-52.811343
Newfoundland and Labrador,DOF Subsea Canada Corp.,,7,2274,"Engineer officers, water transport",,
Newfoundland and Labrador,DOF Subsea Canada Corp.,,2,6322,Cooks,,
Newfoundland and Labrador,DOF Subsea Canada Corp.,,6,6513,Food and beverage servers,,
Newfoundland and Labrador,DOF Subsea Canada Corp.,,4,7242,Industrial electricians,,
Newfoundland and Labrador,DOF Subsea Canada Corp.,,8,7532,Water transport deck and engine room crew,,
Newfoundland and Labrador,EMC Enterprises Inc.,"Baie Verte, NL A0K 1B0",1,3236,Massage therapists,49.934577,-56.201564
Newfoundland and Labrador,Exceed (XCD) Canada Limited,"St. John's, NL A1C 2G9",1,8222,"Contractors and supervisors, oil and gas drilling and services",47.562117,-52.71647
Newfoundland and Labrador,Exxonmobil Canada Properties Ltd,"St. John's, NL A1C 6K3",1,0711,Construction managers,47.5606323,-52.712527
Newfoundland and Labrador,Exxonmobil Canada Properties Ltd,,2,2133,Electrical and electronics engineers,,
Newfoundland and Labrador,F.D.A. Enterprises Ltd.,"St. John's, NL A1B 1V1",1,6322,Cooks,47.5658514,-52.7373014
Newfoundland and Labrador,Forteau Sales & service,"Forteau, NL A0K 2P0",1,7321,"Automotive service technicians, truck and bus mechanics and mechanical repairers",51.480806,-56.954241
Newfoundland and Labrador,Frontier Season 1 (NL) Inc.,"St. John's, NL A1C 6J9",4,5135,Actors and comedians,47.568789,-52.717831
Newfoundland and Labrador,Genoa Design International Ltd,"Mount Pearl, NL A1N 4S7",2,2232,Mechanical engineering technologists and technicians,47.514488,-52.834069
Newfoundland and Labrador,Goulds Foods Inc.,"St. John's, NL A1B 1R4",1,6322,Cooks,47.579098,-52.7165067
Newfoundland and Labrador,Green Food Industries Inc.,"St. John's, NL A1B 1W3",2,6322,Cooks,47.5586,-52.755482
Newfoundland and Labrador,H&E Williams Dairy Farm,"Goulds, NL A1S 1G5",1,8252,"Agricultural service contractors, farm supervisors and specialized livestock workers",47.468139,-52.777503
Newfoundland and Labrador,Hancock's Distributors,"Forteau, NL A0K 2P0",1,6421,Retail salespersons,51.480806,-56.954241
Newfoundland and Labrador,J & C Sod Farm Ltd,"Bay Bulls, NL A0A 1C0",3,8431,General farm workers,47.403988,-52.79987
Newfoundland and Labrador,Kiewit-Kvaerner Contractors,"St. John's, NL A1E 1E2",1,0211,Engineering managers,47.5317522,-52.7398845
Newfoundland and Labrador,Kiewit-Kvaerner Contractors,,2,0711,Construction managers,,
Newfoundland and Labrador,Kiewit-Kvaerner Contractors,,1,0811,Managers in natural resources production and fishing,,
Newfoundland and Labrador,Kiewit-Kvaerner Contractors,,6,2131,Civil engineers,,
Newfoundland and Labrador,Kiewit-Kvaerner Contractors,,7,2148,"Other professional engineers, n.e.c.",,
Newfoundland and Labrador,Kiewit-Kvaerner Contractors,,2,2231,Civil engineering technologists and technicians,,
Newfoundland and Labrador,Kiewit-Kvaerner Contractors,,3,2273,"Deck officers, water transport",,
Newfoundland and Labrador,Labrador-Grenfell Regional Health Authority,"St. Anthony, NL A0K 4S0",2,3111,Specialist physicians,51.358383,-55.576993
Newfoundland and Labrador,Labrador-Grenfell Regional Health Authority,,1,3112,General practitioners and family physicians,,
Newfoundland and Labrador,Larch Grove Farm Ltd.,"Cormack, NL A8A 2R7",2,8431,General farm workers,49.282213,-57.420854
Newfoundland and Labrador,Leeward Enterprises,"Clarenville, NL A5A 1K5",1,3112,General practitioners and family physicians,48.171732,-53.989211
Newfoundland and Labrador,Lester's Dairy Farm,"St. John's, NL A1E 6J4",1,8431,General farm workers,47.5204756,-52.766562
Newfoundland and Labrador,Lester's Farm Market,"Mount Pearl, NL A1N 2C4",10,8431,General farm workers,47.519204,-52.807406
Newfoundland and Labrador,Letto's Enterprises Ltd.,"L'anse au Clair, NL A0K 3K0",1,6311,Food service supervisors,51.425186,-57.039525
Newfoundland and Labrador,Letto's Enterprises Ltd.,,1,6312,Executive housekeepers,,
Newfoundland and Labrador,Letto's Enterprises Ltd.,,1,6322,Cooks,,
Newfoundland and Labrador,Little Peoples Workshop,"St. John's, NL A1E 5C3",1,4214,Early childhood educators and assistants,47.55452,-52.734144
Newfoundland and Labrador,Lower Churchill Management Corp.,"St. John's, NL A1A 4E1",3,2131,Civil engineers,47.599238,-52.711366
Newfoundland and Labrador,M &.P. Dairy Farm Ltd.,"Goulds, NL A1S 1G2",1,8252,"Agricultural service contractors, farm supervisors and specialized livestock workers",47.488095,-52.76822
Newfoundland and Labrador,Marmaris Holdings Inc.,"St. John's, NL A1A 5C9",2,6322,Cooks,47.6073093,-52.7205831
Newfoundland and Labrador,Memorial University Of Newfoundland and Labrador,"St. John's, NL A1C 5S7",3,4011,University professors and lecturers,47.55954,-52.711431
Newfoundland and Labrador,Merlo Associates Inc,"St. John's, NL A1B 3P9",1,6322,Cooks,47.5572548,-52.7602439
Newfoundland and Labrador,Metroworth Consulting (Canada) Ltd.,"St. John's, NL A1N 3K4",1,8222,"Contractors and supervisors, oil and gas drilling and services",47.530189,-52.80622
Newfoundland and Labrador,Michele's Childcare,"Torbay, NL A1K 0G2",1,4411,Home child care providers,47.6593594,-52.7383086
Newfoundland and Labrador,Mila Foods Inc.,"St John's, NL A1E 1T2",2,6311,Food service supervisors,47.544767,-52.743697
Newfoundland and Labrador,Mom's Place Limited,"Happy Valley-Goose Bay, NL A0P 1C0",1,6322,Cooks,53.308255,-60.378852
Newfoundland and Labrador,NARL Refining Ltd Partnership,"Come By Chance, NL A0B 1N0",3,0911,Manufacturing managers,47.934031,-54.16475
Newfoundland and Labrador,New World Dairy Inc.,"St. David's, NL A0N 1X0",6,8431,General farm workers,48.160518,-58.815081
Newfoundland and Labrador,Newfoundland & Labrador Hydro,"St. John's, NL A1B 4K7",1,0711,Construction managers,47.519691,-52.837161
Newfoundland and Labrador,Newont Limited,"St. John's, NL A1E 2C5",2,6311,Food service supervisors,47.539345,-52.73778
Newfoundland and Labrador,Norlab Limited,"Happy Valley-Goose Bay, NL A0P 1E0",2,6311,Food service supervisors,53.312758,-60.38015
Newfoundland and Labrador,Normie's Enterprises Inc,"Corner Brook, NL A2H 6T2",3,6322,Cooks,48.965335,-58.030775
Newfoundland and Labrador,O'Reilly's Irish Bar Inc.,"St. John's, NL A1C 5J9",2,6322,Cooks,47.506573,-52.78193
Newfoundland and Labrador,Paradise Daycare 2009 Inc.,"Paradise, NL A0A 2E0",1,4214,Early childhood educators and assistants,,
Newfoundland and Labrador,Peter's Pizza,"Conception Bay South, NL A1W 3A4",2,6322,Cooks,47.4272748,-53.098919
Newfoundland and Labrador,Pure Energy Services Partnership,"St. John's, NL A1C 5V5",1,2212,Geological and mineral technologists and technicians,47.53052,-52.762777
Newfoundland and Labrador,Red Indian Adventures Limited,"Grand Falls-Winsor, NL A2A 2K2",1,6316,Other services supervisors,49.059837,-55.86631
Newfoundland and Labrador,Robbins Hearing Service Inc.,"St. John's, NL A1B 4S8",1,3141,Audiologists and speech,47.565554,-52.737888
Newfoundland and Labrador,ROM Group Limited,"Torbay, NL A1K 1K9",3,6322,Cooks,47.671135,-52.725692
Newfoundland and Labrador,Schlumberger Canada Limited,"Mount Pearl, NL A1N 5B1",2,8222,"Contractors and supervisors, oil and gas drilling and services",47.520154,-52.835093
Newfoundland and Labrador,Seadrill Canada Ltd.,"St. John's, NL A1E 0E4",1,0811,Managers in natural resources production and fishing,47.539302,-52.74861
Newfoundland and Labrador,Seadrill Canada Ltd.,,2,2145,Petroleum engineers,,
Newfoundland and Labrador,Seadrill Canada Ltd.,,5,2241,Electrical and electronics engineering technologists and technicians,,
Newfoundland and Labrador,Seadrill Canada Ltd.,,1,2273,"Deck officers, water transport",,
Newfoundland and Labrador,Seadrill Canada Ltd.,,2,2274,"Engineer officers, water transport",,
Newfoundland and Labrador,Seadrill Canada Ltd.,,2,8222,"Contractors and supervisors, oil and gas drilling and services",,
Newfoundland and Labrador,Seadrill Canada Ltd.,,4,8232,"Oil and gas well drillers, servicers, testers and related workers",,
Newfoundland and Labrador,Solace Power Incorporated,"Mount Pearl, NL A1N 5E7",1,2133,Electrical and electronics engineers,47.52601,-52.767919
Newfoundland and Labrador,Subsea 7 Canada Inc.,"St. John's, NL A1E 3Y3",3,0711,Construction managers,47.551277,-52.727693
Newfoundland and Labrador,Subsea 7 Canada Inc.,,3,1221,Administrative officers,,
Newfoundland and Labrador,Subsea 7 Canada Inc.,,2,2145,Petroleum engineers,,
Newfoundland and Labrador,Subsea 7 Canada Inc.,,8,2154,Land surveyors,,
Newfoundland and Labrador,Subsea 7 Canada Inc.,,7,2232,Mechanical engineering technologists and technicians,,
Newfoundland and Labrador,Subsea 7 Canada Inc.,,21,2255,Technical occupations in geomatics and meteorology,,
Newfoundland and Labrador,Subsea 7 Canada Inc.,,11,2273,"Deck officers, water transport",,
Newfoundland and Labrador,Subsea 7 Canada Inc.,,13,2274,"Engineer officers, water transport",,
Newfoundland and Labrador,Subsea 7 Canada Inc.,,3,6322,Cooks,,
Newfoundland and Labrador,Subsea 7 Canada Inc.,,11,6513,Food and beverage servers,,
Newfoundland and Labrador,Subsea 7 Canada Inc.,,1,7237,Welders and related machine operators,,
Newfoundland and Labrador,Subsea 7 Canada Inc.,,5,7242,Industrial electricians,,
Newfoundland and Labrador,Subsea 7 Canada Inc.,,18,7302,"Contractors and supervisors, heavy equipment operator crews",,
Newfoundland and Labrador,Subsea 7 Canada Inc.,,3,7311,Construction millwrights and industrial mechanics,,
Newfoundland and Labrador,Subsea 7 Canada Inc.,,8,7371,Crane operators,,
Newfoundland and Labrador,Subsea 7 Canada Inc.,,13,7532,Water transport deck and engine room crew,,
Newfoundland and Labrador,Sunrise Dairy Limited,"Musgravetown, NL A0C 1Z0",2,8252,"Agricultural service contractors, farm supervisors and specialized livestock workers",48.399273,-53.927275
Newfoundland and Labrador,Torbay Fun Foods Ltd.,"St. John's, NL A1A 4L6",2,6322,Cooks,47.6028633,-52.7161726
Newfoundland and Labrador,Vale Newfoundland and Labrador Limited,"St. John's, NL A1C 1K4",1,0016,Senior managers ,47.571543,-52.7003125
Newfoundland and Labrador,West End Foods Limited oa Jungle Jims,"St. John's, NL A1B 4J9",2,6322,Cooks,47.582448,-52.697392
Newfoundland and Labrador,West End Foods Limited oa Jungle Jims,"St. John's, NL A1E 2E3",3,6322,Cooks,47.5252149,-52.7695777
Newfoundland and Labrador,Western Regional Integrated Health Authority,"Corner Brook, NL A2H 6J7",8,3111,Specialist physicians,48.965333,-58.030775
Newfoundland and Labrador,Western Regional Integrated Health Authority,,2,3112,General practitioners and family physicians,,
Newfoundland and Labrador,WorleyParsons Canada Services Ltd.,"St. John's, NL A1E 1E2",1,0711,Construction managers,47.5317522,-52.7398845
Newfoundland and Labrador,WorleyParsons Canada Services Ltd.,,1,2232,Mechanical engineering technologists and technicians,,
Newfoundland and Labrador,WorleyParsons Canada Services Ltd.,,1,2233,Industrial engineering and manufacturing technologists and technicians,,
Newfoundland and Labrador,WorleyParsons Canada Services Ltd.,,2,2241,Electrical and electronics engineering technologists and technicians,,
Newfoundland and Labrador,WorleyParsons Canada Services Ltd.,,1,2263,Inspectors in public and environmental health and occupational health and safety,,
Newfoundland and Labrador,Yellow Belly Brewery Ltd,"St. John's, NL A1C 5J9",2,6322,Cooks,47.506573,-52.78193
Prince Edward Island,6497942 Canada Inc.,"Charlottetown, PE C1A 6H7",2,6311,Food service supervisors,46.258068,-63.131651
Prince Edward Island,7035233 Canada Inc,"Mount Stewart, PE C0A 1T0",3,8252,"Agricultural service contractors, farm supervisors and specialized livestock workers",46.3396301269531,-62.8716468811035
Prince Edward Island,Acadian Supreme Inc.,"Wellington, PE C0B 2E0",24,9463,Fish and seafood plant workers,46.450806,-63.99892
Prince Edward Island,Atlantic Beef Products Inc.,"Albany, PE C0B 1A0",5,9462,"Industrial butchers and meat cutters, poultry preparers and related workers",46.318197,-63.558561
Prince Edward Island,Atlantic Grown Organics Inc,"Kensington, PE C0B 1M0",2,0822,Managers in horticulture,46.43789,-63.63458
Prince Edward Island,Atlantic Grown Organics Inc,,9,8432,Nursery and greenhouse workers,,
Prince Edward Island,Beach Point Processing Company,"Beach Point, PE C0A 1V0",100,9463,Fish and seafood plant workers,46.002798,-62.519557
Prince Edward Island,Belle River Enterprises Ltd.,"Belle River, PE C0A 1B0",10,9463,Fish and seafood plant workers,45.9791603088379,-62.8373565673828
Prince Edward Island,Birch Farms Limited,"Summerside, PE C1N 4J9",2,8431,General farm workers,46.39208,-63.740224
Prince Edward Island,Birkentree Holsteins Inc.,"Hunter River, PE C0A 1N0",1,8431,General farm workers,46.401847,-63.338722
Prince Edward Island,Brookfield Gardens Inc,"Brookfield, PE C0A 1Y0",14,8431,General farm workers,46.203797,-63.266232
Prince Edward Island,Bulk Carriers (P.E.I.) Limited,"Cornwall, PE C0A 1H0",20,7511,Transport truck drivers,46.1749323,"-63.2607926
V6P 5A7"""
Prince Edward Island,Captain Cooke's Seafood Inc.,"Borden-Carleton, PE C0B 1X0",10,9463,Fish and seafood plant workers,46.256255,-63.67178
Prince Edward Island,Carruthers Farms Ltd.,"Kensington, PE C0B 1M0",3,8431,General farm workers,46.43789,-63.63458
Prince Edward Island,Cedar's Eatery,"Charlottetown, PE C1A 4L1",1,6322,Cooks,46.235994,-63.12763
Prince Edward Island,Claddagh Holdings Inc.,"Charlottetown, PE C1A 1G5",1,6322,Cooks,46.23326,-63.126346
Prince Edward Island,Eastern Exporters Limited,"Souris, PE C0A 2B0",2,8252,"Agricultural service contractors, farm supervisors and specialized livestock workers",46.354047,-62.25215
Prince Edward Island,Eastern Exporters Limited,,6,8431,General farm workers,,
Prince Edward Island,Eastern Farms Ltd,"Vernon River, PE C0A 2E0",24,8431,General farm workers,46.179,-62.884
Prince Edward Island,Extondale Farms Ltd.,"Oyster Bed, PE C1E 1Z4",2,8252,"Agricultural service contractors, farm supervisors and specialized livestock workers",46.283411,-63.196791
Prince Edward Island,FR Enterprises Inc.,"Charlottetown, PE C1A 8Y3",1,6322,Cooks,46.272835,-63.1388
Prince Edward Island,Frizzell's Valleyville Farm Inc.,"Hunter River, PE C0A 1N0",2,8252,"Agricultural service contractors, farm supervisors and specialized livestock workers",46.401847,-63.338722
Prince Edward Island,Great Enlightenment Buddhist Institute Society,"Little Sands, PE C0A 1W0",1,1123,"Professional occupations in advertising, marketing and public relations",46.01263,-62.60927
Prince Edward Island,Great Enlightenment Buddhist Institute Society,,5,5244,Artisans and craftspersons,,
Prince Edward Island,Hartshire Community Care Inc.,"Clyde River, PE C0A 1H1",1,4412,"Home support workers, housekeepers and related occupations",46.210462,-63.228876
Prince Edward Island,Health PEI,"Charlottetown, PE C1A 7N8",1,3111,Specialist physicians,46.25128,-63.147429
Prince Edward Island,Health PEI,,3,3112,General practitioners and family physicians,,
Prince Edward Island,HillTop Produce Ltd,"Kinkora, PE C0B 1N0",2,8431,General farm workers,46.344061,-63.548072
Prince Edward Island,HillTop Produce Ltd,,2,8611,Harvesting labourers,,
Prince Edward Island,Hy-Croft Farms Inc,"Summerside, PE C1N 4V4",3,8431,General farm workers,46.423011,-63.800596
Prince Edward Island,Jewell's of PEI Inc,"York, PE C0A 1P0",9,8431,General farm workers,46.416154,-63.074183
Prince Edward Island,Jewell's Produce,"York, PE C0A 1P0",18,8431,General farm workers,46.416154,-63.074183
Prince Edward Island,Kildare Fisheries Ltd.,"Alberton, PE C0B 1B0",41,9463,Fish and seafood plant workers,46.837425,-64.113384
Prince Edward Island,Kinkora Holdings Inc,"Kinkora, PE C0B 1N0",4,8611,Harvesting labourers,46.344061,-63.548072
Prince Edward Island,Matos Winery Inc.,"St. Catherines, PE C0A 1H1",1,8431,General farm workers,46.210462,-63.228876
Prince Edward Island,MGS Holdings & Distribution Co Ltd,"Alberton, PE C0B 1B0",48,8431,General farm workers,46.837425,-64.113384
Prince Edward Island,Newland Farms Inc.,"Hunter River, PE C0A 1N0",1,8252,"Agricultural service contractors, farm supervisors and specialized livestock workers",46.401847,-63.338722
Prince Edward Island,Nobra Holsteins Inc.,"Kensington, PE C0B 1M0",3,8431,General farm workers,46.43789,-63.63458
Prince Edward Island,"North Lake Fisheries (2013), Inc.","Souris, PE C0A 2B0",20,9463,Fish and seafood plant workers,46.354047,-62.25215
Prince Edward Island,PEI Select Tours Inc,"North Rustico, PE C0A 1X0",3,6531,Tour and travel guides,46.481013,-63.351456
Prince Edward Island,Richie Foods,"Charlottetown, PE C1A 4N5",1,6311,Food service supervisors,46.244386,-63.1338403
Prince Edward Island,Royal Star Foods Ltd.,"Tignish, PE C0B 2B0",30,9463,Fish and seafood plant workers,46.9756355285645,-64.0738525390625
Prince Edward Island,Seafood 2000 Ltd.,"Georgetown, PE C0A 1L0",102,9463,Fish and seafood plant workers,46.185653,-62.522954
Prince Edward Island,Seafood Express (PEI) Limited,"Charlottetown, PE C1A 7M8",10,7511,Transport truck drivers,46.233768,-63.124917
Prince Edward Island,Silver Hill Fur Farm Ltd.,"Tignish, PE C0B 2B0",6,8431,General farm workers,46.9756355285645,-64.0738525390625
Prince Edward Island,South Shore Seafoods Ltd.,"Bloomfield, PE C0B 1E0",79,9463,Fish and seafood plant workers,46.696448,-64.383974
Prince Edward Island,South Shore Seafoods Ltd.,,28,9618,Labourers in fish and seafood processing,,
Prince Edward Island,Splendid Essence Restaurant Inc.,"Charlottetown, PE C1A 4R9",1,6322,Cooks,46.237617,-63.126802
Prince Edward Island,The Prince Edward Family Restaurant,"Charlottetown, PE C1A 4L5",1,6322,Cooks,46.2381284,-63.1297304
Prince Edward Island,Tourism Industry Association of Prince Edward Island,"Charlottetown, PE C1A 4A2",2,4163,Business development officers and marketing researchers and consultants,46.230961,-63.123506
Prince Edward Island,van Diepen Produce Ltd,"Morell, PE C0A 1S0",14,8431,General farm workers,46.39453125,-62.7252883911133
Prince Edward Island,Vanco Farms Ltd.,"Mount Albion, PE C1B 0R4",83,8431,General farm workers,46.22192,-62.971058
Prince Edward Island,Vanco Farms Ltd.,,4,8611,Harvesting labourers,,
Prince Edward Island,W P Griffin Inc,"Elmsdale, PE C0B 1K0",10,8431,General farm workers,46.837426,-64.113384
Prince Edward Island,Winterbay Farm Inc.,"Millcove, PE C0A 1T0",2,8252,"Agricultural service contractors, farm supervisors and specialized livestock workers",46.3396301269531,-62.8716468811035
Nova Scotia,2122277 NS Ltd,"Kentville, NS B4N 3W4",3,6322,Cooks,45.072134,-64.483742
Nova Scotia,3026021 Nova Scotia Ltd.,"Antigonish, NS B2G 2C5",1,6322,Cooks,45.6219392,-61.9941986
Nova Scotia,3056092 Nova Scotia Ltd.,"Upper Tantallon, NS B3Z 1H3",1,6322,Cooks,44.7019648,-63.8553277
Nova Scotia,3074889 Nova Scotia Ltd.,"Port Hawkesbury, NS B9A 2C2",2,6311,Food service supervisors,45.618919,-61.360801
Nova Scotia,3099794 NS Ltd (Enfield Big Stop),"Enfield, NS B2T 1C8",4,6322,Cooks,44.939685,-63.534989
Nova Scotia,3115695 Nova Scotia Ltd.,"Centreville, NS B0P 1J0",10,8431,General farm workers,45.195976,-64.680474
Nova Scotia,3226198 Nova Scotia Ltd,"Centreville, NS B0P 1J0",177,8431,General farm workers,45.195976,-64.680474
Nova Scotia,3243020 Nova Scotia Limited,"Halifax, NS B3J 2J6",8,6322,Cooks,44.643134,-63.576928
Nova Scotia,3265524 Nova Scotia Ltd.,"Hubley, NS B3Z 1C1",1,6322,Cooks,44.675158,-63.823055
Nova Scotia,3266726 Nova Scotia Limited,"Bedford, NS B4A 3Y4",3,6322,Cooks,44.733105,-63.655979
Nova Scotia,3278591 Nova Scotia Ltd.,"Westphal, NS B2Z 1B1",1,6562,"Estheticians, electrologists and related occupations",44.707257,-63.470835
Nova Scotia,3290067 Nova Scotia Limited,"Halifax, NS B3M 2Y6",1,0213,Computer and information systems managers,44.661076,-63.645984
Nova Scotia,3291087 Nova Scotia Limited,"Bridgewater, NS B4V 2V6",1,6322,Cooks,44.384266,-64.515245
Nova Scotia,3297327 Nova Scotia Ltd.,"Musquodoboit Harbour, NS B0J 2L0",1,0015,Senior managers ,44.787808,-63.148726
Nova Scotia,3298056 Nova Scotia Ltd,"Bedford, NS B4A 4M1",1,0015,Senior managers ,44.709868,-63.684114
Nova Scotia,3298056 Nova Scotia Ltd,,1,0016,Senior managers ,,
Nova Scotia,3298056 Nova Scotia Ltd,,1,0911,Manufacturing managers,,
Nova Scotia,7109938 Canada Ltd,"Fall River, NS B2T 1H7",1,6341,Hairstylists and barbers,44.831853,-63.604057
Nova Scotia,A & D Services Ltd,"New Minas, NS B4N 3K9",2,6322,Cooks,45.0562729,-64.4704345
Nova Scotia,"Aaron's Canada, ULC","Halifax, NS B3J 2V1",1,0015,Senior managers ,44.648416,-63.645986
Nova Scotia,Acuren Group Inc,"Dartmouth, NS B2Y 4P4",5,7384,"Other trades and related occupations, n.e.c.",44.6515295,-63.5430205
Nova Scotia,Allen Farms Limited,"Centreville, NS B0P 1J0",78,8431,General farm workers,45.195976,-64.680474
Nova Scotia,Arirang Restaurant Inc,"Halifax, NS B3M 3W8",1,6322,Cooks,44.673279,-63.664255
Nova Scotia,Athletigen Technologies Inc.,"Halifax, NS B3J 3K5",1,2173,Software engineers and designers,44.644489,-63.572554
Nova Scotia,"B&G Innkeepers, Ltd.","Halifax, NS B3K 2R9",1,6322,Cooks,44.665254,-63.613869
Nova Scotia,Baan Thai Restaurant Ltd,"Halifax, NS B3J 1J7",1,6322,Cooks,44.645217,-63.573178
Nova Scotia,Backoos Korean Togo Food Ltd,"Halifax, NS B3J 2J2",1,6311,Food service supervisors,44.641738,-63.576212
Nova Scotia,Backoos Korean Togo Food Ltd,,2,6322,Cooks,,
Nova Scotia,Balamore Farm Ltd,"Great Village, NS B0M 1L0",14,8431,General farm workers,45.369405,-63.662186
Nova Scotia,Barlomento Property Services,"Halifax, NS B3M 3Y5",1,1221,Administrative officers,44.674703,-63.668723
Nova Scotia,Basinview Farms,"Canning, NS B0P 1H0",14,8431,General farm workers,45.026806,-64.165254
Nova Scotia,Bione Restaurant Inc.,"Halifax, NS B3L 1A5",3,6322,Cooks,44.645173,-63.598083
Nova Scotia,Birchleigh Farms Ltd,"Berwick, NS B0P 1E0",16,8431,General farm workers,45.090922,-64.823309
Nova Scotia,Bitar's Pizza Pasta & Grill Ltd.,"Elmsdale, NS B2S 1A8",2,6322,Cooks,44.96518,-63.50864
Nova Scotia,Blue Ridge Farm,"Grafton, NS B0P 1V0",4,8431,General farm workers,45.1708349,-64.7669826
Nova Scotia,Bluemont Group Ltd.,"Fall River, NS B2T 1W8",1,6322,Cooks,44.830947,-63.587974
Nova Scotia,"Bluenose Brewing Company, Inc","Lunenburg, NS B0J 2C0",1,0016,Senior managers ,44.37635,-64.309889
Nova Scotia,Bragg Lumber Co Ltd,"Collingwood, NS B0M 1E0",5,8431,General farm workers,45.636927,-63.77345
Nova Scotia,Burnott Limited,"New Glasgow, NS B2H 3S4",3,6311,Food service supervisors,45.576426,-62.641997
Nova Scotia,Canard Orchards Ltd,"Centreville, NS B0P 1J0",14,8431,General farm workers,45.195976,-64.680474
Nova Scotia,CAP Farms Inc,"Grafton, NS B0P 1V0",24,8431,General farm workers,45.1708349,-64.7669826
Nova Scotia,Classic Freight Systems (2011) Ltd.,"Dartmouth, NS B3N 1N8",4,7511,Transport truck drivers,44.635733,-63.622413
Nova Scotia,Clearwater Seafoods Limited Partnership,"Lunenburg, NS B0J 2C0",2,7242,Industrial electricians,44.37635,-64.309889
Nova Scotia,CloudKettle Inc.,"Halifax, NS B3L 2W1",1,2174,Computer programmers and interactive media developers,44.652784,-63.607679
Nova Scotia,Coastal Pizza Company Inc.,"Halifax, NS B3S 1B3",2,6322,Cooks,44.637971,-63.663711
Nova Scotia,Comvest Commercial Reas Estate Inc.,"Halifax, NS B3J 3E5",1,6322,Cooks,44.648416,-63.645986
Nova Scotia,Craig Nichols Farms Ltd,"Aylesford, NS B0P 1C0",61,8431,General farm workers,45.066995,-64.800737
Nova Scotia,Crisp Growers Inc.,"Berwick, NS B0P 1E0",12,8431,General farm workers,45.090922,-64.823309
Nova Scotia,Dalhousie University,"Halifax, NS B3H 4R2",2,3111,Specialist physicians,44.6370504,-63.5964136
Nova Scotia,Dalhousie University,,6,4011,University professors and lecturers,,
Nova Scotia,Darrell's Restaurant 5576 Fenwick Limited,"Halifax, NS B3H 1P8",2,6322,Cooks,44.638044,-63.573478
Nova Scotia,DeLong Farm Products Limited,"New Germany, NS B0R 1E0",9,8432,Nursery and greenhouse workers,44.469069,-64.620343
Nova Scotia,den Haan Enterprises Ltd,"Lawrencetown, NS B0S 1M0",22,8432,Nursery and greenhouse workers,44.891613,-65.06213
Nova Scotia,Devonian Coast Wineries Limited,"Malagash, NS B0K 1E0",1,0911,Manufacturing managers,45.794472,-63.453043
Nova Scotia,DONDAR HOLDINGS LTD,"Halifax, NS B3S 1B7",3,7322,Motor vehicle body repairers,44.638275,-63.66461
Nova Scotia,Doraku Foods Ltd,"Halifax, NS B3J 2A4",1,6322,Cooks,44.647278,-63.574131
Nova Scotia,Double Dragon Restaurant Inc.,"New Minas, NS B4N 3E2",1,6322,Cooks,45.0681833,-64.4631279
Nova Scotia,eEye Inc.,"Halifax, NS B3J 2N4",1,6221,Technical sales specialists ,,
Nova Scotia,El Centro Pizza,"Lawrencetown, NS B2Z 1L2",1,6322,Cooks,44.681791,-63.408908
Nova Scotia,"Elite Balsam Products, Inc","St Andrews, NS B0H 1X0",6,8432,Nursery and greenhouse workers,45.493148,-61.776903
Nova Scotia,Ellslea Farms Limited,"Canning, NS B0P 1H0",3,8431,General farm workers,45.026806,-64.165254
Nova Scotia,Elmridge Farm (2003) Ltd,"Centreville, NS B0P 1J0",27,8431,General farm workers,45.195976,-64.680474
Nova Scotia,EM&I Stantec Ltd.,"Dartmouth, NS B3B 1S1",3,2261,Non,44.699441,-63.595036
Nova Scotia,Eyking Brothers Farm Ltd,"Millville, NS B1Y 2E2",20,8431,General farm workers,46.27095,-60.379651
Nova Scotia,Eyking Under Glass Ltd,"Millville, NS B1Y 2E1",6,8432,Nursery and greenhouse workers,46.27095,-60.379651
Nova Scotia,Farnell Packaging Ltd,"Dartmouth, NS B3B 1L3",1,9214,"Supervisors, plastic and rubber products manufacturing",44.704755,-63.595664
Nova Scotia,Forca Training Centre,"Dartmouth, NS B2W 5G7",1,5254,"Program leaders and instructors in recreation, sport and fitness",44.671864,-63.490166
Nova Scotia,Fox Harb'r Development Limited,"Wallace, NS B0K 1Y0",2,6321,Chefs,45.79188,-63.520605
Nova Scotia,Fresh Casual Restaurants Inc Fredericton o/a Swiss Chalet,"Amherst, NS B4H 4L2",2,6322,Cooks,45.835384,-64.190678
Nova Scotia,Fresh Casual Restaurants Inc. Charlottetown o/a Swiss Chalet,"Amherst, NS B4H 4L2",2,6322,Cooks,45.835384,-64.190678
Nova Scotia,Fresh Casual Restaurants Inc. Dieppe o/a Swiss Chalet,"Amherst, NS B4H 4L2",4,6322,Cooks,45.835384,-64.190678
Nova Scotia,Fuller Brothers,"Avonport, NS B0P 1B0",10,8431,General farm workers,45.095693,-64.227973
Nova Scotia,Funsion Enterprises Ltd.,"Halifax, NS B3J 3Z2",1,6211,Retail sales supervisors,44.643446,-63.569364
Nova Scotia,Future Stars' Learning Centre,"Halifax, NS B3S 1G5",2,4214,Early childhood educators and assistants,44.672237,-63.673695
Nova Scotia,G & C Hughes Enterprises Ltd,"New Ross, NS B0J 2M0",8,8431,General farm workers,44.7657928466797,-64.4158172607422
Nova Scotia,G & C Hughes Enterprises Ltd,,23,8432,Nursery and greenhouse workers,,
Nova Scotia,G. K. Morse Trucking Ltd.,"Centreville, NS B0P 1J0",4,7511,Transport truck drivers,45.195976,-64.680474
Nova Scotia,Gabadi Services Canada Inc.,"Halifax, NS B3J 3N2",7,7235,Structural metal and platework fabricators and fitters,44.6520116,-63.5760615
Nova Scotia,Garden View Restaurant Ltd,"Dartmouth, NS B2X 1S2",1,6322,Cooks,44.682421,-63.536697
Nova Scotia,Good Air Ventilation System Inc.,"Halifax, NS B3J 2G1",1,0621,Retail and wholesale trade managers,44.643643,-63.574921
Nova Scotia,GTL Transportation Inc.,"Dartmouth, NS B3B 1X0",4,7511,Transport truck drivers,,
Nova Scotia,H B Morse & Son,"Berwick, NS B0P 1E0",15,8431,General farm workers,45.090922,-64.823309
Nova Scotia,Halifax ALTA Gymnastics Club,"Halifax, NS B3L 4T7",1,5252,Coaches,44.653673,-63.631058
Nova Scotia,Halifax Glassworks Limited,"Halifax, NS B3J 2P8",1,5244,Artisans and craftspersons,44.651576,-63.572435
Nova Scotia,Halterm Container Terminal Limited Partnership,"Halifax, NS B3J 2X1",1,1122,Professional occupations in business management consulting,44.651606,-63.572435
Nova Scotia,Health Outcomes Worldwide Inc,"New Waterford, NS B1H 4K4",1,2173,Software engineers and designers,46.20855,-59.99311
Nova Scotia,HGC Transport Ltd. (1445913 Ontario Inc.),"Halifax, NS B3J 3N2",4,7511,Transport truck drivers,44.6520116,-63.5760615
Nova Scotia,Hillside Orchards,"Berwick, NS B0P 1E0",12,8431,General farm workers,45.090922,-64.823309
Nova Scotia,Immigration Consultant Atlantic Ltd.,"Halifax, NS B3J 3N2",1,6552,Other customer and information services representatives,44.6520116,-63.5760615
Nova Scotia,Imp Group Limited,"Amherst, NS B4H 4J6",1,2244,"Aircraft instrument, electrical and avionics mechanics, technicians and inspectors",45.8139725,-64.228245
Nova Scotia,Irving Shipbuilding Inc.,"Halifax, NS B3K 5M7",6,0016,Senior managers ,44.66274,-63.590281
Nova Scotia,Irving Shipbuilding Inc.,,2,0113,Purchasing managers,,
Nova Scotia,Irving Shipbuilding Inc.,,1,0211,Engineering managers,,
Nova Scotia,Irving Shipbuilding Inc.,,5,0711,Construction managers,,
Nova Scotia,Irving Shipbuilding Inc.,,1,0714,Facility operation and maintenance managers,,
Nova Scotia,Irving Shipbuilding Inc.,,12,0911,Manufacturing managers,,
Nova Scotia,Irving Shipbuilding Inc.,,4,2132,Mechanical engineers,,
Nova Scotia,Irving Shipbuilding Inc.,,1,2148,"Other professional engineers, n.e.c.",,
Nova Scotia,Irving Shipbuilding Inc.,,1,9226,"Supervisors, other mechanical and metal products manufacturing",,
Nova Scotia,J & M Reeves Christmas Greens Ltd,"New Ross, NS B0J 2M0",4,8432,Nursery and greenhouse workers,44.7657928466797,-64.4158172607422
Nova Scotia,J & V Education Service Inc.,"Halifax, NS B3H 4K2",1,0421,Administrators ,44.6387645,-63.5729029
Nova Scotia,J E Bembridge Enterprises Ltd.,"Amherst, NS B4H 4E1",1,6311,Food service supervisors,45.777061,-63.89274
Nova Scotia,J W Mason & Sons (2013) Limited,"Windsor, NS B0N 2T0",20,8431,General farm workers,44.819594,-64.318054
Nova Scotia,Jeita Holdings Limited,"Halifax, NS B3M 3N8",1,6311,Food service supervisors,44.663276,-63.653941
Nova Scotia,Job Fit Consulting Ltd,"Truro, NS B2N 6C7",10,7511,Transport truck drivers,45.365588,-63.278129
Nova Scotia,John's Steak House Limited,"Antigonish, NS B2G 1R6",2,6322,Cooks,45.61581,-62.00145
Nova Scotia,Jonathan Eldon Mundle/Mundles Farm,"Pugwash, NS B0K 1L0",1,8252,"Agricultural service contractors, farm supervisors and specialized livestock workers",45.8656768798828,-63.6681251525879
Nova Scotia,Kameron Coal Management Ltd,"Donkin, NS B1A 6P2",3,8221,"Supervisors, mining and quarrying",46.1819172,-59.8678989
Nova Scotia,Kameron Coal Management Ltd,,3,8231,Underground production and development miners,,
Nova Scotia,Kingsport Studos Limited,"Kingsport, NS B0P 1H0",2,3125,Other professional occupations in health diagnosing and treating,45.026806,-64.165254
Nova Scotia,Les Enterprises Samson Enterprises Ltee,"Petit De Grat, NS B0E 2L0",1,9531,Boat assemblers and inspectors,45.446991,-60.939875
Nova Scotia,Les Enterprises Samson Enterprises Ltee,,2,9535,"Plastic products assemblers, finishers and inspectors",,
Nova Scotia,Lotus Garden Restaurant Limited,"Yarmouth, NS B5A 2T6",1,6322,Cooks,43.8441038,-66.1070988
Nova Scotia,Lutz Family Farm Ltd,"Berwick, NS B0P 1E0",1,8431,General farm workers,45.090922,-64.823309
Nova Scotia,MacDrew Limited,"Wolfville, NS B4B 1E2",1,6322,Cooks,44.714292,-63.716497
Nova Scotia,MacGregor Dairy Farm,"Churchville, NS B0K 1B0",3,8252,"Agricultural service contractors, farm supervisors and specialized livestock workers",45.430742,-62.606971
Nova Scotia,Mandox Incorporated,"Annapolis Royal, NS B0S 1A0",1,6322,Cooks,44.74364,-65.51801
Nova Scotia,Maritime Osteopathy Ltd,"Bridgewater, NS B4V 2L2",1,3125,Other professional occupations in health diagnosing and treating,44.373469,-64.529071
Nova Scotia,Melvin Farms Ltd,"Canning, NS B0P 1H0",33,8431,General farm workers,45.026806,-64.165254
Nova Scotia,Mic Mac Beverage Room (2006) Ltd.,"Dartmouth, NS B2X 2C3",4,6322,Cooks,44.692423,-63.545997
Nova Scotia,Millen Farms Limited,"Great Village, NS B0M 1L0",239,8431,General farm workers,45.369405,-63.662186
Nova Scotia,Mirchi Tandoor Inc.,"Halifax, NS B3J 1J7",3,6322,Cooks,44.645217,-63.573178
Nova Scotia,Moncton Fresh Casual Restaurants Inc o/a Swiss Chalet,"Amherst, NS B4H 4L2",2,6322,Cooks,45.835384,-64.190678
Nova Scotia,Mother Hubbard N'  Friends Daycare Inc.,"Lower Sackville, NS B4C 3M1",1,4214,Early childhood educators and assistants,44.759618,-63.6595939
Nova Scotia,Mount Saint Vincent University,"Halifax, NS B3M 2J6",2,4011,University professors and lecturers,44.672214,-63.643592
Nova Scotia,Naru Japanese Restaurant (NS) Ltd.,"Sydney, NS B1P 1G8",2,6321,Chefs,46.135026,-60.192725
Nova Scotia,Nazinga Farms Ltd,"Aylesford, NS B0P 1C0",18,8431,General farm workers,45.066995,-64.800737
Nova Scotia,Newcap Inc,"Dartmouth, NS B3B 1G4",1,0512,Managers ,44.702779,-63.611596
Nova Scotia,North Nova Seafoods Ltd.,"Pictou, NS B0K 1H0",75,9463,Fish and seafood plant workers,45.6460571289063,-62.8005790710449
Nova Scotia,Northwood Homecare Inc.,"Dartmouth, NS B3B 2C4",10,4412,"Home support workers, housekeepers and related occupations",44.70032,-63.579551
Nova Scotia,Northwoodcare Halifax Incorporated,"Dartmouth, NS B3B 2C4",1,3233,Licensed practical nurses,44.70032,-63.579551
Nova Scotia,Nova Scotia College Of Art And Design,"Halifax, NS B3J 3J6",1,4011,University professors and lecturers,44.649359,-63.574261
Nova Scotia,Nova Scotia Health Authority,"Halifax, NS B3H 3A7",1,3111,Specialist physicians,44.645426,-63.585445
Nova Scotia,Nova Scotia Health Authority,"Sidney, NS B1P 1P3",18,3111,Specialist physicians,46.1180163,-60.1714906
Nova Scotia,Nova Scotia Health Authority,,1,3112,General practitioners and family physicians,,
Nova Scotia,Ocean Pride Fisheries Ltd.,"Lower Wedgeport, NS B0W 2B0",15,9618,Labourers in fish and seafood processing,43.717172,-65.97528
Nova Scotia,Odour Solutions Atlantic Ltd,"Halifax, NS B3M 4H4",1,9612,Labourers in metal fabrication,44.650717,-63.586497
Nova Scotia,Oxford Berry Farm,"Oxford, NS B0M 1P0",18,8431,General farm workers,45.810473,-63.849946
Nova Scotia,Parkland Construction Ltd.,"Bedford, NS B4A 2E5",2,7272,Cabinetmakers,44.723997,-63.655365
Nova Scotia,Perfect Berries Ltd,"Berwick, NS B0P 1E0",34,8431,General farm workers,45.090922,-64.823309
Nova Scotia,Petit de Grat Packers Ltd.,"Arichat, NS B0E 1A0",11,9463,Fish and seafood plant workers,45.514793,-60.966046
Nova Scotia,Pioneer Cleaners Incorporated,"Halifax, NS B3M 1W9",2,6731,Light duty cleaners,44.676615,-63.650407
Nova Scotia,Pisiquid Aquatic Club,"Windsor, NS B0N 2T0",1,5252,Coaches,44.819594,-64.318054
Nova Scotia,Power Farms Inc,"Canning, NS B0P 1H0",12,8431,General farm workers,45.026806,-64.165254
Nova Scotia,Premium Choice Shrimp Ltd.,"Arichat, NS B0E 1A0",7,9618,Labourers in fish and seafood processing,45.514793,-60.966046
Nova Scotia,Premium Seafoods Ltd.,"Arichat, NS B0E 1A0",13,9618,Labourers in fish and seafood processing,45.514793,-60.966046
Nova Scotia,Pure Season 1 Inc.,"Chester, NS B0J 1J0",1,5135,Actors and comedians,44.560562,-64.225079
Nova Scotia,R & M Boatbuilding Limited,"Shelburne, NS B0T 1W0",1,9531,Boat assemblers and inspectors,43.66134,-65.41816
Nova Scotia,Randsland Farms Inc,"Canning, NS B0P 1H0",46,8431,General farm workers,45.026806,-64.165254
Nova Scotia,Ranex Cuisine Limited,"Dartmouth, NS B2X 0A2",1,6322,Cooks,44.717787,-63.529223
Nova Scotia,River Breeze Farm Limited,"Upper Onslow, NS B6L 6Y3",6,8431,General farm workers,45.3961213,-63.2848257
Nova Scotia,Riverside Lobster International Inc.,"Meteghan River, NS B0W 2L0",36,9463,Fish and seafood plant workers,44.221552,-66.119502
Nova Scotia,RJ Farm,"Berwick, NS B0P 1E0",2,8431,General farm workers,45.090922,-64.823309
Nova Scotia,Rodd Development Limited,"Halifax, NS B3K 2A1",1,6311,Food service supervisors,44.659487,-63.602612
Nova Scotia,Rosos Properties Services Incorporated,"Dartmouth, NS B2V 1J5",6,6731,Light duty cleaners,44.66542,-63.497165
Nova Scotia,Royal Environmental Inc.,"Lower Sackville, NS B4C 4B1",1,7511,Transport truck drivers,44.7556817,-63.6562998
Nova Scotia,Royal Nova Scotia Yacht Squadron,"Halifax, NS B3P 1C7",3,5252,Coaches,44.622762,-63.585964
Nova Scotia,Saint Mary's University,"Halifax, NS B3H 3C3",1,4011,University professors and lecturers,44.630549,-63.582286
Nova Scotia,Sanhaven Farms,"Antigonish, NS B2G 2K9",1,8252,"Agricultural service contractors, farm supervisors and specialized livestock workers",45.6396,-62.04642
Nova Scotia,Sarsfield Farms Inc,"Canning, NS B0P 1H0",37,8431,General farm workers,45.026806,-64.165254
Nova Scotia,Seawalker Productions Inc.,"Chester, NS B0J 1J0",1,5121,Authors and writers,44.560562,-64.225079
Nova Scotia,Seawalker Productions Inc.,,2,5135,Actors and comedians,,
Nova Scotia,"SHIL Technologies, Inc.","Halifax, NS B3J 3N2",1,2174,Computer programmers and interactive media developers,44.6520116,-63.5760615
Nova Scotia,Shree Ganesh Ltd. (Curry Express),"Bridgewater, NS B4V 1M3",2,6322,Cooks,44.368143,-64.524878
Nova Scotia,Sidon Holdings Ltd,"Halifax, NS B3J 2V9",1,6322,Cooks,44.651602,-63.572435
Nova Scotia,Small Town Productions Inc.,"Halifax, NS B3J 1K9",1,5226,Other technical and co,44.645676,-63.575676
Nova Scotia,Sobeys West Inc.,"Stellarton, NS B0K 1S0",1,0015,Senior managers ,45.5583249,-62.6623249
Nova Scotia,Song's Korean Restaurant,"Halifax, NS B3L 1A4",1,6322,Cooks,44.645526,-63.596843
Nova Scotia,Spiteful Threesome Pictures Inc,"Halifax, NS B3K 4K1",2,5135,Actors and comedians,44.65152,-63.589042
Nova Scotia,Spurr Brothers Farms Ltd,"Kingston, NS B0P 1R0",16,8431,General farm workers,45.074551,-64.720682
Nova Scotia,St. Anne Community and Nursing Care Centre,"Arichat, NS B0E 1A0",1,3012,Registered nurses and registered psychiatric nurses,45.514793,-60.966046
Nova Scotia,St. Francis Xavier University,"Antigonish, NS B2G 2W5",1,4011,University professors and lecturers,45.621736,-61.992907
Nova Scotia,Stelia Aéronautique Amérique du Nord Inc,"Lunenburg, NS B0J 2C0",1,2146,Aerospace engineers,44.37635,-64.309889
Nova Scotia,Stokdijk Greenhouses Ltd,"Beaver Brook, NS B6L 1H3",24,8432,Nursery and greenhouse workers,45.3226595,-63.410474
Nova Scotia,Synergy CHC Inc.,"Fall River, NS B2T 1J5",1,1123,"Professional occupations in advertising, marketing and public relations",44.808796,-63.605941
Nova Scotia,Tako Sushi & Ramen Restaurant Limited,"Bedford, NS B4A 0B8",1,6322,Cooks,44.723968,-63.670679
Nova Scotia,Talay Thai Dartmouth Restaurant Inc,"Dartmouth, NS B2V 1E7",3,6322,Cooks,44.671402,-63.494685
Nova Scotia,Tawa Grill,"Halifax, NS B3J 1R9",1,6322,Cooks,44.645084,-63.570552
Nova Scotia,Tempo Renovations Limited,"Halifax, NS B3N 3E5",1,0711,Construction managers,44.652964,-63.636825
Nova Scotia,The Tom Kotter Company Ltd.,"Halifax, NS B3J 1V7",1,5131,"Producers, directors, choreographers and related occupations",44.646838,-63.572429
Nova Scotia,Tolentino-Tough Property Services,"West Pennant, NS B3V 1M2",2,6731,Light duty cleaners,44.601217,-63.6546
Nova Scotia,Town Plot Orchards,"Port Williams, NS B0P 1T0",7,8431,General farm workers,45.159695,-64.362715
Nova Scotia,Track Group Analytics Ltd.,"Bedford, NS B4A 3Y4",1,1215,"Supervisors, supply chain, tracking and scheduling co",44.733105,-63.655979
Nova Scotia,Traditional Evergreen Tree Farm Ltd,"Bridgewater, NS B4V 2W6",5,8432,Nursery and greenhouse workers,44.367212,-64.561088
Nova Scotia,Tulip Farm,"Pugwash, NS B0K 1L0",1,8252,"Agricultural service contractors, farm supervisors and specialized livestock workers",45.8656768798828,-63.6681251525879
Nova Scotia,VanMeekeren Farms Ltd,"Kentville, NS B4N 3V7",8,8431,General farm workers,45.067163,-64.547804
Nova Scotia,Vermeuland Farms Limited,"Milford, NS B0N 1Y0",2,8252,"Agricultural service contractors, farm supervisors and specialized livestock workers",44.9946916,-63.3453807
Nova Scotia,Vermeulen Farms Limited,"Canning, NS B0P 1H0",25,8431,General farm workers,45.026806,-64.165254
Nova Scotia,Vermeulen Farms Limited,,25,8611,Harvesting labourers,,
Nova Scotia,Webster Farms Ltd,"Cambridge, NS B0P 1G0",36,8431,General farm workers,45.0180485,-64.6008165
Nova Scotia,WesTower Communications Ltd.,"Wellington, NS B2T 1K6",1,7245,Telecommunications line and cable workers,44.812477,-63.636248
Nova Scotia,Windsor Street Childcare Centre Inc.,"Halifax, NS B3K 5E4",1,4214,Early childhood educators and assistants,44.653784,-63.60172
Nova Scotia,Wohlgemuth Farms Ltd,"Aylesford, NS B0P 1C0",5,7511,Transport truck drivers,45.066995,-64.800737
Nova Scotia,Wohlgemuth Farms Ltd,,9,8432,Nursery and greenhouse workers,,
Nova Scotia,Yu Yo The Artists' Place Inc.,"Dartmouth, NS B2W 4E1",1,0621,Retail and wholesale trade managers,44.672081,-63.509861
Nova Scotia,ZM Supreme Cleaning Services Limited,"Dartmouth, NS B3A 2B2",3,6315,Cleaning supervisors,44.678934,-63.580923
New Brunswick,053636 NB Ltd.,"Dieppe, NB E1A 1Y6",5,7511,Transport truck drivers,46.093314,-64.752684
New Brunswick,100-220 PEI Inc.,"Fredericton, NB E3B 1W8",2,6311,Food service supervisors,45.9569875,-66.6560175
New Brunswick,2439624 Nova Scotia LTD,"Alma, NB E4H 1N9",1,6311,Food service supervisors,45.602546,-64.93849
New Brunswick,611286 NB Inc.,"Saint John, NB E2L 4W3",2,6322,Cooks,45.273233,-66.060982
New Brunswick,615317 NB Inc,"Berwick, NB E5P 3H5",18,8432,Nursery and greenhouse workers,45.841633,-65.58021
New Brunswick,616452 NB Ltd.,"Moncton, NB E1C 2T9",1,6322,Cooks,46.108404,-64.827252
New Brunswick,620694 NB Ltd.,"Fredericton, NB E3C 0B8",2,6322,Cooks,45.9295417,-66.6645196
New Brunswick,"622735 NB, Inc.","Lake George, NB E6K 3P9",1,6322,Cooks,45.990212,-66.890491
New Brunswick,638571 N.B. Ltd.,"Saint John, NB E2J 2S5",1,6322,Cooks,45.313671,-66.026221
New Brunswick,641009 N.B. Inc.,"Lepreau, NB E5J 0B4",1,6332,Bakers,45.1922691,-66.5166232
New Brunswick,648954 NB Inc,"Kouchibouguac, NB E4X 1L7",20,8431,General farm workers,46.7804571,-65.0902361
New Brunswick,658579 NB Ltd,"Fredericton, NB E3C 1A2",1,6322,Cooks,45.9332836,-66.6627318
New Brunswick,658711 NB Ltd.,"Miramichi, NB E1V 1X4",1,6321,Chefs,47.002659,-65.565487
New Brunswick,659309 NB Inc,"Moncton, NB E1C 1E4",1,6322,Cooks,46.088929,-64.775636
New Brunswick,662100 NB Ltd,"Grande Anse, NB E8N 1A1",2,8431,General farm workers,47.802081,-65.210546
New Brunswick,665606 NB Inc,"Moncton, NB E1A 5L1",1,6322,Cooks,46.123283,-64.783103
New Brunswick,669950 NB Ltd. o/a NARU Japanese Restaurant Ltd.,"Fredericton, NB E3B 1B9",2,6322,Cooks,45.961468,-66.639585
New Brunswick,669955 N.B. Inc.,"Oromocto, NB E2V 1S2",1,6322,Cooks,45.841907,-66.479933
New Brunswick,672018 N.B. Inc.,"Saint John, NB E2L 1B2",1,1221,Administrative officers,45.275331,-66.057451
New Brunswick,7726848 Canada Ltd.,"Moncton, NB E1C 2T9",6,6322,Cooks,46.108404,-64.827252
New Brunswick,Atlantic Cancer Research Institute,"Moncton, NB E1C 8X3",1,2121,Biologists and related scientists,46.096834,-64.786333
New Brunswick,Atlantic Towing Limited,"Saint John, NB E4E 4P6",1,0016,Senior managers ,45.728755,-65.487229
New Brunswick,B & B Environmental Services Ltd,"Newtown, NB E4G 1M2",2,7511,Transport truck drivers,45.74841,-65.570466
New Brunswick,BEUMER Group Canada Corporation,"Moncton, NB E1C 5H7",1,2281,Computer network technicians,46.085645,-64.781271
New Brunswick,BEUMER Group Canada Corporation,,1,7301,"Contractors and supervisors, mechanic trades",,
New Brunswick,BLR Foods Ltd,"Saint John, NB E2J 1X2",2,6322,Cooks,45.28731,-66.041748
New Brunswick,Bolero Shellfish Processing Inc.,"Saint-Simon, NB E8P 2B2",17,9463,Fish and seafood plant workers,47.624341,-65.230642
New Brunswick,"Botsford Fisheries Ltd., Les Pêcheries Botsford ltée","Cap-Pele, NB E4N 3B3",9,9463,Fish and seafood plant workers,46.2154693603516,-64.2717361450195
New Brunswick,Bouctouche Bay Inn Inc.,"Bouctouche, NB E4S 2T5",4,6322,Cooks,46.464256,-64.704106
New Brunswick,Brun Fisheries Ltd.,"Petit-Cap, NB E4N 2G8",4,9618,Labourers in fish and seafood processing,46.223776,-64.538469
New Brunswick,CANLink Aviation Inc.,"Rothesay, NB E2E 5J7",1,2271,"Air pilots, flight engineers and flying instructors",45.388549,-65.997351
New Brunswick,Cape Bald Packers Ltd,"Cap Pele, NB E4N 1E3",226,9463,Fish and seafood plant workers,46.2167287,-64.283788
New Brunswick,Captain Dan's Inc.,"Richibouctou-Village, NB E4W 1C9",55,9463,Fish and seafood plant workers,46.660031,-64.709287
New Brunswick,Cedar Rock Farm,"Nauwigewauk, NB E5N 6W4",1,8431,General farm workers,45.481631,-65.88293
New Brunswick,County Line Trucking Ltd,"Wilmot, NB E7P 2V4",4,7511,Transport truck drivers,46.3412017822266,-67.6228332519531
New Brunswick,Crowevel Farms Ltd.,"Newtown, NB E4G 1M2",1,8431,General farm workers,45.74841,-65.570466
New Brunswick,Culberson Trucking Ltd.,"Jacksonville, NB E7M 3J8",5,7511,Transport truck drivers,46.032829,-67.603206
New Brunswick,Day & Ross Inc,"Hartland, NB E7P 1C6",1,0016,Senior managers ,46.298284,-67.527914
New Brunswick,Domino's Pizza,"Moncton, NB E1C 2R8",2,6311,Food service supervisors,46.100197,-64.808342
New Brunswick,Donnelly Farms Ltd,"Lansdowne, NB E7L 4K4",2,7511,Transport truck drivers,46.373946,-67.517995
New Brunswick,Dowon Brothers Inc.,"Moncton, NB E1C 5C3",3,6322,Cooks,46.088521,-64.779734
New Brunswick,D-U-C Trucking Inc.,"Woodstock, NB E7M 1Y7",1,7511,Transport truck drivers,46.1457893,-67.5886668
New Brunswick,Edmond Gagnon Ltd,"Grand-Barachois, NB E4P 8A4",65,9463,Fish and seafood plant workers,46.222988,-64.422449
New Brunswick,Element5 Spa Inc.,"Saint John, NB E2L 4Z6",1,6341,Hairstylists and barbers,45.272685,-66.06281
New Brunswick,Elephant Transport Inc.,"Dieppe, NB E1A 0Z6",1,7511,Transport truck drivers,46.079715,-64.72179
New Brunswick,Elsipogtog Mental Health Services,"Elsipogtog, NB E4W 2S1",1,4153,"Family, marriage and other related counsellors",46.679662,-64.866292
New Brunswick,Elzayat Corp.,"Fredericton, NB E3B 1E4",3,6322,Cooks,45.962936,-66.646021
New Brunswick,Fenety Convenience Store Ltd.,"Waasis, NB E3B 9E1",2,6322,Cooks,45.83305,-66.56387
New Brunswick,Full House Enterprise Ltd,"Fredericton, NB E3B 5Y4",1,6322,Cooks,45.949626,-66.686082
New Brunswick,Gamma II Investments Ltd.,"Saint John, NB E2J 2C2",2,6322,Cooks,45.2964198,-66.0404374
New Brunswick,Golden Point Ltd o/a Subway,"Saint John, NB E2K 3A1",1,6311,Food service supervisors,45.278633,-66.076573
New Brunswick,Horizon Health Network,"Moncton, NB E1C 6Z8",3,3111,Specialist physicians,46.105777,-64.806836
New Brunswick,Horizon Health Network,"Saint John, NB E2L 4L2",3,3112,General practitioners and family physicians,45.277029,-66.068461
New Brunswick,Howell Ventures Ltd.,"Upper Kingsclear, NB E3E 1P8",1,2174,Computer programmers and interactive media developers,45.8992,-66.89718
New Brunswick,HUNTSMAN MARINE SCIENCE CENTRE,"St.Andrews, NB E5B 2L7",1,2121,Biologists and related scientists,45.24411,-66.992932
New Brunswick,Hutt Chiropractic Professional Corp,"Miramichi, NB E1V 5L5",1,3122,Chiropractors,47.021448,-65.532608
New Brunswick,IGT Canada Solutions ULC,"Moncton, NB E1H 2R6",1,1211,"Supervisors, general office and administrative support workers",46.131267,-64.744966
New Brunswick,IGT Canada Solutions ULC,,1,2174,Computer programmers and interactive media developers,,
New Brunswick,Irving Oil Company Limited,"Saint John, NB E2L 4K1",1,2152,Landscape architects,45.277029,-66.068461
New Brunswick,Irving Tissue Corp. (Moncton),"Dieppe, NB E1A 6X4",1,0016,Senior managers ,46.103269,-64.710436
New Brunswick,Irving Tissue Corp. (Moncton),"Moncton, NB E1H 3N5",1,0016,Senior managers ,46.132541,-64.729268
New Brunswick,J.D. Irving,"Saint John, NB E2L 4M3",1,2174,Computer programmers and interactive media developers,45.277029,-66.068461
New Brunswick,Jeramand Enterprises Ltd.,"Irishtown, NB E1H 2L3",4,7511,Transport truck drivers,46.241466,-64.801236
New Brunswick,Jolly Farmer Products Inc,"Northampton, NB E7N 1R6",24,8432,Nursery and greenhouse workers,46.053925,-67.549314
New Brunswick,"Jolly Farmer Transport ,Inc.","Northhampton, NB E7N 1R6",2,7511,Transport truck drivers,46.053925,-67.549314
New Brunswick,JP Lavoie & Sons Ltd,"Salisbury, NB E4J 3E2",1,6322,Cooks,46.037383,-65.041135
New Brunswick,JPS Trucking Ltd.,"Bloomfield, NB E7K 1C8",4,7511,Transport truck drivers,46.475272,-67.74373
New Brunswick,Jun Realty Ltd.,"Dieppe, NB E1A 1P4",1,6322,Cooks,46.098038,-64.73566
New Brunswick,KIL Investments Ltd.,"Fredericton, NB E3B 2H8",1,6311,Food service supervisors,45.9641996,-66.6623193
New Brunswick,KIL Investments Ltd.,,2,6322,Cooks,,
New Brunswick,Kim Thoa Restaurant Inc,"Woodstock, NB E7M 1L3",1,6321,Chefs,46.163403,-67.594614
New Brunswick,La Residence Castel Des Flots Bleus Ltee,"Cap-Pete, NB E4N 0B5",3,6731,Light duty cleaners,46.1826222,-64.2149763
New Brunswick,L'Association Coopérative des Pêcheurs de l'Île Ltée,"Lamèque, NB E8T 1M8",11,9463,Fish and seafood plant workers,47.7932426,-64.6524579
New Brunswick,Les Pêcheries de Chez Nous,"Tracadie-Sheila, NB E1X 1G4",26,9463,Fish and seafood plant workers,47.536215,-64.907582
New Brunswick,Les Petits Fruits de Pré-d'en-Haut Inc,"Memramcook, NB E4K 1K8",25,8431,General farm workers,45.968083,-64.605089
New Brunswick,Leslie Leger and Sons Ltd.,"Trois-Ruisseaux, NB E4N 3B3",15,9463,Fish and seafood plant workers,46.2154693603516,-64.2717361450195
New Brunswick,Maritime Auto Body 2014 Ltd.,"Saint John, NB E2M 3S4",1,7322,Motor vehicle body repairers,45.256512,-66.095983
New Brunswick,Maritime Truck & Tractor Pull Association,"Richmond Corner, NB E7M 4W9",1,6722,"Operators and attendants in amusement, recreation and sport",46.150007,-67.7
New Brunswick,McConchie Trucking Ltd.,"Norton, NB E5T 1E8",6,7511,Transport truck drivers,45.644651,-65.689936
New Brunswick,McConnell Transport Ltd.,"Woodstock, NB E7M 6B5",22,7511,Transport truck drivers,46.155532,-67.592329
New Brunswick,McLaughlin Dental Group Inc,"Bedell, NB E7M 4P1",1,3113,Dentists,46.147036,-67.62453
New Brunswick,McSubway Inc,"Saint John, NB E2L 1G3",1,6311,Food service supervisors,45.273028,-66.061305
New Brunswick,Meadow Valley Manor Inc.,"Saint John, NB E2J 4E2",2,3413,"Nurse aides, orderlies and patient service associates",45.3005545,-65.9875695
New Brunswick,Mountain Road Pizzeria Inc.,"Miramichi, NB E1V 5Z5",1,6322,Cooks,47.034627,-65.501079
New Brunswick,Mountain View Packers Ltd,"Florenceville - Bristol, NB E7L 1Y9",6,8431,General farm workers,46.433347,-67.6221
New Brunswick,Murray Enterprises Ltd,"Sussex Corner, NB E4E 2Y5",8,7511,Transport truck drivers,45.7100729,-65.4774611
New Brunswick,Ocean Pier Inc.,"Scoudouc, NB E4P 3R4",17,9463,Fish and seafood plant workers,46.167616,-64.584942
New Brunswick,Orchard Shade Farms Ltd,"Northampton, NB E7N 1E2",8,8431,General farm workers,46.008901,-67.723568
New Brunswick,Pioneer Transport Inc.,"Woodstock, NB E7M 6B5",22,7511,Transport truck drivers,46.155532,-67.592329
New Brunswick,Playteck Enterprises Inc,"Dieppe, NB E1A 6V3",2,2225,Landscape and horticulture technicians and specialists,46.095195,-64.758746
New Brunswick,Quality Transportation Services (NB) Ltd,"Jacksonville, NB E7M 3S1",9,7511,Transport truck drivers,46.1887576,-67.6071221
New Brunswick,R & L Convenience Inc.,"Rothesay, NB E2E 5X4",3,6322,Cooks,45.405834,-66.002734
New Brunswick,R. E. M. Transport Ltd.,"St. Stephen, NB E3L 3A6",2,7511,Transport truck drivers,45.195529,-67.282394
New Brunswick,Regional Health Authority B,"Miramichi, NB E1V 3G5",1,3112,General practitioners and family physicians,47.00234,-65.546196
New Brunswick,Reid and Associates Accounting Ltd.,"Hampton, NB E5N 8H2",1,1311,Accounting technicians and bookkeepers,45.514829,-65.841544
New Brunswick,Rossignol Transport LTD,"Edmundston, NB E3V 3K8",2,7511,Transport truck drivers,47.4785,-68.414989
New Brunswick,Saigon Thai Ltd.,"Moncton, NB E1C 4L6",1,6322,Cooks,46.089786,-64.774032
New Brunswick,Shadowave Holsteins Inc. / Green Pig Country Market,"Second North River, NB E4J 2V9",3,8431,General farm workers,46.048894,-65.10039
New Brunswick,Shediac Lobster Shop Ltd,"Shediac, NB E4P 2A6",65,9463,Fish and seafood plant workers,46.21997,-64.53642
New Brunswick,Slocum's Farm Fresh Produce Ltd,"Waterborough, NB E4C 2Y3",4,8431,General farm workers,45.92795,-65.98819
New Brunswick,Sowcow Farms Inc,"Penobsquis, NB E4G 2Z4",1,8252,"Agricultural service contractors, farm supervisors and specialized livestock workers",45.796334,-65.26883
New Brunswick,Spoon Express Restaurant,"Moncton, NB E1G 2H9",3,6322,Cooks,46.119863,-64.849437
New Brunswick,Squash Moncton Ltd.,"Dieppe, NB E1A 8R1",1,5252,Coaches,46.089286,-64.701109
New Brunswick,Stewart's Transfer o/a 500516 NB Ltd.,"Perth-Andover, NB E7H 5G3",1,7511,Transport truck drivers,46.739373,-67.704253
New Brunswick,Strawberry Hill Farm,"Pembroke, NB E7N 1S7",3,8431,General farm workers,45.876725,-67.553391
New Brunswick,Sugar Roll Japanese Cuisine,"Dieppe, NB E1A 1P2",1,6321,Chefs,46.0958,-64.746912
New Brunswick,Sugar Roll Japanese Cuisine,,2,6322,Cooks,,
New Brunswick,Suncoast Seafood Inc.,"Grand-Digue, NB E4R 4H7",39,9463,Fish and seafood plant workers,46.321068,-64.536383
New Brunswick,Tran's Palace Restaurant,"Miramichi, NB E1V 1Y5",1,6322,Cooks,46.998989,-65.567688
New Brunswick,Tran's Place Ltd,"Moncton, NB E1A 2X1",1,6322,Cooks,46.117895,-64.772152
New Brunswick,Transport Solutions Ltd.,"Moncton, NB E1C 1G5",17,7511,Transport truck drivers,46.087999,-64.779869
New Brunswick,Triple M. Trucking Ltd.,"Central Waterville, NB E6G 2K5",1,7511,Transport truck drivers,45.876694,-67.553391
New Brunswick,Verger Belliveau Orchard Ltd,"Memramcook, NB E4K 2S6",18,8431,General farm workers,45.949971,-64.628396
New Brunswick,Verger Belliveau Orchard Ltd,,5,8611,Harvesting labourers,,
New Brunswick,Victoria  Trucking  Ltd.,"Perth-Andover, NB E7H 5K3",4,7511,Transport truck drivers,46.7368583679199,-67.7031860351563
New Brunswick,W.J.Allen & Sons Inc. o/a Aulac Big Stop Restaurant,"Aulac, NB E4L 2X2",2,6322,Cooks,45.882979,-64.296257
New Brunswick,Westmorland Fisheries Ltd.,"Cap-Pelé, NB E4N 1V3",224,9463,Fish and seafood plant workers,46.181127,-64.210248
New Brunswick,Woodstock Cold Storage (1990) Ltd.,"Bayside, NB E5B 2Y2",1,0714,Facility operation and maintenance managers,45.27845,-66.865717
Quebec,101598 Canada Ltd.,"Montréal, QC H2V 4H4",1,6322,Cooks,45.523714,-73.605516
Quebec,149942 CANADA INC,"Laval, QC H7L 3T6",1,6321,Chefs,45.582407,-73.757147
Quebec,1724982 Alberta ULC,"Montreal, QC H3L 1Z8",1,5232,"Other performers, n.e.c.",45.5416,-73.663462
Quebec,2325-1317 Quebec Inc,"Montréal, QC H2C 1R3",1,6321,Chefs,45.560347,-73.657817
Quebec,2433-7529 Québec Inc.,"Lanoraie, QC J0K 1E0",10,8431,General farm workers,45.956657,-73.221825
Quebec,2436-3392 Québec Inc.,"St-Eustache, QC J7R 4K6",10,8432,Nursery and greenhouse workers,45.573807,-73.892325
Quebec,2618-6585 Québec inc.,"Montreal, QC H2W 1Y7",1,6322,Cooks,45.51709,-73.579591
Quebec,2637-5808 Québec inc.,"Lévis, QC G7A 4H4",6,8431,General farm workers,46.7007625,-71.4130407
Quebec,2736-0064 Québec inc.,"Saint-Laurent (Île d'Orléans), QC G0A 3Z0",9,8431,General farm workers,46.860509,-71.014815
Quebec,2738-8495 Quebec Inc.,"Montreal, QC H2W 1Y5",2,5232,"Other performers, n.e.c.",45.516832,-73.578797
Quebec,2744-6160 Québec inc.,"L'Assomption, QC J5W 1G7",2,8431,General farm workers,45.8494484,-73.4088029
Quebec,2746-1912 QUÉBEC INC,"Bury, QC J0B 1J0",5,8431,General farm workers,45.456448,-71.546495
Quebec,2756-2396 Québec Inc.,"St-Alexis, QC J0K 1T0",24,8431,General farm workers,45.96805,-73.68699
Quebec,2842-0941 Québec Inc. (Georges Deneault),"St-Jacques-le-Mineur, QC J0J 1Z0",9,8431,General farm workers,45.271119,-73.416869
Quebec,2857-4218 Québec Inc.,"St-Ambroise-de-Kildare, QC J0K 1C0",3,8431,General farm workers,46.08624,-73.613472
Quebec,2867-3598 QUEBEC INC.,"Montréal, QC H3H 2G9",1,6322,Cooks,45.494157,-73.582654
Quebec,2944715 Canada inc.,"Montréal, QC H4N 1M2",1,6222,Retail and wholesale buyers,45.531946,-73.662197
Quebec,2948-1330 Québec Inc.(Les Fermes Guylain Gariepy enr.),"St-Roch De L'achigan, QC J0K 3H0",8,8431,General farm workers,45.848711,-73.623247
Quebec,2955-0571 Québec Inc,"Baie-Saint-Paul, QC G3Z 1P8",1,6731,Light duty cleaners,47.4393131,-70.4959724
Quebec,2956-1016 Québec Inc.,"Dollard des Ormeaux, QC H9B 1P7",1,5134,Dancers,45.483637,-73.795154
Quebec,2964-3277 Quebec Inc.,"Lasalle, QC H8R 3H9",1,0016,Senior managers ,45.433461,-73.646062
Quebec,2964-3277 Quebec Inc.,,1,2174,Computer programmers and interactive media developers,,
Quebec,3089-3242 Québec Inc..,"Québec, QC G1V 2M2",1,6322,Cooks,46.766168,-71.29019
Quebec,3089554 Nova Scotia ULC,"Québec, QC G1N 2C9",2,2132,Mechanical engineers,46.802692,-71.246513
Quebec,3091384 Canada Inc.,"Pointe-Claire, QC H9R 1A5",1,0124,"Advertising, marketing and public relations managers",45.470745,-73.823161
Quebec,3104-3052 Québec inc,"Compton, QC J0B 1L0",2,8431,General farm workers,45.30005,-71.74387
Quebec,3273369 Canada inc.,"Montréal, QC H2X 2V4",1,5131,"Producers, directors, choreographers and related occupations",45.514843,-73.574488
Quebec,3633578 Canada Inc./On set Stunt Inc.,"Boucherville, QC J4B 6T2",1,5232,"Other performers, n.e.c.",45.60051,-73.429245
Quebec,3847128 Canada Inc.,"Montreal, QC H4S 1L5",1,1241,Administrative assistants,45.49928,-73.748789
Quebec,3876098 Canada Inc,"Montréal, QC H4V 1G8",1,6322,Cooks,45.470286,-73.64949
Quebec,3CE Technologies Inc,"Montréal, QC H4P 2M1",1,2173,Software engineers and designers,45.490096,-73.663181
Quebec,4390679 Canada Inc. (Les Multi-Plants Pascal Roy),"St Remi, QC J0L 2L0",2,8432,Nursery and greenhouse workers,45.205117,-73.653262
Quebec,4427319 Canada Inc.,"Montreal, QC H2Y 0A4",2,5222,Film and video camera operators,45.501404,-73.555624
Quebec,6143580 Canada Inc.,"Québec, QC G1K 4A1",1,6332,Bakers,46.814222,-71.202765
Quebec,6173306 Canada Inc.,"Val-d'Or, QC J9P 1W3",3,6311,Food service supervisors,48.098009,-77.818732
Quebec,6179631 Canada Inc,"Montréal, QC H2T 1Y1",4,5241,Graphic designers and illustrators,45.527144,-73.597952
Quebec,6265863 Canada inc.,"Sherbrooke, QC J1M 1Z3",68,8432,Nursery and greenhouse workers,45.307256,-71.829763
Quebec,6362222 Canada Inc.,"Montréal, QC H3E 3B3",7,2171,Information systems analysts and consultants,45.4615233,-73.5463761
Quebec,6362222 Canada Inc.,,2,2173,Software engineers and designers,,
Quebec,6362222 Canada Inc.,,1,6221,Technical sales specialists ,,
Quebec,6450113 Canada Inc.,"Montréal, QC H4A 3J3",3,6322,Cooks,45.474305,-73.608867
Quebec,6657443 Canada,"Montréal, QC H3A 1L4",2,2174,Computer programmers and interactive media developers,45.506963,-73.569119
Quebec,6745067 Canada Inc,"Gatineau, QC J8T 6Z6",1,6322,Cooks,45.471931,-75.701107
Quebec,6750630 Canada Inc,"Montréal, QC H4B 1P3",1,6322,Cooks,45.462327,-73.631544
Quebec,7/24 Marketing Inc.,"Sherbrooke, QC J1J 1J5",1,1221,Administrative officers,45.409244,-71.909798
Quebec,7011296 Canada Inc.,"Montreal, QC H4T 1G5",1,5252,Coaches,45.473268,-73.708372
Quebec,7106106 CANADA INC.,"Gatineau (secteur Hull), QC J8Y 3Y7",1,6322,Cooks,45.447235,-75.7328
Quebec,7261969 Canada inc.,"Ste-Rose-de-Laval, QC H7L 2Y8",1,6322,Cooks,45.534455,-73.729449
Quebec,7266537 CANADA INC. dba International Bridge Technologies (IBT) Canada,"Laval, QC H7V 4B4",1,2253,Drafting technologists and technicians,45.554064,-73.734052
Quebec,7503083 Canada inc.,"Montreal, QC H3V 5G9",1,1241,Administrative assistants,,
Quebec,7543913 Canada Inc.,"Gatineau, QC J9H 5S9",1,4214,Early childhood educators and assistants,45.4044634,-75.8546772
Quebec,7640960 CANADA INC.,"Montreal, QC H4P 1W9",1,2175,Web designers and developers,45.498115,-73.64874
Quebec,8112029 Canada inc.,"Montréal, QC H2Z 1G6",1,6322,Cooks,45.51743,-73.550145
Quebec,8115125 Canada Inc.,"Ripon, QC J0V 1V0",1,6221,Technical sales specialists ,45.83946,-75.05379
Quebec,8336083 Canada inc.,"Montréal, QC H9R 1G6",1,2171,Information systems analysts and consultants,45.456929,-73.828975
Quebec,8528608 Canada Inc.,"Montréal, QC H3W 2Z1",1,2171,Information systems analysts and consultants,45.490749,-73.641149
Quebec,8531145 Canada Inc.,"Montréal, QC H2X 2T6",1,5241,Graphic designers and illustrators,45.514036,-73.57248
Quebec,8678537 Canada inc.,"Laval, QC H7L 5B7",1,2241,Electrical and electronics engineering technologists and technicians,45.584312,-73.765097
Quebec,8735344 Canada Inc.,"Montreal, QC H3B 5G9",1,5241,Graphic designers and illustrators,45.502277,-73.568624
Quebec,8783306 Canada Inc.,"Dollard-des-Ormeaux, QC H9B 3J1",1,2241,Electrical and electronics engineering technologists and technicians,45.482521,-73.803551
Quebec,8884625 Canada Inc.,"Gatineau, QC J9J 3H9",1,6321,Chefs,45.391148,-75.805484
Quebec,9006529 Québec inc.,"Saint-Prosper, QC G0X 3A0",1,8431,General farm workers,46.2128391,-70.4790446
Quebec,9008-1951 QUÉBEC INC.,"La Présentation, QC J0H 1B0",110,8431,General farm workers,45.687511,-73.099655
Quebec,9010-4043 Québec Inc,"Montréal, QC H2J 2L9",1,6321,Chefs,45.526308,-73.588017
Quebec,9011-1246 Québec Inc.,"St-Alexis, QC J0K 1T0",2,8431,General farm workers,45.96805,-73.68699
Quebec,9012656 Canada Inc.,"Longueuil, QC J4K 2W5",2,7511,Transport truck drivers,45.516734,-73.513306
Quebec,9014-8222 Québec inc.,"Rawdon, QC J0K 1S0",2,8431,General farm workers,46.03366,-73.80563
Quebec,9014-8222 Québec inc.,,2,8432,Nursery and greenhouse workers,,
Quebec,9014-8578 Québec Inc.,"Lévis, QC G6W 5N6",2,8432,Nursery and greenhouse workers,46.78862,-71.186415
Quebec,9018-6560 QC. Inc.,"Montreal, QC H2Y 2E1",4,5232,"Other performers, n.e.c.",45.508539,-73.551378
Quebec,9019-2345 Québec Inc.,"Mascouche, QC J7K 3T9",2,8431,General farm workers,45.743056,-73.610993
Quebec,9020-7523 QUEBEC INC,"Sherbrooke, QC J1R 0P4",1,2231,Civil engineering technologists and technicians,45.395747,-71.970369
Quebec,9022-2662 Québec Inc.,"Dunham, QC J0E 1M0",17,8431,General farm workers,45.18365,-72.83659
Quebec,9024-2942 Québec Inc.,"Île Bizard, QC H9C 2T9",1,6321,Chefs,45.487596,-73.870937
Quebec,9029-0354 Québec Inc,"Saint-Jean-sur-Richelieu, QC J2X 5T9",5,8431,General farm workers,45.327376,-73.235338
Quebec,9038-7747 Québec Inc,"St-Narcisse, QC G0S 1W0",4,8431,General farm workers,46.541448,-71.432931
Quebec,9038-8059 Québec Inc,"Franklin, QC J0S 1E0",11,8431,General farm workers,45.02937,-73.92373
Quebec,9051-3227 Quebec Inc.,"Longueuil, QC J3Y 2R5",1,2175,Web designers and developers,45.4727064,-73.4367508
Quebec,9052-1170 Québec Inc,"Lachine, QC H8S 2K9",1,7302,"Contractors and supervisors, heavy equipment operator crews",45.440706,-73.650392
Quebec,9054-2291 Québec Inc.,"Rougemont, QC J0L 1M0",20,8431,General farm workers,45.43813,-73.092904
Quebec,9055-4312 Québec inc.,"Rimouski, QC G0L 1B0",1,6332,Bakers,48.354467,-68.714659
Quebec,9057-0565 Québec Inc. (Vergers Leahy),"Franklin, QC J0S 1E0",10,8431,General farm workers,45.02937,-73.92373
Quebec,9058-3964 Quebec inc.,"Saint Jude, QC J0H 1P0",22,8431,General farm workers,45.77193,-72.98863
Quebec,9060-1667 Québec inc.,"Notre-Dame-des-Pins, QC G0M 1K0",8,8432,Nursery and greenhouse workers,46.187487,-70.706880
Quebec,9061-1633 Québec inc,"Sainte-Julie, QC J3E 1Y8",1,6322,Cooks,45.576078,-73.329884
Quebec,90675588 Québec inc.,"Brigham, QC J2K 4E1",2,8431,General farm workers,45.25008,-72.839859
Quebec,9068481 Canada inc.,"Montreal, QC H2T 2L5",1,6322,Cooks,45.522921,-73.601562
Quebec,9071-1979 Québec Inc.,"Lourdes-de-Joliette, QC J0K 1K0",16,8431,General farm workers,46.06979,-73.420544
Quebec,9073-1464 Québec Inc.,"Montréal, QC H2W 1Z4",1,6322,Cooks,45.518679,-73.583456
Quebec,9074-2230 Québec inc,"Verdun, QC H4G 1T5",1,7321,"Automotive service technicians, truck and bus mechanics and mechanical repairers",45.469484,-73.564911
Quebec,9074-2230 Québec inc,,1,7322,Motor vehicle body repairers,,
Quebec,9077-5750 Québec inc,"Val-Joli, QC J1S 0C1",10,8431,General farm workers,45.59941,-72.041408
Quebec,9077-5750 Québec inc,,2,8432,Nursery and greenhouse workers,,
Quebec,9080-5052 QUÉBEC INC. (Restaurant Cambodiana),"Trois-Rivières, QC G8Z 4B5",1,6322,Cooks,46.33092,-72.594951
Quebec,9080-9807 Québec Inc.,"Lac Beauport, QC G3B 1G6",1,6532,Outdoor sport and recreational guides,46.9866439,-71.3400411
Quebec,9083-5133 Québec Inc,"Montréal, QC H3G 1L7",1,0621,Retail and wholesale trade managers,45.49678,-73.58151
Quebec,9083-8350 Québec Inc.,"St-Paul D'Abbotsford, QC J0E 1A0",17,8431,General farm workers,45.435286,-72.883572
Quebec,9083-8350 Québec Inc.,,8,8432,Nursery and greenhouse workers,,
Quebec,9085-0710 Québec Inc (Ferme Poissant),"St-Philippe, QC J0L 2K0",1,8431,General farm workers,45.336269,-73.506882
Quebec,9085-0710 Québec Inc (Ferme Poissant),,1,8611,Harvesting labourers,,
Quebec,9085-9513 Québec Inc.,"Lotbinière, QC G0S 1S0",4,8431,General farm workers,46.616385,-71.934769
Quebec,9091-8558 QUÉBEC INC. (Service Avicole JGL),"Victoriaville, QC G6T 2B4",48,8431,General farm workers,46.058403,-72.013562
Quebec,9092-1248 Québec Inc. Productions Rivard,"St-Ambroise, QC G7P 2M1",3,8611,Harvesting labourers,48.5535556,-71.3200689
Quebec,9093-4233 Québec inc.,"Mont-Royal, QC H4P 1S1",1,2175,Web designers and developers,45.486756,-73.667456
Quebec,9094-0875 Québec inc.,"Montréal, QC H3M 1B4",4,8431,General farm workers,45.57718,-73.656288
Quebec,9096-4321 QUÉBEC INC.,"Québec, QC G1K 3M5",1,5241,Graphic designers and illustrators,46.815369,-71.216097
Quebec,9096-7357 Québec inc,"Montreal, QC H2Y 2Z9",1,6321,Chefs,45.506968,-73.555053
Quebec,9100-2253 Québec inc.,"Montréal, QC H2T 2K3",1,6322,Cooks,45.525136,-73.604218
Quebec,9102-9934 Québec inc,"St-Louis-de-Blandford, QC G0Z 1B0",10,8431,General farm workers,46.220281,-72.047316
Quebec,9103-6038 Québec inc.,"St-Rémi, QC J0L 2L0",23,8431,General farm workers,45.205117,-73.653262
Quebec,9103-6038 Québec inc.,,4,8432,Nursery and greenhouse workers,,
Quebec,9103-8034 QUÉBEC INC.,"St-Casimir, QC G0A 3L0",1,7237,Welders and related machine operators,46.665319,-72.15102
Quebec,9109-2353 Québec Inc,"St Laurent, QC H4S 1B4",1,7312,Heavy,45.4874871,-73.7330192
Quebec,9112-3760 Quebec Inc.,"Fermont, QC G0G 1J0",5,9611,Labourers in mineral and metal processing,52.795794,-67.090762
Quebec,9113-8404 Québec inc.,"Longueuil, QC J4L 1L7",1,0124,"Advertising, marketing and public relations managers",45.524628,-73.470466
Quebec,9114408 Canada Inc.,"Gatineau, QC J8T 6K5",1,6321,Chefs,45.475955,-75.692046
Quebec,9121-2399 Québec inc.,"St-Ferdinand, QC G0N 1N0",5,8431,General farm workers,46.112329,-71.57336
Quebec,9121-2399 Québec inc.,,20,8432,Nursery and greenhouse workers,,
Quebec,9124-5936 Québec inc.,"Saint-Eustache, QC J7R 0J5",5,8431,General farm workers,45.5653215,-73.9600518
Quebec,9127-7079 Québec inc,"St-Édouard, QC J0L 1Y0",4,8431,General farm workers,45.23844,-73.5129
Quebec,9127-7079 Québec inc,,4,8611,Harvesting labourers,,
Quebec,9128-1071 QUEBEC INC,"St-Paul D'Abbotsford, QC J0E 1A0",75,8431,General farm workers,45.435286,-72.883572
Quebec,9132-5969 Québec Inc.,"Blainville, QC J7E 4H5",4,8432,Nursery and greenhouse workers,45.679517,-73.82552
Quebec,9136665 Canada Inc.,"Montréal, QC H4P 1V6",1,2171,Information systems analysts and consultants,45.565792,-73.592068
Quebec,9138-4966 Québec inc.,"Saint-Thomas, QC J0K 3L0",56,8431,General farm workers,46.012426,-73.355485
Quebec,9141-5026 QUÉBEC INC.,"Montréal, QC H2W 1X9",1,6321,Chefs,45.516388,-73.578045
Quebec,9147-5830 QUÉBEC INC.,"Magog, QC J1X 2T5",1,7321,"Automotive service technicians, truck and bus mechanics and mechanical repairers",45.2746053,-72.1342331
Quebec,9149-6943 Québec inc.,"Shannon, QC G0A 4N0",2,6311,Food service supervisors,46.867978,-71.547724
Quebec,9150-5784 Québec inc,"Rivière-du-Loup, QC G5R 5X4",5,8611,Harvesting labourers,47.829313,-69.513848
Quebec,9152-2524 QUEBEC Inc.,"Montreal, QC H3G 2H4",2,6322,Cooks,45.495474,-73.576478
Quebec,9162-2597 Québec Inc.,"Laval, QC H7T 1A1",2,6321,Chefs,45.608225,-73.674272
Quebec,9162-2597 Québec Inc.,,1,6322,Cooks,,
Quebec,9162-6283 Quebec Inc.,"Montréal, QC H2H 2S6",1,0124,"Advertising, marketing and public relations managers",45.5402944,-73.5715989
Quebec,9162-9824 Québec Inc (Ferme Sincal),"Fabre, QC J0Z 1Z0",1,8431,General farm workers,47.220256,-79.356431
Quebec,9164-6935 Québec Inc,"Montreal, QC H3L 1P4",1,1241,Administrative assistants,45.54336,-73.675189
Quebec,9165-4996 Québec Inc.,"Mirabel, QC J7N 2B4",32,8431,General farm workers,45.626235,-74.054783
Quebec,9166-7964 Québec Inc.,"Montréal, QC H1Y 1W6",1,6332,Bakers,45.547001,-73.575523
Quebec,9166-9341 Quebec inc,"Montreal, QC H4X 1M8",1,6322,Cooks,45.450627,-73.636459
Quebec,9168-7368 Québec Inc.,"Plessisville, QC G6L 2Y2",23,8431,General farm workers,46.2042323,-71.7511832
Quebec,9168-9406 Québec inc. (Cuisine Amir ),"Laval, QC H7W 4V3",2,2173,Software engineers and designers,45.545162,-73.739781
Quebec,9170-5483 QUÉBEC INC.,"Montréal, QC H4A 1X5",1,6322,Cooks,45.469323,-73.618162
Quebec,9178-8877 Québec Inc,"Montreal, QC H1M 2S5",1,2281,Computer network technicians,45.591304,-73.542983
Quebec,9180-8667 Québec Inc.,"Montréal, QC H3H 1M6",2,6322,Cooks,45.491519,-73.581886
Quebec,9184-2963 Québec inc,"Lavaltrie, QC J5T 4B2",2,8431,General farm workers,45.904203,-73.318721
Quebec,9184-2963 Québec inc,,2,8432,Nursery and greenhouse workers,,
Quebec,9187-1004 QUÉBEC INC.,"Laval, QC H7T 2X1",1,6332,Bakers,45.564966,-73.745071
Quebec,9190-3591 Quebec inc (Verger Philion),"Candiac, QC J5R 3Z4",3,8431,General farm workers,45.383809,-73.508614
Quebec,9191-4499 Québec Inc,"Sherbrooke, QC J1J 3V5",1,6321,Chefs,45.397441,-71.918718
Quebec,9195-5922 Québec inc.,"St-Hyacinthe, QC J2T 5J5",34,8431,General farm workers,45.6071547,-72.9101129
Quebec,9196-7273 Québec inc.,"Lyster, QC G0S 1V0",1,8431,General farm workers,46.383591,-71.637416
Quebec,9197-1168 Québec Inc.,"Montréal, QC H3C 2N5",1,2171,Information systems analysts and consultants,45.497599,-73.555203
Quebec,9198-2025 Québec Inc,"Les Cèdres, QC J7T 1N8",7,8431,General farm workers,45.373804,-74.111786
Quebec,9198-2025 Québec Inc,,7,8432,Nursery and greenhouse workers,,
Quebec,9199-1802 Québec inc.,"Saint-François-de-l'Ile-d'Orléans, QC G0A 3S0",2,8431,General farm workers,47.001216,-70.813840
Quebec,9199-4582 Québec inc.,"Montmagny, QC G5V 3R9",5,8431,General farm workers,46.966656,-70.531465
Quebec,9201-1402 Quebec Inc,"Quebec, QC G1R 2A4",2,6321,Chefs,46.805696,-71.224162
Quebec,9204-3389 Québec Inc. (Ferme Stepido),"Luskville, QC J0X 2G0",3,8431,General farm workers,45.537542,-76.048533
Quebec,9205-4675 Québec Inc.,"Mont-Laurier, QC J9L 1L2",1,6322,Cooks,46.550322,-75.495629
Quebec,9205-6449 Québec Inc.,"Havelock, QC J0S 2C0",13,8431,General farm workers,45.021595,-73.826589
Quebec,9207-2602 Québec Inc,"Lac Édouard, QC G0X 3N0",1,6321,Chefs,47.683919,-72.447997
Quebec,9208-1819 Québec inc,"Ste-Clotilde, QC J0L 1W0",4,8431,General farm workers,45.1579093933105,-73.6762390136719
Quebec,9212-0921 Québec inc.,"Saint-Jean-sur -Richelieu, QC J3B 1W5",1,6332,Bakers,45.31452,-73.25901
Quebec,9214-4617 Québec Inc. (Québec Miel),"Montréal, QC H1E 7L4",17,8431,General farm workers,45.637839,-73.603474
Quebec,9216-0670 QC INC,"Montréal, QC H3A 1M5",1,6321,Chefs,45.502247,-73.573363
Quebec,9218-5792 Québec inc,"Laval, QC H7E 4H9",1,1225,Purchasing agents and officers,45.593649,-73.682966
Quebec,9218-9778 Québec Inc.,"Saint-Jean Port-Joli, QC G0R 3G0",1,7272,Cabinetmakers,47.189526,-70.267506
Quebec,9219-1568 Québec Inc.,"Montreal, QC H4P 2H2",1,2175,Web designers and developers,45.496458,-73.655477
Quebec,9223-7569 Québec,"Québec, QC G1V 2L8",1,6322,Cooks,46.770922,-71.281326
Quebec,9223-7932 Québec Inc.,"Westmount, QC H3Z 1T3",1,0111,Financial managers,45.47595,-73.60026
Quebec,9223-7932 Québec Inc.,,1,0124,"Advertising, marketing and public relations managers",,
Quebec,9223-7932 Québec Inc.,,1,0631,Restaurant and food service managers,,
Quebec,9223-7932 Québec Inc.,,1,1111,Financial auditors and accountants,,
Quebec,9223-7932 Québec Inc.,,1,1121,Human resources professionals,,
Quebec,9223-7932 Québec Inc.,,1,1122,Professional occupations in business management consulting,,
Quebec,9223-7932 Québec Inc.,,3,1123,"Professional occupations in advertising, marketing and public relations",,
Quebec,9223-7932 Québec Inc.,,2,1222,Executive assistants,,
Quebec,9223-7932 Québec Inc.,,1,1225,Purchasing agents and officers,,
Quebec,9223-7932 Québec Inc.,,1,1311,Accounting technicians and bookkeepers,,
Quebec,9223-7932 Québec Inc.,,1,5123,Journalists,,
Quebec,9224-8277 Québec Inc.,"Montreal, QC H2J 3P9",1,6322,Cooks,45.532677,-73.582127
Quebec,9226-4985 Québec Inc.,"Montréal, QC H4P 2L7",1,1222,Executive assistants,45.4922845,-73.670075
Quebec,9227-5742 Québec Inc.,"St-Donat, QC J0T 2C0",1,6332,Bakers,46.371298,-74.241626
Quebec,9228-5477 Québec inc.,"L'île - Perrot, QC J6V 6L7",1,6322,Cooks,,
Quebec,9229-3224 Québec inc.,"Québec, QC G2J 1S9",2,6322,Cooks,46.849016,-71.284991
Quebec,9232-6727 QUEBEC INC,"Longueuil, QC J4L 4T4",1,5254,"Program leaders and instructors in recreation, sport and fitness",45.518057,-73.440414
Quebec,9239-0640 Québec Inc.,"Saint-Urbain, QC G0A 4K0",4,8431,General farm workers,47.557124,-70.538822
Quebec,9247-9880 Québec Inc (Ferme Franot),"Mirabel, QC J7N 2Z3",4,8431,General farm workers,45.580403,-74.226544
Quebec,9248-9921 Quebec inc.,"St-Léonard, QC H1S 2J3",1,7272,Cabinetmakers,45.577071,-73.579746
Quebec,9250-3085 QUÉBEC INC,"Sainte-Jeanne-d'Arc, QC G0W 1E0",2,8611,Harvesting labourers,48.827226,-72.053892
Quebec,9251-6822 Québec inc.,"Ste-Séraphine, QC J0A 1E0",2,8431,General farm workers,46.010673,-72.076606
Quebec,9252-2853 Québec Inc.,"Westmount, QC H3Z 1P2",1,6321,Chefs,45.487215,-73.586851
Quebec,9252-2853 Québec Inc.,,3,6322,Cooks,,
Quebec,9253-1524 Québec inc.,"Montréal, QC H2T 2T3",1,2174,Computer programmers and interactive media developers,45.519642,-73.586924
Quebec,9254-1036 QUÉBEC INC.,"Montréal, QC H2X 1B3",1,6322,Cooks,45.49646,-73.554113
Quebec,9254-8155 Québec inc.,"Sainte-Marie, QC G6E 3A7",1,8431,General farm workers,46.425649,-71.034176
Quebec,9257-2023 Québec Inc.,"Laval, QC H7P 0A5",1,4214,Early childhood educators and assistants,45.562263,-73.774846
Quebec,9257-4607 Quebec Inc.,"Laval, QC H7L 3J4",1,7205,"Contractors and supervisors, other construction trades, installers, repairers and servicers",45.602921,-73.804209
Quebec,9258-6429 Québec Inc,"Montréal, QC H8R 3W8",1,6331,"Butchers, meat cutters and fishmongers ",45.428977,-73.64003
Quebec,9259-4209 QUÉBEC INC.,"Montréal, QC H4A 1T2",1,6322,Cooks,45.476178,-73.606682
Quebec,9260-4560 Québec inc.,"Chambly, QC J3L 4B1",6,8612,Landscaping and grounds maintenance labourers,45.446007,-73.267773
Quebec,9260-6946 Québec Inc.,"Laval, QC H7X 4A8",40,8432,Nursery and greenhouse workers,45.53251,-73.839238
Quebec,9261-9345 Québec Inc.,"Montréal, QC H3A 1H3",1,6322,Cooks,45.501574,-73.576775
Quebec,9262-0590 Québec inc.,"Pierrefonds, QC H9H 1A9",1,0631,Restaurant and food service managers,45.482474,-73.868753
Quebec,9262-1960 Québec inc.,"St-Jean-Baptiste, QC J0L 2B0",7,8432,Nursery and greenhouse workers,45.51939,-73.122029
Quebec,9263-0839 Québec Inc.,"Val-d'Or, QC J9P 5K1",2,6331,"Butchers, meat cutters and fishmongers ",48.0981406,-77.8244205
Quebec,9265-6362 Québec inc.,"Grand-Mère, QC G9T 1A6",2,6321,Chefs,46.612995,-72.739352
Quebec,9267-6881 Québec inc.,"Dunham, QC J0E 1M0",2,8431,General farm workers,45.18365,-72.83659
Quebec,9269-5378 Québec inc.,"Saint Leonard, QC H1P 1Y4",1,6332,Bakers,45.600127,-73.583153
Quebec,9272-3576 Québec Inc.,"Mirabel, QC J7N 2R9",1,6321,Chefs,45.573099,-74.058021
Quebec,9273-0829 Québec Inc.,"Montreal, QC H2Y 2V3",1,0621,Retail and wholesale trade managers,45.503472,-73.55442
Quebec,9274-5678 Québec Inc.,"St-Paul, QC J0K 3E0",16,8431,General farm workers,45.978648,-73.393966
Quebec,9274-7948 Quebec inc.,"St-Janvier Mirabel, QC J7P 1P3",4,8431,General farm workers,45.580767,-73.859342
Quebec,9274-7948 Quebec inc.,,23,8432,Nursery and greenhouse workers,,
Quebec,9274-9076 Québec Inc.,"Notre-Dame de l'Île Perrot, QC J7V 8P4",4,8431,General farm workers,45.3500637,-73.903358
Quebec,9274-9076 Québec Inc.,,4,8611,Harvesting labourers,,
Quebec,9276-8597 Québec Inc.,"Montreal, QC H4B 2C3",1,6322,Cooks,45.460489,-73.63909
Quebec,9281-9242 Quebec inc.,"Varennes, QC J3X 1Y5",3,8612,Landscaping and grounds maintenance labourers,45.66167,-73.425392
Quebec,9285-6335 Québec Inc.,"Lévis, QC G6V 7M5",2,8432,Nursery and greenhouse workers,46.758964,-71.169389
Quebec,9285-9065 Québec inc,"Magog, QC J1X 4G1",1,6322,Cooks,45.289959,-72.112462
Quebec,9288-0004 Québec inc.,"Saint-Louis-de-Gonzague, QC J0S 1T0",2,8431,General farm workers,45.2125625610352,-74.0070037841797
Quebec,9289-9707 Quebec inc.,"Montréal, QC H4P 0A9",1,0631,Restaurant and food service managers,45.4947649,-73.6572848
Quebec,9290-2188 Québec Inc.,"Montréal, QC H2W 2M7",1,6321,Chefs,45.521732,-73.577942
Quebec,9291-9562 Québec Inc.,"Mascouche, QC J7K 2L5",1,0631,Restaurant and food service managers,45.735292,-73.613047
Quebec,9292-1394 Québec Inc,"Montréal, QC H2P 1H4",1,0124,"Advertising, marketing and public relations managers",45.537323,-73.639459
Quebec,9292-1394 Québec Inc,,1,1225,Purchasing agents and officers,,
Quebec,9292-2665 QUEBEC INC,"Verdun, QC H3E 1E6",1,6321,Chefs,45.453919,-73.547287
Quebec,9293-7044 Québec Inc,"Pointe-Claire, QC H9R 5J1",1,6322,Cooks,45.473759,-73.806047
Quebec,9297-9343 Quebec inc.,"Saint-Félicien, QC G8K 2H5",1,5135,Actors and comedians,48.6507838,-72.4603954
Quebec,9297-9574 Québec Inc.,"Québec, QC G1L 3L7",1,6321,Chefs,46.829867,-71.237393
Quebec,9297-9574 Québec Inc.,,1,6322,Cooks,,
Quebec,9298-2230 Québec Inc.,"Montréal, QC H2Z 1E3",1,6321,Chefs,45.502241,-73.564211
Quebec,9298-7387 Québec inc.,"Montréal, QC H4C 2Z6",1,2171,Information systems analysts and consultants,45.47629,-73.591751
Quebec,9299-4797 Québec Inc,"Montreal, QC H2W 2L5",1,6322,Cooks,45.520216,-73.576436
Quebec,9301-2672 Québec Inc,"Montreal, QC H3B 1M6",1,6322,Cooks,45.502594,-73.569128
Quebec,9301-8828 Québec Inc.,"Montréal, QC H3N 1B1",1,6331,"Butchers, meat cutters and fishmongers ",45.533164,-73.641817
Quebec,9302-6540 Québec inc,"Montréal, QC H4L 3M2",1,6321,Chefs,45.512683,-73.680097
Quebec,9303-0872 Québec Inc.,"Montréal, QC H4K 1M9",1,6321,Chefs,45.528953,-73.721742
Quebec,9305-5747 Québec inc.,"St-Ambroise, QC G7P 2B4",2,8432,Nursery and greenhouse workers,48.577378,-71.338023
Quebec,9307-2833 Québec Inc,"Montréal, QC H2T 1X6",1,2173,Software engineers and designers,45.52637,-73.596238
Quebec,9311-1391 Québec Inc.,"Québec, QC G2C 2B6",1,6332,Bakers,46.830105,-71.348238
Quebec,9312-6167 Québec Inc.,"Montreal, QC H3A 0A2",1,0632,Accommodation service managers,45.519184,-73.557575
Quebec,9312-8791 Québec inc.,"Albanel, QC G8M 3P1",12,8611,Harvesting labourers,48.897992,-72.321069
Quebec,9314-0721 Québec Inc.,"Montréal, QC H1Z 4M6",1,0124,"Advertising, marketing and public relations managers",45.5626553,-73.6166447
Quebec,9314-1703 Québec inc.,"Montréal, QC H4A 1W1",1,6322,Cooks,45.472908,-73.611137
Quebec,9317-0942 Québec Inc,"St-Michel-des-Saints, QC J0K 3B0",1,6321,Chefs,46.7077560424805,-73.7726821899414
Quebec,9317-7251 Québec Inc.,"Rougemont, QC J0L 1M0",4,8431,General farm workers,45.43813,-73.092904
Quebec,9320-2232 Québec inc,"Portneuf, QC G0A 2Y0",35,8432,Nursery and greenhouse workers,46.6936,-71.862257
Quebec,9320-4634 Québec inc.,"Dunham, QC J0E 1M0",4,8431,General farm workers,45.18365,-72.83659
Quebec,9320-9575 Québec inc.,"Portneuf, QC G0A 2Y0",3,8431,General farm workers,46.6936,-71.862257
Quebec,9320-9575 Québec inc.,,17,8432,Nursery and greenhouse workers,,
Quebec,9320-9583 Québec inc,"Portneuf, QC G0A 2Y0",11,8432,Nursery and greenhouse workers,46.6936,-71.862257
Quebec,9321-4294 Québec Inc.,"Sherbrooke, QC J1M 1K8",1,6321,Chefs,45.388878,-71.883295
Quebec,9323-7626 QUEBEC INC,"Montreal, QC H4B 1T9",1,6322,Cooks,,
Quebec,9323-9044 Québec Inc.,"Montreal, QC H2N 1Y8",1,6221,Technical sales specialists ,45.537339,-73.651566
Quebec,9326-3150 Québec inc.,"Québec, QC G2C 1R2",1,0714,Facility operation and maintenance managers,46.852375,-71.333067
Quebec,9327-7630 Quebec inc.,"Montreal, QC H1H 3Z5",1,0631,Restaurant and food service managers,45.585922,-73.631864
Quebec,9329-5384 Québec inc.,"Montréal, QC H4R 1W8",1,0621,Retail and wholesale trade managers,45.4986667,-73.7109921
Quebec,9329-5558 Québec inc,"Ste-Clotilde, QC J0L 1W0",43,8431,General farm workers,45.1579093933105,-73.6762390136719
Quebec,93295608 Québec Inc.,"Havelock, QC J0S 2C0",4,8431,General farm workers,45.021595,-73.826589
Quebec,9330-1455 Quebec inc.,"Laval, QC H7L 5W5",1,0631,Restaurant and food service managers,45.615813,-73.740446
Quebec,9331-3450 Québec Inc.,"Coaticook, QC J1A 2S5",1,0632,Accommodation service managers,45.128987,-71.844472
Quebec,9332-3756 Québec Inc,"Sainte-Adèle, QC J8B 2C2",1,6322,Cooks,45.9892701,-74.0868528
Quebec,9332-9860 Québec inc.,"St-Chrysostome, QC J0S 1R0",1,8431,General farm workers,45.103144,-73.761241
Quebec,9336-0386 Quebec Inc.,"St-Sauveur-des-Monts, QC J0R 1R3",1,0651,"Managers in customer and personal services, n.e.c.",45.888382,-74.146724
Quebec,9337-3074 Québec Inc,"Montreal, QC H2Y 1H1",1,6322,Cooks,45.508645,-73.552123
Quebec,9340-6379 Québec inc.,"Gatineau, QC J8X 2K2",1,6322,Cooks,45.425579,-75.717279
Quebec,9511695 Canada Corporation,"Montréal, QC H3N 1R4",1,6321,Chefs,45.528867,-73.623124
Quebec,9747869 Canada inc (Godley),"Montréal, QC H2X 3A4",1,6332,Bakers,45.509981,-73.55828
Quebec,À CHACUN SON PAIN INC.,"Baie-Saint-Paul, QC G3Z 2W2",1,6332,Bakers,47.441929,-70.51573
Quebec,A. Bélisle et fils senc,"Saint-Eustache, QC J7R 4K3",156,8431,General farm workers,45.579193,-73.878348
Quebec,A. Lassonde Inc.,"Rougemont, QC J0L 1M0",1,7311,Construction millwrights and industrial mechanics,45.43813,-73.092904
Quebec,A. Lassonde Inc.,,20,8431,General farm workers,,
Quebec,A. MALO COMPAGNIE LIMITÉE,"Joliette, QC J6E 5N9",2,7231,Machinists and machining and tooling inspectors,46.020781,-73.438934
Quebec,A.O.L. Jardins Maraichers inc,"St-Édouard, QC J0L 1Y0",15,8431,General farm workers,45.23844,-73.5129
Quebec,A.T.L.A.S. AÉRONAUTIQUE INC.,"Granby, QC J2G 3Z3",1,7231,Machinists and machining and tooling inspectors,45.389886,-72.740215
Quebec,"A.V. Inc., Atocas Villeroy","Plessisville, QC G6L 2Y2",4,8431,General farm workers,46.2042323,-71.7511832
Quebec,AAA Canada Inc.,"Montréal, QC H4C 2K1",2,2232,Mechanical engineering technologists and technicians,45.483324,-73.583975
Quebec,Abaplab Inc,"Montréal, QC H2P 2Y1",1,2174,Computer programmers and interactive media developers,45.535,-73.638749
Quebec,ABB Inc,"Saint-Laurent, QC H4S 1Z6",1,1123,"Professional occupations in advertising, marketing and public relations",45.490893,-73.751632
Quebec,Absolute NDE International Inc.,"Lévis, QC G6W 5M6",1,2132,Mechanical engineers,46.750015,-71.238417
Quebec,Académie Tennis Momentum,"Repentigny, QC J6A 7A1",1,5252,Coaches,45.755471,-73.453369
Quebec,Acensi Consultants Inc.,"Montréal, QC H2Y 2K7",1,2171,Information systems analysts and consultants,45.501413,-73.558536
Quebec,Aciers Inoxydables Équinox Inc.,"Boisbriand, QC J7H 1P8",6,7237,Welders and related machine operators,45.636763,-73.859841
Quebec,Activia Networks Canada Inc,"Montreal, QC H3A 1E7",1,2175,Web designers and developers,45.505014,-73.57343
Quebec,Adnia Conseils inc.,"Québec, QC G1N 4G2",1,2174,Computer programmers and interactive media developers,46.791188,-71.288496
Quebec,Advanceit Financial Corporation,"Montréal, QC H3Z 1V4",1,2174,Computer programmers and interactive media developers,45.48546,-73.587225
Quebec,Advantech sans fil Inc./Advantech Wireless,"Dorval, QC H9P 1G1",1,6221,Technical sales specialists ,45.455565,-73.732098
Quebec,AdviseAuto Inc,"Montreal, QC H2Y 1A3",1,5241,Graphic designers and illustrators,45.510761,-73.554568
Quebec,Aéroport de Québec inc.,"Québec, QC G2G 0J4",1,2232,Mechanical engineering technologists and technicians,46.78245,-71.4236408
Quebec,Agence Cast-A-Way Inc./Cast-A-Way Agency Inc.,"Kirkland, QC H9H 3C4",1,1222,Executive assistants,45.456691,-73.86283
Quebec,Agence de bassin versant des 7,"Gatineau, QC J8Y 4B6",1,2121,Biologists and related scientists,45.456545,-75.742045
Quebec,Agence du revenu du Québec,"Québec, QC G1X 4A5",5,2171,Information systems analysts and consultants,46.751709,-71.331014
Quebec,Agence du revenu du Québec,,2,2172,Database analysts and data administrators,,
Quebec,Agence du revenu du Québec,,1,2282,User support technicians,,
Quebec,Agence OZ Publicité Communication Web Inc.,"Saint-Bruno, QC J3V 6B7",1,5241,Graphic designers and illustrators,45.5175422,-73.369089
Quebec,Agence Tuxedo Inc.,"Montreal, QC H3B 1A7",4,5232,"Other performers, n.e.c.",45.505159,-73.567934
Quebec,AgileDSS Inc.,"Montréal, QC H2Y 2G3",2,2171,Information systems analysts and consultants,45.500405,-73.557362
Quebec,Agritabex Inc.,"St-Thomas, QC J0K 3L0",5,8431,General farm workers,46.012426,-73.355485
Quebec,Agro Énergie Inc.,"Saint-Roch-de-l'Achigan, QC J0K 3H0",4,8432,Nursery and greenhouse workers,45.848711,-73.623247
Quebec,Aimia Canada Inc.,"Montreal, QC H2Z 0B2",1,0013,Senior managers ,45.505975,-73.564905
Quebec,Air Canada,"Dorval, QC H4Y 1H4",1,0114,Other administrative services managers,45.510392,-73.681848
Quebec,Air Canada,,1,2171,Information systems analysts and consultants,,
Quebec,Air Canada,"Saint-Laurent, QC H4Y 1H4",1,1122,Professional occupations in business management consulting,45.510392,-73.681848
Quebec,AIRPORTS COUNCIL INTERNATIONAL,"Montréal, QC H4Z 1G8",1,0124,"Advertising, marketing and public relations managers",45.515662,-73.532113
Quebec,Akka Groupe Amérique du Nord Inc.,"Montréal, QC H3A 2W5",2,2232,Mechanical engineering technologists and technicians,45.500906,-73.574766
Quebec,ALESSCLA inc.,"Sainte-Marie, QC G6E 3L5",2,8612,Landscaping and grounds maintenance labourers,46.436877,-71.008154
Quebec,Algolux inc,"Montréal, QC H3K 1G6",1,2173,Software engineers and designers,45.484047,-73.562138
Quebec,ALI ET LES PRINCES DE LA RUE,"Montréal, QC H2A 1B2",1,5252,Coaches,45.566457,-73.603596
Quebec,Aliments Asta Inc.,"St-Alexandre, QC G0L 2G0",2,9537,"Other products assemblers, finishers and inspectors",47.650355,-69.667173
Quebec,Aliments Asta Inc.,,49,9617,"Labourers in food, beverage and associated products processing",,
Quebec,ALIMENTS O SOLE MIO INC. (LES),"Boisbriand, QC J7H 0G1",1,2233,Industrial engineering and manufacturing technologists and technicians,45.626347,-73.8645
Quebec,Aliments Pasta Romana Inc.,"Montreal, QC H1G 3J8",1,2132,Mechanical engineers,45.612495,-73.606126
Quebec,Aliments Shanti Inc.,"Montréal, QC H4N 1G5",1,0631,Restaurant and food service managers,45.558484,-73.646126
Quebec,Aliments Shanti Inc.,,1,1223,Human resources and recruitment officers,,
Quebec,Aliments Shanti Inc.,,1,6321,Chefs,,
Quebec,Aliments Shanti Inc.,,1,6322,Cooks,,
Quebec,ALOGIENT inc.,"Montréal, QC H3B 1J5",1,2174,Computer programmers and interactive media developers,45.5179,-73.556655
Quebec,Alta Construction (2011) Limitée,"Montreal, QC H4N 1J6",1,2131,Civil engineers,45.52833,-73.653292
Quebec,Altech 7-Iles Inc.,"Sept-Îles, QC G4R 4K6",1,2253,Drafting technologists and technicians,50.335636138916,-65.8111572265625
Quebec,Alten Canada inc.,"Montréal, QC H3B 4N4",1,2146,Aerospace engineers,45.498856,-73.570201
Quebec,Alten Canada inc.,,2,2171,Information systems analysts and consultants,,
Quebec,Alten Canada inc.,,5,2174,Computer programmers and interactive media developers,,
Quebec,Altitude Aerospace,"Montréal, QC H4S 1T2",3,2232,Mechanical engineering technologists and technicians,45.4948839,-73.7440648
Quebec,Amaris Conseil Inc.,"Montreal, QC H2Y 2W8",1,2133,Electrical and electronics engineers,45.504629,-73.557465
Quebec,AMEC USINAGE Inc.,"St-Augustin-de-Desmaures, QC G3K 2K1",2,7231,Machinists and machining and tooling inspectors,46.841015,-71.407042
Quebec,Aménagement Côté Jardin Inc.,"Montréal, QC H2H 2N2",6,8612,Landscaping and grounds maintenance labourers,45.538758,-73.565632
Quebec,André et Dominic Palardy,"St-Damase, QC J0H 1J0",22,8431,General farm workers,45.711236,-72.73277
Quebec,Andy Logistique Inc.,"Saint Thimothée, QC J6S 6J2",2,1215,"Supervisors, supply chain, tracking and scheduling co",45.199732,-74.164525
Quebec,Antoine Laoun Inc.,"Montreal, QC H1S 3A9",1,6211,Retail sales supervisors,45.587669,-73.578336
Quebec,ANTONY CARBERY DENTISTERIE INC.,"Lasalle, QC H8N 1X9",1,3223,"Dental technologists, technicians and laboratory assistants",45.448496,-73.608696
Quebec,AppDirecte Canada Inc.,"Montreal, QC H3A 2J5",1,2171,Information systems analysts and consultants,45.507564,-73.56949
Quebec,ARIUM DESIGN INC,"Montreal, QC H4E 1A8",1,5241,Graphic designers and illustrators,45.464379,-73.59569
Quebec,Art Massif Structure de bois inc.,"St-Jean-Port-Joli, QC G0R 3G0",1,2122,Forestry professionals,47.189526,-70.267506
Quebec,Artemano Canada Inc.,"Laval, QC H7S 2K1",1,1222,Executive assistants,45.570048,-73.738414
Quebec,Artistes Folks inc,"Montréal, QC H2H 1S9",1,5241,Graphic designers and illustrators,45.531689,-73.571892
Quebec,Association region de soccer du Centre-du-Québec,"Drummondville, QC J2B 6A2",1,5254,"Program leaders and instructors in recreation, sport and fitness",45.880184,-72.479734
Quebec,Association régionale de soccer de Québec (ARSQ),"Lévis, QC G6X 1L3",1,0513,"Recreation, sports and fitness program and service directors",46.725604,-71.253005
Quebec,Associés Keira Capital Inc.,"Montreal, QC H3G 2J2",1,0013,Senior managers ,45.49685,-73.57901
Quebec,Assystem Canada Inc.,"St-Laurent, QC H4N 2L3",1,2146,Aerospace engineers,45.510708,-73.6705963
Quebec,Atelier de Debosselage Jean-Marc Perrier inc.,"Senneterre, QC J0Y 2M0",1,7321,"Automotive service technicians, truck and bus mechanics and mechanical repairers",48.387256,-77.244299
Quebec,Atelier d'usinage Mégatech AQ inc.,"Québec, QC G1P 4M9",9,7231,Machinists and machining and tooling inspectors,46.802137,-71.295912
Quebec,ATELIER D'USINAGE ST-HUBERT LTÉE,"St-Hubert, QC J3Y 0A8",1,0911,Manufacturing managers,45.50337,-73.43959
Quebec,ATELIER D'USINAGE ST-HUBERT LTÉE,,3,7231,Machinists and machining and tooling inspectors,,
Quebec,Atelier Ferland Inc,"Ayer's Cliff, QC J0B 1C0",1,0911,Manufacturing managers,45.167395,-72.039906
Quebec,Atlas Electronic Systems Inc.,"Dorval, QC H9P 2W9",1,6221,Technical sales specialists ,45.460079,-73.808464
Quebec,Atobec Inc,"St-Rosaire, QC G0Z 1K0",22,8431,General farm workers,46.1391525268555,-72.1544342041016
Quebec,Atocas Bédard Inc.,"St-Louis-de-Blandford, QC G0Z 1B0",14,8431,General farm workers,46.220281,-72.047316
Quebec,Atocas Blandford inc.,"Laurierville, QC G0S 1P0",10,8431,General farm workers,46.347413,-71.699516
Quebec,Atocas Lac St-Jean Inc.,"Dolbeau Mistassini, QC G8L 1E5",4,8431,General farm workers,48.864751,-72.218302
Quebec,Atocas Notre Dame Inc.,"Sainte-Sophie-d'Halifax, QC G0P 1L0",38,8431,General farm workers,46.153275,-71.707873
Quebec,Atocas Notre Dame Inc.,,1,8611,Harvesting labourers,,
Quebec,Atocas St-François Inc.,"St-Louis de Blandford, QC G0Z 1B0",12,8431,General farm workers,46.220281,-72.047316
Quebec,Atocas St-Louis Inc.,"Laurierville, QC G0S 1P0",10,8431,General farm workers,46.347413,-71.699516
Quebec,Atomic Fiction Canada Inc.,"Montréal, QC H3A 2J5",1,1241,Administrative assistants,45.507564,-73.56949
Quebec,Atomic Fiction Canada Inc.,,6,5241,Graphic designers and illustrators,,
Quebec,Atrahan Transformation Inc,"Yamachiche, QC G0X 3L0",9,9617,"Labourers in food, beverage and associated products processing",46.27531,-72.839775
Quebec,Au Jardin Noir,"Ange-Gardien, QC J0E 1E0",5,8431,General farm workers,45.358702,-72.922095
Quebec,Au pays des Petits Fruits senc,"Mirabel, QC J7J 1Z9",6,8431,General farm workers,45.6601223,-73.9632792
Quebec,Au Potager du Paysan Inc.,"St-Rémi, QC J0L 2L0",6,8431,General farm workers,45.205117,-73.653262
Quebec,Au Royaume des Fines Herbes Inc.,"Ste-Anne-Des-Plaines, QC J0N 1H0",10,8431,General farm workers,45.768594,-73.803746
Quebec,Auberge La Châtelaine S.E.N.C,"La Malbaie, QC G5A 2V7",1,0632,Accommodation service managers,47.628613,-70.145457
Quebec,AUREL HARVEY & FILS INC.,"La Malbaie, QC G5A 1C5",3,7321,"Automotive service technicians, truck and bus mechanics and mechanical repairers",47.678167,-70.175504
Quebec,AUREL HARVEY & FILS INC.,,2,8431,General farm workers,,
Quebec,AUREL HARVEY & FILS INC.,,5,8612,Landscaping and grounds maintenance labourers,,
Quebec,Auto Bugatti Inc.,"Montréal, QC H9P 1G4",1,7322,Motor vehicle body repairers,45.460549,-73.731869
Quebec,Auto Hall Canada Pie IX Inc.,"Montreal, QC H1Z 3T3",1,7301,"Contractors and supervisors, mechanic trades",45.571359,-73.6024
Quebec,Autodesk Canada Co.,"Montréal, QC H3C 2L7",1,2173,Software engineers and designers,45.495165,-73.552769
Quebec,Autodesk Canada Co.,,1,2174,Computer programmers and interactive media developers,,
Quebec,AUTOMOTIVE DATA SOLUTIONS INC.,"Montréal, QC H4P 2G1",1,2175,Web designers and developers,45.50194,-73.661743
Quebec,Aux Aubépines 2002 inc.,"St-Polycarpe, QC J0P 1X0",11,8432,Nursery and greenhouse workers,45.2722015380859,-74.3366470336914
Quebec,Aux Champs d'Élisé François inc.,"Lac Brome, QC J0E 1V0",3,8431,General farm workers,45.106752,-72.369331
Quebec,Aux Fruits des Champs senc,"Gatineau, QC J9J 2Y9",9,8431,General farm workers,45.4162216,-75.8808382
Quebec,Aviation Sélect Inc,"Pointe-Aux-Trembles, QC H1Q 3A7",1,2271,"Air pilots, flight engineers and flying instructors",,
Quebec,Axium Robotique et Automation ULC,"Montréal, QC H1J 2E8",2,2132,Mechanical engineers,45.612375,-73.584187
Quebec,Axium Robotique et Automation ULC,,2,2232,Mechanical engineering technologists and technicians,,
Quebec,B COUSINEAU & FILS  S.E.N.C.,"St-Roch De L'achigan, QC J0K 3H0",15,8431,General farm workers,45.848711,-73.623247
Quebec,Ballets Jazz De Montreal(Les),"Montréal, QC H2L 1L9",1,5134,Dancers,45.500504,-73.577801
Quebec,Banque de développement du Canada Inc.,"Montréal, QC H3B 5E7",1,2173,Software engineers and designers,45.50037,-73.56913
Quebec,Banque Nationale du Canada,"Montreél, QC H3B 4L2",1,0122,"Banking, credit and other investment managers",45.50562,-73.561694
Quebec,Banque Nationale du Canada,,1,1114,Other financial officers,,
Quebec,Banque Nationale du Canada,,6,2171,Information systems analysts and consultants,,
Quebec,Banque Nationale du Canada,,2,2173,Software engineers and designers,,
Quebec,Bâtiments d'acier Finar Inc.,"Lévis, QC G7A 2N1",1,2131,Civil engineers,46.694215,-71.3090329
Quebec,BD Monkland I inc,"Montreal, QC H4A 1C8",1,6332,Bakers,45.476496,-73.622168
Quebec,BEENOX INC.,"Québec, QC G1K 3H3",1,2174,Computer programmers and interactive media developers,46.813533,-71.224271
Quebec,BEENOX INC.,,4,5241,Graphic designers and illustrators,,
Quebec,Behaviour Interactif Inc.,"Montréal, QC H3A 1L2",2,0124,"Advertising, marketing and public relations managers",45.505746,-73.570266
Quebec,Behaviour Interactif Inc.,,1,2173,Software engineers and designers,,
Quebec,Behaviour Interactif Inc.,,3,2174,Computer programmers and interactive media developers,,
Quebec,Behaviour Interactif Inc.,,1,5131,"Producers, directors, choreographers and related occupations",,
Quebec,Behaviour Interactif Inc.,,2,5241,Graphic designers and illustrators,,
Quebec,Bell Canada,"Verdun, QC H3E 3B3",1,2171,Information systems analysts and consultants,45.4615233,-73.5463761
Quebec,Benjoporc inc.,"Ste-Geneviève-de-Batiscan, QC G0X 2R0",1,8252,"Agricultural service contractors, farm supervisors and specialized livestock workers",46.612569,-72.291314
Quebec,Benjoporc inc.,,2,8431,General farm workers,,
Quebec,Béton Bolduc Inc.,"Sainte-Marie, QC G6E 1G8",1,7333,Electrical mechanics,46.4592638,-71.0269344
Quebec,Béton Bolduc Inc.,,1,9231,"Central control and process operators, mineral and metal processing",,
Quebec,Béton Bolduc Inc.,,6,9414,"Concrete, clay and stone forming operators",,
Quebec,Bewave Technologies inc.,"Brossard, QC J4X 1C2",1,2174,Computer programmers and interactive media developers,45.459906,-73.465265
Quebec,Beyond Technologies Consulting Inc./SOLUTIONS BEYOND TECHNOLOGIES INC.,"Montréal, QC H3C 2M1",5,2171,Information systems analysts and consultants,45.495114,-73.553389
Quebec,Beyond Technologies Consulting Inc./SOLUTIONS BEYOND TECHNOLOGIES INC.,,1,2174,Computer programmers and interactive media developers,,
Quebec,BHS Corrugated North America Inc.,"Montreal, QC H3B 2N2",3,7311,Construction millwrights and industrial mechanics,45.515439,-73.553814
Quebec,BISTRO-BAR L'ATELIER INC,"Québec, QC G1R 2K5",1,6322,Cooks,46.806028,-71.217363
Quebec,Blais productions inc.,"St-Anselme, QC G0R 2N0",6,8431,General farm workers,46.64819,-70.99023
Quebec,Blake Cassels & Graydon S.E.N.C.R.L./S.R.L.,"Montréal, QC H3B 4N8",1,1242,Legal administrative assistants,45.502562,-73.56855
Quebec,Bleuetière de Parisville inc.,"Parisville, QC G0S 1X0",3,8431,General farm workers,46.518134,-72.066562
Quebec,Bleuetière du Montreuil,"St-Bruno, QC G0W 2L0",5,8431,General farm workers,48.485219,-71.649834
Quebec,Bleuetière du Montreuil,,5,8611,Harvesting labourers,,
Quebec,Bleuetière Point du Jour,"Lavaltrie, QC J5T 3P4",84,8431,General farm workers,45.928921,-73.338073
Quebec,Bleuetière Point du Jour,,3,8432,Nursery and greenhouse workers,,
Quebec,BMG MÉTAUX OUVRÉS INC.,"Chambly, QC J3L 4V2",1,2253,Drafting technologists and technicians,45.431805,-73.275277
