Province,Employer,Address,Positions,Stream,NOC 2011,NOC Name,Latitude,Longitude
Newfoundland and Labrador,Aker Solutions AIM Canada Inc.,"St John's, NL A1C 6C9",8,Aker Solutions AIM Canada Inc.,2264,Construction inspectors,47.5630158,-52.7084738
Newfoundland and Labrador,Anglo Eastern Ship Managment Ltd,"Wanchai, NL A0A 0A0",4,High Wage,2273,"Deck officers, water transport",47.5820518,-53.2798524
Newfoundland and Labrador,Canada Fluorspar (NL) Inc.,"St. Lawrence, NL A0E 2V0",1,High Wage,0711,Construction managers,46.920161,-55.397294
Newfoundland and Labrador,DOF Subsea Canada Corp.,"Mount Pearl, NL A1N 0A4",7,High Wage,2273,"Deck officers, water transport",47.519571,-52.811343
Newfoundland and Labrador,Green Food Industries Inc.,"St. John's, NL A1B 1W3",1,High Wage,6322,Cooks,47.5586,-52.755482
Newfoundland and Labrador,NARL Refining Ltd Partnership,"Come By Chance, NL A0B 1N0",1,High Wage,0911,Manufacturing managers,47.934031,-54.16475
Newfoundland and Labrador,Sorensen School Of Dance Ltd,"St. John's, NL A1A 4L5",1,High Wage,5134,Dancers,,
Newfoundland and Labrador,Subsea 7 Canada Inc.,"St. John's, NL A1E 3Y3",2,High Wage,0711,Construction managers,47.551277,-52.727693
Newfoundland and Labrador,Suncor Energy Services Inc,"St John's, NL A1C 1B6",1,High Wage,7302,"Contractors and supervisors, heavy equipment operator crews",47.5632929,-52.7081729
Newfoundland and Labrador,Toiber Toys Ltd.,"St. John's, NL A1E 1B8",1,High Wage,0621,Retail and wholesale trade managers,47.552481,-52.715932
Newfoundland and Labrador,67527 Newfoundland and Labrador Ltd.,"Clarenville, NL A5A 2C2",3,67527 Newfoundland and Labrador Ltd.,6322,Cooks,48.157256,-53.979495
Newfoundland and Labrador,75038 Newfoundland and Labrador Inc.,"St. John's, NL A1C 4Z5",1,Low Wage,6322,Cooks,47.565811,-52.727617
Newfoundland and Labrador,Anglo Eastern Ship Managment Ltd,"Wanchai, NL A0A 0A0",2,Low Wage,6322,Cooks,47.5820518,-53.2798524
Newfoundland and Labrador,CBS Foods Ltd,"Conception Bay South, NL A1W 3A6",2,Low Wage,6322,Cooks,47.5183451,-52.9567005
Newfoundland and Labrador,Clarenville Foods Inc.,"Portugal Cove, NL A1M 1E3",1,Low Wage,6322,Cooks,47.586467,-52.885492
Newfoundland and Labrador,DOF Subsea Canada Corp.,"Mount Pearl, NL A1N 0A4",1,Low Wage,6322,Cooks,47.519571,-52.811343
Newfoundland and Labrador,Goulding's Wholesale Limited,"Charlottetown, NL A0C 1L0",3,Low Wage,6332,Bakers,48.438006,-54.013769
Newfoundland and Labrador,I.C. Pizza House Inc.,"St. John's, NL A1E 0C2",2,Low Wage,6322,Cooks,47.5505464,-52.7507013
Newfoundland and Labrador,Subsea 7 Canada Inc.,"St. John's, NL A1E 3Y3",4,Low Wage,6322,Cooks,47.551277,-52.727693
Newfoundland and Labrador,Wong's Palace Limited,"Marystown, NL A0E 2M0",1,Low Wage,6322,Cooks,47.15491,-55.265069
Newfoundland and Labrador,New World Dairy Inc.,"St. David's, NL A0N 1X0",3,New World Dairy Inc.,8431,General farm workers,48.160518,-58.815081
Newfoundland and Labrador,Rideout's Dairy Inc.,"Cormack, NL A8A 2R6",1,Primary Agriculture,8252,"Agricultural service contractors, farm supervisors and specialized livestock workers",49.282213,-57.420854
Newfoundland and Labrador,Spruce Meadow Farm,"Happy Valley Goose Bay, NL A0P 1E0",3,Primary Agriculture,8431,General farm workers,53.312758,-60.38015
Newfoundland and Labrador,Viking Fur Inc,"Cavendish, NL A0B 1J0",2,Primary Agriculture,8431,General farm workers,47.715864,-53.493243
Prince Edward Island,Bulk Carriers (P.E.I.) Limited,"Cornwall, PE C0A 1H0",20,Bulk Carriers (P.E.I.) Limited,7511,Transport truck drivers,46.1749323,-63.2607926
Prince Edward Island,Health PEI,"Charlottetown, PE C1A 7N8",1,High Wage,3111,Specialist physicians,46.25128,-63.147429
Prince Edward Island,Seafood Express (PEI) Limited,"Charlottetown, PE C1A 7M8",10,High Wage,7511,Transport truck drivers,46.233768,-63.124917
Prince Edward Island,Claddagh Holdings Inc.,"Charlottetown, PE C1A 1G5",1,Claddagh Holdings Inc.,6322,Cooks,46.23326,-63.126346
Prince Edward Island,FR Enterprises Inc.,"Charlottetown, PE C1A 8Y3",1,Low Wage,6322,Cooks,46.272835,-63.1388
Prince Edward Island,Mary's Cornwall Bakery,"Cornwall, PE C0A 1H0",1,Low Wage,6332,Bakers,46.1749323,-63.2607926
Prince Edward Island,Perry's Construction Ltd,"Tingish, PE C0B 2B0",8,Low Wage,7611,Construction trades helpers and labourers,46.9756355285645,-64.0738525390625
Prince Edward Island,Arlington Orchards Inc,"Arlington, PE C0B 1Y0",6,Arlington Orchards Inc,8431,General farm workers,46.5138130187988,-63.9548187255859
Prince Edward Island,Atlantic Grown Organics Inc,"Kensington, PE C0B 1M0",4,Primary Agriculture,8432,Nursery and greenhouse workers,46.43789,-63.63458
Prince Edward Island,Brookfield Gardens Inc,"Brookfield, PE C0A 1Y0",3,Primary Agriculture,8431,General farm workers,46.203797,-63.266232
Prince Edward Island,Eastern Exporters Ltd,"Souris, PE C0A 2B0",3,Primary Agriculture,8431,General farm workers,46.354047,-62.25215
Prince Edward Island,Hy-Croft Farms Inc,"Summerside, PE C1N 4V4",2,Primary Agriculture,8431,General farm workers,46.423011,-63.800596
Prince Edward Island,Jewell's of Prince Edward Island Inc,"York RR, PE C0A 1P0",4,Primary Agriculture,8611,Harvesting labourers,46.416154,-63.074183
Prince Edward Island,Maritime Pet Foods Inc.,"Stanchel, PE C0A 1E0",3,Primary Agriculture,8252,"Agricultural service contractors, farm supervisors and specialized livestock workers",46.425984,-63.492215
Prince Edward Island,Mol Farms Inc,"Kinkora, PE C0B 1N0",3,Primary Agriculture,8431,General farm workers,46.344061,-63.548072
Prince Edward Island,Ponds Edge Farms Inc.,"Souris, PE C0A 2B0",1,Primary Agriculture,8252,"Agricultural service contractors, farm supervisors and specialized livestock workers",46.354047,-62.25215
Prince Edward Island,The Berry Patch,"Tracadie Cross, PE C0A 1T0",3,Primary Agriculture,8431,General farm workers,46.3396301269531,-62.8716468811035
Prince Edward Island,Victoria Potato Farm Inc.,"Crapaud, PE C0A 1J0",3,Primary Agriculture,8431,General farm workers,46.24001,-63.50021
Nova Scotia,3281964 Nova Scotia Limited,"Lower Sackville, NS B4C 2R8",1,3281964 Nova Scotia Limited,6322,Cooks,44.7635669,-63.6752822
Nova Scotia,Burnbrae Farm & Paradise Inn Inc.,"Paradise, NS B0S 1R0",1,High Wage,0632,Accommodation service managers,44.935412,-65.180707
Nova Scotia,Cha Baa Thai Restaurant Ltd.,"Halifax, NS B3J 2J6",6,High Wage,6322,Cooks,44.643134,-63.576928
Nova Scotia,Connors Transfer Limited,"Stellarton, NS B0K 1S0",8,High Wage,7511,Transport truck drivers,45.5583249,-62.6623249
Nova Scotia,Dalhousie University,"Halifax, NS B3H 4R2",1,High Wage,4011,University professors and lecturers,44.6370504,-63.5964136
Nova Scotia,DSRA Architecture Incorporated,"Halifax, NS B3J 2V1",1,High Wage,2253,Drafting technologists and technicians,44.648416,-63.645986
Nova Scotia,Eassons Transport Ltd.,"Kentville, NS B4N 3V7",10,High Wage,7511,Transport truck drivers,45.067163,-64.547804
Nova Scotia,EM&I Stantec Ltd.,"Dartmouth, NS B3B 1S1",3,High Wage,2261,Non,44.699441,-63.595036
Nova Scotia,Gever Developments Limited,"Halifax, NS B3S 1N5",2,High Wage,0711,Construction managers,44.6602562,-63.6731991
Nova Scotia,IMP Group Limited,"Amherst, NS B4H 4J6",1,High Wage,2244,"Aircraft instrument, electrical and avionics mechanics, technicians and inspectors",45.8139725,-64.228245
Nova Scotia,Infi Systems Ltd.,"Halifax, NS B3J 3N2",1,High Wage,2171,Information systems analysts and consultants,44.6520116,-63.5760615
Nova Scotia,Irving Shipbuilding Inc.,"Halifax, NS B3K 5M7",1,High Wage,0016,Senior managers ,44.66274,-63.590281
Nova Scotia,Masontech Inc,"Halifax, NS B3K 3T6",2,High Wage,7281,Bricklayers,44.651452,-63.585616
Nova Scotia,Orienteering Association of Nova Scotia,"Halifax, NS B3J 1G6",1,High Wage,2255,Technical occupations in geomatics and meteorology,44.6429928,-63.577033
Nova Scotia,Perez Cleaning Services,"Elmsdale, NS B2S 0A1",1,High Wage,6315,Cleaning supervisors,44.971185,-63.50677
Nova Scotia,Spectrum Hospitality Canada Inc.,"Halifax, NS B3J 2V1",13,High Wage,0631,Restaurant and food service managers,44.648416,-63.645986
Nova Scotia,3261369 Nova Scotia Ltd.,"Bridgewater, NS B4V 2V6",1,3261369 Nova Scotia Ltd.,6322,Cooks,44.384266,-64.515245
Nova Scotia,9140271 Canada Inc.,"North Sydney, NS B2A 1N6",1,Low Wage,6311,Food service supervisors,46.208257,-60.255036
Nova Scotia,9902937 Canada Inc.,"Halifax, NS B3L 1K3",3,Low Wage,6731,Light duty cleaners,44.649245,-63.597428
Nova Scotia,Ace Upholstery Limited,"Halifax, NS B3T 1P4",1,Low Wage,6345,Upholsterers,44.6123038,-63.669798
Nova Scotia,B&G Innkeepers Ltd.,"Halifax, NS B3K 2R9",1,Low Wage,6322,Cooks,44.665254,-63.613869
Nova Scotia,Carlo's Barber Shop Limited,"Bedford, NS B4A 3Y4",1,Low Wage,6341,Hairstylists and barbers,44.733105,-63.655979
Nova Scotia,Chow Family Restaurant,"Truro, NS B2N 1E2",1,Low Wage,6322,Cooks,45.3667551,-63.2969557
Nova Scotia,D.B. Kenney Fisheries (2014) Ltd.,"Westport, NS B0V 1H0",2,Low Wage,9463,Fish and seafood plant workers,44.5546607971191,-66.0027923583984
Nova Scotia,DJAJ Property Ltd.,"Halifax, NS B3L 1L2",2,Low Wage,6322,Cooks,44.648722,-63.602523
Nova Scotia,Doraku Foods Limited,"Halifax, NS B3J 4A2",1,Low Wage,6322,Cooks,44.642783,-63.577842
Nova Scotia,Fresh Casual Restaurants Inc. Charlottetown o/a Swiss Chalet,"Amherst, NS B4H 4L2",2,Low Wage,6322,Cooks,45.835384,-64.190678
Nova Scotia,Fresh Casual Restaurants Inc. Dieppe,"Amherst, NS B4H 4L2",3,Low Wage,6322,Cooks,45.835384,-64.190678
Nova Scotia,J.P.F.K Cuisine LTD,"Dartmouth, NS B3A 4N3",1,Low Wage,6322,Cooks,44.684296,-63.558822
Nova Scotia,Naru Japanese Restaurant (NS) Ltd.,"Sydney, NS B1P 1G8",1,Low Wage,6322,Cooks,46.135026,-60.192725
Nova Scotia,Ranex Cuisine Limited,"Dartmouth, NS B2X 0A2",2,Low Wage,6322,Cooks,44.717787,-63.529223
Nova Scotia,Rosa Cleaning Services Inc.,"Fall River, NS B2T 1N3",3,Low Wage,6733,"Janitors, caretakers and building superintendents",44.8278734,-63.6171528
Nova Scotia,The South Shore Fish Shack Ltd.,"Lunenburg, NS B0J 2C0",1,Low Wage,6311,Food service supervisors,44.37635,-64.309889
Nova Scotia,Two Brothers Moving,"Timberlea, NS B3T 1G4",1,Low Wage,7511,Transport truck drivers,44.6549756,-63.7410969
Nova Scotia,W.J.Allen & Sons Inc. o/a Aulac Big Stop Restaurant,"Amherst, NS B4H 4L2",2,Low Wage,6322,Cooks,45.835384,-64.190678
Nova Scotia,WASABI HOUSE RESTAURANT LTD,"Halifax, NS B3L 1A7",1,Low Wage,6322,Cooks,44.644495,-63.600411
Nova Scotia,3226198 Nova Scotia Ltd/Vital Berry Farms,"Centreville, NS B0P 1J0",85,3226198 Nova Scotia Ltd/Vital Berry Farms,8431,General farm workers,45.195976,-64.680474
Nova Scotia,Apple Lane Farm Inc,"Berwick, NS B0P 1E0",14,Primary Agriculture,8431,General farm workers,45.090922,-64.823309
Nova Scotia,Birchleigh Farms Ltd,"Berwick, NS B0P 1E0",4,Primary Agriculture,8611,Harvesting labourers,45.090922,-64.823309
Nova Scotia,Black Avon Farms Ltd.,"Antigonish, NS B0H 1R0",2,Primary Agriculture,8252,"Agricultural service contractors, farm supervisors and specialized livestock workers",45.535195,-61.826747
Nova Scotia,Blue Ridge Farm,"Grafton, NS B0P 1V0",4,Primary Agriculture,8431,General farm workers,45.1708349,-64.7669826
Nova Scotia,Bolivar Farms Ltd,"Baker Settlement, NS B4V 7J3",3,Primary Agriculture,8432,Nursery and greenhouse workers,44.37149,-64.520627
Nova Scotia,CAP Farms Inc,"Grafton, NS B0P 1V0",24,Primary Agriculture,8431,General farm workers,45.1708349,-64.7669826
Nova Scotia,Charles Keddy Farms Limited,"Lakeville, NS B4N 3V7",30,Primary Agriculture,8431,General farm workers,45.067163,-64.547804
Nova Scotia,Craig Nichols Farms Ltd,"Aylesford, NS B0P 1C0",32,Primary Agriculture,8431,General farm workers,45.066995,-64.800737
Nova Scotia,Den Haan Enterprises Ltd,"Lawrencetown, NS B0S 1M0",4,Primary Agriculture,8432,Nursery and greenhouse workers,44.891613,-65.06213
Nova Scotia,G & C Hughes Enterprises Ltd,"New Ross, NS B0J 2M0",16,Primary Agriculture,8432,Nursery and greenhouse workers,44.7657928466797,-64.4158172607422
Nova Scotia,G.A.R. Tree Farms Ltd.,"Barss Corner, NS B0R 1A0",18,Primary Agriculture,8432,Nursery and greenhouse workers,44.6241188049316,-64.6746444702148
Nova Scotia,J & M Reeves Christmas Greens Ltd,"New Ross, NS B0J 2M0",4,Primary Agriculture,8432,Nursery and greenhouse workers,44.7657928466797,-64.4158172607422
Nova Scotia,J W Mason & Sons (2013) Limited,"Windsor, NS B0N 2T0",5,Primary Agriculture,8611,Harvesting labourers,44.819594,-64.318054
Nova Scotia,Lutz Family Farm Ltd,"Berwick, NS B0P 1E0",2,Primary Agriculture,8431,General farm workers,45.090922,-64.823309
Nova Scotia,Millen Farms Limited,"Great Village, NS B0M 1L0",8,Primary Agriculture,8431,General farm workers,45.369405,-63.662186
Nova Scotia,Noggins Corner Farm II Ltd,"Greenwich, NS B4P 2R2",16,Primary Agriculture,8431,General farm workers,44.997527,-64.451876
Nova Scotia,Perfect Berries Ltd,"Berwick, NS B0P 1E0",5,Primary Agriculture,8431,General farm workers,45.090922,-64.823309
Nova Scotia,Power Farms Inc,"Canning, NS B0P 1H0",10,Primary Agriculture,8431,General farm workers,45.026806,-64.165254
Nova Scotia,Richmond Highland Farm Limited,"Ireton, NS B5A 5L5",1,Primary Agriculture,0821,Managers in agriculture,43.838441,-66.114026
Nova Scotia,Sarsfield Farms,"Canning, NS B0P 1H0",13,Primary Agriculture,8431,General farm workers,45.026806,-64.165254
Nova Scotia,Sheffield Valley Farms,"Centreville, NS B0P 1J0",6,Primary Agriculture,8611,Harvesting labourers,45.195976,-64.680474
Nova Scotia,Skips General Maintenance,"Wolfville, NS B4P 2R3",2,Primary Agriculture,8431,General farm workers,45.068884,-64.348807
Nova Scotia,TapRoot Farms Inc.,"Port Williams, NS B0P 1T0",2,Primary Agriculture,8431,General farm workers,45.159695,-64.362715
Nova Scotia,Town Plot Orchards Ltd,"Port Williams, NS B0P 1T0",7,Primary Agriculture,8611,Harvesting labourers,45.159695,-64.362715
Nova Scotia,Traditional Evergreen Tree Farms Ltd,"Bridgewater, NS B4V 2W6",2,Primary Agriculture,8432,Nursery and greenhouse workers,44.367212,-64.561088
Nova Scotia,Van Meekeren Farms Ltd,"Lakeville, NS B4N 3V7",6,Primary Agriculture,8431,General farm workers,45.067163,-64.547804
Nova Scotia,Peer Ledger Inc.,"HALIFAX, NS B3J 3K5",2,Peer Ledger Inc.,2173,Software engineers and designers,44.644489,-63.572554
Nova Scotia,"SHIL Technologies, Inc.","Halifax, NS B3J 3N2",1,Global Talent,0213,Computer and information systems managers,44.6520116,-63.5760615
New Brunswick,692059 N.B. Inc.,"Moncton, NB E1E 0H4",1,692059 N.B. Inc.,6321,Chefs,46.0726463,-64.8664347
New Brunswick,Cavendish Farms Corp,"Dieppe, NB E1A 6X4",1,High Wage,0016,Senior managers ,46.103269,-64.710436
New Brunswick,County Line Trucking Ltd,"Wilmot, NB E7P 2V4",5,High Wage,7511,Transport truck drivers,46.3412017822266,-67.6228332519531
New Brunswick,Culberson Trucking Ltd.,"Jacksonville, NB E7M 3J8",2,High Wage,7511,Transport truck drivers,46.032829,-67.603206
New Brunswick,JPS Trucking Ltd.,"Bloomfield, Carleton County, NB E7K 1C8",2,High Wage,7511,Transport truck drivers,46.475272,-67.74373
New Brunswick,Leader Trucking,"Dieppe, NB E1A 9A9",2,High Wage,7511,Transport truck drivers,46.0979577,-64.7146878
New Brunswick,Quality Transportation Services (NB) Ltd,"Jacksonville, NB E7M 3S1",5,High Wage,7511,Transport truck drivers,46.1887576,-67.6071221
New Brunswick,Regional Health Authority B,"Saint John, NB E2L 4L2",3,High Wage,3111,Specialist physicians,45.277029,-66.068461
New Brunswick,VJ Services Inc.,"Saint-Antoine Sud, NB E4V 2Z8",1,High Wage,7237,Welders and related machine operators,46.594897,-64.841008
New Brunswick,White Rock Freight Services Inc.,"Richibucto, NB E3A 7E3",4,High Wage,7511,Transport truck drivers,45.986051,-66.70301
New Brunswick,"622735 NB, Inc.","Lake George, NB E6K 3P9",1,"622735 NB, Inc.",6322,Cooks,45.990212,-66.890491
New Brunswick,659309 NB Inc,"Moncton, NB E1C 1E4",1,Low Wage,6322,Cooks,46.088929,-64.775636
New Brunswick,692059 N.B. Inc.,"Moncton, NB E1E 0H4",1,Low Wage,6311,Food service supervisors,46.0726463,-64.8664347
New Brunswick,7726848 Canada Ltd.,"Moncton, NB E1C 2T9",2,Low Wage,6311,Food service supervisors,46.108404,-64.827252
New Brunswick,"Botsford Fisheries Ltd., Les Pêcheries Botsford ltée","Cap-Pele, NB E4N 3B3",22,Low Wage,9463,Fish and seafood plant workers,46.2154693603516,-64.2717361450195
New Brunswick,Clamatco Home Enterprise Ltd.,"Shediac, NB E4P 2N1",4,Low Wage,3413,"Nurse aides, orderlies and patient service associates",46.217125,-64.536255
New Brunswick,DY Trucking Inc.,"Fredericton, NB E3B 9S1",1,Low Wage,7511,Transport truck drivers,45.9079994,-66.5964713
New Brunswick,Fuda Wholesale Ltd.,"Moncton, NB E1G 0A9",1,Low Wage,6322,Cooks,46.11945,-64.84871
New Brunswick,Full House Enterprise Ltd,"Fredericton, NB E3B 5Y4",1,Low Wage,6322,Cooks,45.949626,-66.686082
New Brunswick,Jack's Pizza & Donairs,"Fredericton, NB E3B 1E4",1,Low Wage,6322,Cooks,45.962936,-66.646021
New Brunswick,KIL Investments Ltd.,"Fredericton, NB E3B 2H8",4,Low Wage,6322,Cooks,45.9641996,-66.6623193
New Brunswick,Taj Indian Cuisine Inc.,"Moncton, NB E1C 1G4",1,Low Wage,6322,Cooks,46.087961,-64.780013
New Brunswick,BTN Atlantic (615317 NB Inc),"Berwick, NB E5P 3H5",10,BTN Atlantic (615317 NB Inc),8432,Nursery and greenhouse workers,45.841633,-65.58021
New Brunswick,Cavendish Farms Corp,"Dieppe, NB E1A 6X4",6,Primary Agriculture,8431,General farm workers,46.103269,-64.710436
New Brunswick,Ferme Bancourt Ltee,"St. Quentin, NB E8A 2L3",1,Primary Agriculture,8252,"Agricultural service contractors, farm supervisors and specialized livestock workers",47.513371,-67.3556478
New Brunswick,Les Petits Fruits de Pré-d'en-Haut Inc,"Memramcook, NB E4K 1K8",4,Primary Agriculture,8431,General farm workers,45.968083,-64.605089
New Brunswick,Mountain View Packers Ltd,"Florenceville, NB E7L 1Y9",8,Primary Agriculture,8431,General farm workers,46.433347,-67.6221
New Brunswick,Moxon's Country Pumpkin Ltd,"Maugerville, NB E3A 8K8",3,Primary Agriculture,8431,General farm workers,45.86769,-66.46758
New Brunswick,Prescott Farms,"Sackville, NB E4L 3H2",1,Primary Agriculture,8252,"Agricultural service contractors, farm supervisors and specialized livestock workers",45.9154437,-64.3707433
New Brunswick,Sowcow Farms Inc,"Penobsquis, NB E4G 2Z4",1,Primary Agriculture,8252,"Agricultural service contractors, farm supervisors and specialized livestock workers",45.796334,-65.26883
New Brunswick,Verger Belliveau Orchard,"Memramcook, NB E4K 2S6",5,Primary Agriculture,8431,General farm workers,45.949971,-64.628396
Quebec,2964-3277 Quebec Inc.,"Lasalle, QC H8R 3H9",1,2964-3277 Quebec Inc.,2174,Computer programmers and interactive media developers,45.433461,-73.646062
Quebec,3096-3227 QC Inc.,"Montréal, QC H3B 3A9",1,High Wage,2171,Information systems analysts and consultants,45.503198,-73.569465
Quebec,3197794 Canada inc,"LaSalle, QC H8N 1W3",1,High Wage,1311,Accounting technicians and bookkeepers,45.4398526,-73.6248789
Quebec,4077334 Canada inc (Voysis IP Solutions),"Laval, QC H7L 4S8",1,High Wage,6221,Technical sales specialists ,45.591968,-73.759542
Quebec,6064086 Canada Inc.,"Montreal, QC H4B 4W8",2,High Wage,2171,Information systems analysts and consultants,,
Quebec,6750630 Canada Inc,"Montréal, QC H4B 1P3",1,High Wage,6322,Cooks,45.462327,-73.631544
Quebec,7106106 CANADA INC.,"Gatineau, QC J8Y 3Y7",1,High Wage,6322,Cooks,45.447235,-75.7328
Quebec,8315850 Canada Inc,"Montréal, QC H3B 2T4",1,High Wage,6321,Chefs,,
Quebec,9065-1183 Québec Inc,"Mont-Tremblant, QC J0E 1B1",1,High Wage,6322,Cooks,,
Quebec,9073-1464 Québec Inc.,"Montréal, QC H2W 1Z4",1,High Wage,6322,Cooks,45.518679,-73.583456
Quebec,9073-7081 Québec Inc,"Montreal, QC H4N 1W2",1,High Wage,1241,Administrative assistants,45.524388,-73.664748
Quebec,9090436 Canada Inc.,"Laval, QC H7E 1A2",1,High Wage,1122,Professional occupations in business management consulting,45.614305,-73.669119
Quebec,9100-2253 Québec inc.,"Montréal, QC H2T 2K3",1,High Wage,6322,Cooks,45.525136,-73.604218
Quebec,9105-8016 Québec inc,"Montréal, QC H4N 1M4",1,High Wage,6322,Cooks,45.53037,-73.656726
Quebec,9137-8182 Québec inc.,"Montréal, QC J3E 3J9",1,High Wage,4214,Early childhood educators and assistants,45.567456,-73.312161
Quebec,9149-0698 Québec Inc.,"St-Laurent, QC H4L 3L7",1,High Wage,6321,Chefs,45.512072,-73.679087
Quebec,9162-2597 Québec Inc.,"Laval, QC H7T 1A1",1,High Wage,6322,Cooks,45.608225,-73.674272
Quebec,9166-9341 Quebec inc,"Montreal, QC H4X 1M8",1,High Wage,6322,Cooks,45.450627,-73.636459
Quebec,9178-3639 Québec inc.,"Saguenay, QC G7H 2A2",1,High Wage,6322,Cooks,48.425352,-71.05095
Quebec,9178-6541 Québec Inc,"Magog, QC J1X 2A5",1,High Wage,6322,Cooks,45.265602,-72.151211
Quebec,9186-1906 Qc Inc.,"Valleyfield, QC J6T 1M4",1,High Wage,7282,Concrete finishers,45.253635,-74.13748
Quebec,9208-3401 Québec Inc. / Phoenixx,"Québec, QC G1G 0J8",1,High Wage,2174,Computer programmers and interactive media developers,46.876715,-71.2838859
Quebec,9212-0921 Québec inc.,"Saint-Jean-sur-Richelieu, QC J3B 1W5",1,High Wage,6332,Bakers,45.31452,-73.25901
Quebec,9212-4007 QUÉBEC INC.,"Montréal, QC H2X 2V4",1,High Wage,1241,Administrative assistants,45.514843,-73.574488
Quebec,9212-8289 Québec inc.,"Trois-Rivières, QC G8Z 2N8",1,High Wage,1226,Conference and event planners,46.355839,-72.556354
Quebec,9218-9778 Québec Inc.,"Saint-Jean Port-Joli, QC G0R 3G0",1,High Wage,7272,Cabinetmakers,47.189526,-70.267506
Quebec,9219-1568 Québec Inc.,"Montreal, QC H4P 2H2",1,High Wage,0124,"Advertising, marketing and public relations managers",45.496458,-73.655477
Quebec,9223-7569 Québec,"Québec, QC G1V 2L8",1,High Wage,6322,Cooks,46.770922,-71.281326
Quebec,9225-9274 Québec Inc.,"Longueuil, QC J4G 2M1",1,High Wage,1123,"Professional occupations in advertising, marketing and public relations",45.568796,-73.449968
Quebec,9232-3724 Quebec inc,"Montreal, QC H7G 4H2",1,High Wage,7321,"Automotive service technicians, truck and bus mechanics and mechanical repairers",45.589769,-73.687842
Quebec,9247-2133 Quebec Inc.,"Duparquet, QC J0Z 1W0",1,High Wage,6321,Chefs,48.506896,-79.225144
Quebec,9254-1036 QUÉBEC INC.,"Montréal, QC H2X 1B3",1,High Wage,6322,Cooks,45.49646,-73.554113
Quebec,9257-2734 Québec Inc.,"Anjou, QC H1M 0A1",1,High Wage,6321,Chefs,45.595471,-73.557096
Quebec,9269-4785 Québec inc.,"Montréal, QC H2J 3H9",1,High Wage,0124,"Advertising, marketing and public relations managers",45.527693,-73.576177
Quebec,9273-0829 Québec Inc.,"Montreal, QC H2Y 2V3",1,High Wage,6321,Chefs,45.503472,-73.55442
Quebec,9276-6872 Québec Inc,"Montréal, QC H4T 1Z9",1,High Wage,3113,Dentists,45.4942768,-73.688734
Quebec,9280-3170  Quebec Inc,"St Jerome, QC J7Y 0L7",1,High Wage,6321,Chefs,45.791389,-74.011258
Quebec,9280-4210 Québec Inc,"Montreal, QC H2W 1E9",1,High Wage,6322,Cooks,45.52179,-73.578138
Quebec,9286-4396 Quebec inc,"Saint-Basile-le-Grand, QC J3N 1R1",1,High Wage,0631,Restaurant and food service managers,45.529045,-73.288542
Quebec,9292-1766 Québec Inc,"Montreal, QC H8T 3G6",1,High Wage,6322,Cooks,45.4397657,-73.6922927
Quebec,9293-7044 Québec Inc,"Pointe-Claire, QC H9R 5J1",1,High Wage,6322,Cooks,45.473759,-73.806047
Quebec,9299-4797 Québec Inc,"Montreal, QC H2W 2L5",1,High Wage,6322,Cooks,45.520216,-73.576436
Quebec,9304-3347 Québec Inc.,"Québec, QC G1Y 1S2",3,High Wage,6322,Cooks,46.802426,-71.251897
Quebec,9305-2090 Québec Inc.,"Montréal, QC H4B 1V3",1,High Wage,6322,Cooks,45.456305,-73.631105
Quebec,9314-1703 Québec inc.,"Montréal, QC H4A 1W1",1,High Wage,6322,Cooks,45.472908,-73.611137
Quebec,9330-1455 Quebec inc.,"Mirabel, QC J7J 0T8",1,High Wage,0631,Restaurant and food service managers,45.671967,-73.920543
Quebec,9331-0084 Québec Inc.,"Saint-Léonard, QC H1P 2A9",1,High Wage,9416,Metalworking and forging machine operators,45.595887,-73.581303
Quebec,9337-3074 Québec Inc,"Montreal, QC H2Y 1H1",1,High Wage,6321,Chefs,45.508645,-73.552123
Quebec,9341-6410 Québec Inc,"Sherbrooke, QC J1R 0L1",1,High Wage,6222,Retail and wholesale buyers,45.395014,-72.004779
Quebec,9342-3085 Québec inc,"Boisbriand, QC J7H 1S1",1,High Wage,8252,"Agricultural service contractors, farm supervisors and specialized livestock workers",45.70129,-73.92728
Quebec,9351-8306 Québec inc,"Laval, QC H7V 2T8",1,High Wage,6321,Chefs,45.537849,-73.744858
Quebec,9352-9196 Québec Inc,"Montréal, QC H3B 3X1",1,High Wage,5241,Graphic designers and illustrators,45.503211,-73.569465
Quebec,ABGI conseil inc.,"Montréal, QC H3B 5E8",1,High Wage,0124,"Advertising, marketing and public relations managers",45.497847,-73.568369
Quebec,Académie Marie-Claire,"Kirkland, QC H9J 3Y4",1,High Wage,1222,Executive assistants,45.445219,-73.880729
Quebec,Acensi Consultants Inc.,"Montréal, QC H2Y 2K7",1,High Wage,2174,Computer programmers and interactive media developers,45.501413,-73.558536
Quebec,Advantech sans fil Inc./Advantech Wireless Inc.,"Dorval, QC H9P 1G1",1,High Wage,2133,Electrical and electronics engineers,45.455565,-73.732098
Quebec,Aéronergie Inc,"Drummondville, QC J2C 8B1",1,High Wage,0211,Engineering managers,45.874122,-72.5263995
Quebec,Agences Maritimes Scandia Inc.,"Montreal, QC H2N 2J2",1,High Wage,1315,"Customs, ship and other brokers",45.539425,-73.652196
Quebec,AgileDSS Inc.,"Montréal, QC H2Y 2G3",1,High Wage,2171,Information systems analysts and consultants,45.500405,-73.557362
Quebec,Akka Groupe Amérique du Nord Inc.,"Montréal, QC H3A 2W5",1,High Wage,2146,Aerospace engineers,45.500906,-73.574766
Quebec,ALCHIMIE 24 INC. (ALCHEMY 24 INC.),"Montréal, QC H4C 2C7",2,High Wage,5241,Graphic designers and illustrators,45.471077,-73.585455
Quebec,Alta Precision Inc.,"Anjou, QC H1J 2S1",1,High Wage,7231,Machinists and machining and tooling inspectors,45.617666,-73.590848
Quebec,Alten Canada inc.,"Montréal, QC H3B 4N4",1,High Wage,2132,Mechanical engineers,45.498856,-73.570201
Quebec,ALTITUDE AEROSPACE INC.,"Montréal, QC H4S 1T2",1,High Wage,2146,Aerospace engineers,45.4948839,-73.7440648
Quebec,Andritz Hydro Canada inc.,"Pointe-Claire, QC H9R 1B9",1,High Wage,2132,Mechanical engineers,45.478221,-73.797033
Quebec,Anomera Inc.,"Montreal, QC H3A 2G4",1,High Wage,0013,Senior managers ,45.505823,-73.568768
Quebec,Arclay Technologies Naturelles inc.,"Saint-Hubert, QC J3Y 5T6",1,High Wage,1222,Executive assistants,45.503033,-73.441885
Quebec,Artistes Folks inc,"Montréal, QC H3H 1E8",1,High Wage,5241,Graphic designers and illustrators,45.494018,-73.583967
Quebec,Astellia Canada Inc.,"Montréal, QC H3B 4W5",1,High Wage,6221,Technical sales specialists ,45.515392,-73.553859
Quebec,ATELIER D'USINAGE ST-HUBERT LTÉE,"St-Hubert, QC J3Y 0A8",1,High Wage,7231,Machinists and machining and tooling inspectors,45.50337,-73.43959
Quebec,Atomic Fiction Canada Inc.,"Montréal, QC H3A 2J5",1,High Wage,5241,Graphic designers and illustrators,45.507564,-73.56949
Quebec,Auto Bugatti Inc.,"Montréal, QC H9P 1G4",1,High Wage,7322,Motor vehicle body repairers,45.460549,-73.731869
Quebec,Autodesk Canada Co.,"Montreal, QC H2Y 2E1",2,High Wage,2173,Software engineers and designers,45.508539,-73.551378
Quebec,Automoteur M.M.R. Inc.,"Lourdes de Blanc Sablon, QC G0G 1W0",1,High Wage,7321,"Automotive service technicians, truck and bus mechanics and mechanical repairers",51.412024,-57.203117
Quebec,Axis Agriculture Inc.,"Mont-Saint-Hilaire, QC J3H 3N9",1,High Wage,0601,Corporate sales managers,45.564314,-73.184853
Quebec,Ballistiq Digital Inc.,"Montreal, QC H3C 2M7",1,High Wage,1123,"Professional occupations in advertising, marketing and public relations",45.496988,-73.555482
Quebec,Bandsintown Canada Inc.,"Montréal, QC H2Y 2S1",1,High Wage,2174,Computer programmers and interactive media developers,45.50275,-73.557619
Quebec,Banque Nationale du Canada,"Montréal, QC H3B 4L2",1,High Wage,2161,"Mathematicians, statisticians and actuaries",45.50562,-73.561694
Quebec,Behaviour Interactif Inc.,"Montréal, QC H2S 3H1",2,High Wage,2174,Computer programmers and interactive media developers,45.530814,-73.613315
Quebec,Beyond Technologies Consulting Inc./Solutions Beyond Technologies Inc.,"Montréal, QC H3C 2M1",1,High Wage,2171,Information systems analysts and consultants,45.495114,-73.553389
Quebec,Bio V Pharma Inc.,"Dollard-des-Ormeaux, QC H9B 3J1",1,High Wage,2241,Electrical and electronics engineering technologists and technicians,45.482521,-73.803551
Quebec,Bisco inc.,"Warwick, QC J0A 1M0",6,High Wage,7237,Welders and related machine operators,45.960581,-72.020138
Quebec,BISTRO-BAR L'ATELIER INC,"Québec, QC G1R 2K5",2,High Wage,6322,Cooks,46.806028,-71.217363
Quebec,BNL 20th Anniversary Touring Inc.,"Montreal, QC H3B 1R1",1,High Wage,7513,Taxi and limousine drivers and chauffeurs,45.502257,-73.56716
Quebec,BNP Paribas Solutions TI Canada Inc.,"Montréal, QC H3A 2W8",2,High Wage,2171,Information systems analysts and consultants,45.502029,-73.570987
Quebec,Brookfield Energy Marketing Inc.,"Gatineau, QC J8X 2A1",1,High Wage,1113,"Securities agents, investment dealers and brokers",45.428813,-75.714246
Quebec,BSP Concept Inc.,"Montreal, QC H4P 2B5",1,High Wage,1121,Human resources professionals,45.499676,-73.657433
Quebec,C.H. Express inc,"St-Jean-sur-Richelieu, QC J2X 5A9",1,High Wage,7511,Transport truck drivers,45.308613,-73.219822
Quebec,C.T. CONSULTANTS INC.,"Laval, QC H7M 2P4",1,High Wage,2174,Computer programmers and interactive media developers,45.587064,-73.711076
Quebec,Caisse de Dépôt et Placements du Québec,"Montréal, QC H2Z 2B3",1,High Wage,1112,Financial and investment analysts,45.50323,-73.567858
Quebec,Canadian National Railway Company,"Montréal, QC H3B 2M9",1,High Wage,0016,Senior managers ,45.515111,-73.554136
Quebec,Carrosserie Vaudreuil-Dorion Inc.,"Vaudreuil-Dorion, QC J7V 2T8",1,High Wage,1241,Administrative assistants,45.35225,-73.99445
Quebec,CDID inc.,"St-Georges, QC G5Y 7H5",1,High Wage,2174,Computer programmers and interactive media developers,46.066058,-70.622077
Quebec,Centre de Collision Centre-Ville Inc.,"Montreal, QC H3K 2A4",1,High Wage,7322,Motor vehicle body repairers,45.480893,-73.553021
Quebec,Centre de collision Dollard-Des-Ormeaux Inc,"Dollard-des-Ormeaux, QC H9B 1Z9",1,High Wage,7322,Motor vehicle body repairers,45.488806,-73.801589
Quebec,Centre de Santé et de Services Sociaux de Laval,"Laval, QC H7V 3Y7",1,High Wage,3112,General practitioners and family physicians,45.551987,-73.746439
Quebec,Centre Débosselage G.L Inc.,"Cap St-Ignace, QC G0R 1H0",1,High Wage,7322,Motor vehicle body repairers,47.0353012084961,-70.4599990844727
Quebec,Centre Educapp,"Montreal, QC H2C 1S7",1,High Wage,3141,Audiologists and speech,45.563888,-73.6558
Quebec,CFR Dorchester Inc,"Sainte-Claire, QC G0R 2V0",1,High Wage,7237,Welders and related machine operators,46.594235,-70.860566
Quebec,Chromo Solutions d'Affaires Inc.,"Gatineau, QC J8T 2R9",1,High Wage,2174,Computer programmers and interactive media developers,45.462422,-75.69707
Quebec,CHU de Québec - Université Laval,"Québec, QC G1R 2J6",1,High Wage,3111,Specialist physicians,46.815489,-71.211493
Quebec,CHU Sainte-Justine,"Montréal, QC H3T 1C5",1,High Wage,3012,Registered nurses and registered psychiatric nurses,45.501818,-73.624537
Quebec,Cinesite Inc.,"Montréal, QC H2Y 0A3",1,High Wage,2173,Software engineers and designers,45.5052277,-73.5557318
Quebec,Cirque du Soleil Inc.,"Montréal, QC H1Z 4M6",1,High Wage,0311,Managers in health care,45.5626553,-73.6166447
Quebec,CISSS de l'Abitibi-Témiscamingue,"Val d'or, QC J9P 3Y2",2,High Wage,3012,Registered nurses and registered psychiatric nurses,48.0980361,-77.7962186
Quebec,CIUSSS de l'Est-de l'Ile-de Montréal,"Montréal, QC H1T 2M4",3,High Wage,3012,Registered nurses and registered psychiatric nurses,45.573296,-73.55876
Quebec,Club Spa Inc,"Québec, QC G1C 1A1",1,High Wage,7333,Electrical mechanics,46.888571,-71.221183
Quebec,CLX Networks Canada Inc.,"Montréal, QC H3A 2G4",1,High Wage,2174,Computer programmers and interactive media developers,45.505823,-73.568768
Quebec,Code3 Coopérative de Solidarité,"Montreal, QC H2Y 2P1",1,High Wage,2171,Information systems analysts and consultants,45.502123,-73.555361
Quebec,Cofomo Développement Inc.,"Montréal, QC H3B 4W5",3,High Wage,2174,Computer programmers and interactive media developers,45.515392,-73.553859
Quebec,COFOMO Québec inc.,"Québec, QC G2J 0B9",8,High Wage,2174,Computer programmers and interactive media developers,46.840635,-71.282188
Quebec,Collège des médecins du Québec,"Montréal, QC H3B 0G2",5,High Wage,3111,Specialist physicians,45.513113,-73.556115
Quebec,Collège St-Michel,"Montréal, QC H2G 1B8",1,High Wage,2281,Computer network technicians,45.548138,-73.601961
Quebec,Commission scolaire Hauts-Bois-de-l'Outaouais,"Maniwaki, QC J9E 1H5",1,High Wage,4151,Psychologists,46.3807191,-75.9695368
Quebec,Communication Visuelle,"Laval, QC H7K 3N1",4,High Wage,5232,"Other performers, n.e.c.",45.624086,-73.72392
Quebec,Compulsion Games inc.,"Montreal, QC H4C 2Z6",1,High Wage,0124,"Advertising, marketing and public relations managers",45.47629,-73.591751
Quebec,Concordia University,"Montréal, QC H3G 1M8",1,High Wage,2148,"Other professional engineers, n.e.c.",45.521216,-73.555699
Quebec,CONSEILLERS EN GESTION ET INFORMATIQUE CGI INC,"Montreal, QC H3G 1T4",8,High Wage,2171,Information systems analysts and consultants,45.506419,-73.563688
Quebec,Corporation Financière Thinking Capital,"Montréal, QC H3Z 1V4",1,High Wage,2173,Software engineers and designers,45.48546,-73.587225
Quebec,Corporation Interactive EIDOS,"Montréal, QC H3A 1G1",1,High Wage,2174,Computer programmers and interactive media developers,45.50291,-73.57274
Quebec,Creaform Inc,"Lévis, QC G6W 0L9",3,High Wage,2253,Drafting technologists and technicians,46.7530428,-71.2196569
Quebec,David&Goliath Communication-Marketing Inc,"Outremont, QC H2V 1A5",1,High Wage,1241,Administrative assistants,45.527439,-73.616555
Quebec,Diacarb Inc.,"Saint-Laurent, QC H4S 1E5",1,High Wage,7231,Machinists and machining and tooling inspectors,45.494655,-73.749801
Quebec,Divertissements Gameloft Inc.,"Montréal, QC H2R 2Z5",2,High Wage,2174,Computer programmers and interactive media developers,45.5322,-73.621464
Quebec,DLP Technologies inc.,"Cap-St-Ignace, QC G0R 1H0",1,High Wage,7231,Machinists and machining and tooling inspectors,47.0353012084961,-70.4599990844727
Quebec,Dollarama LP,"Montreal, QC H4P 0A1",1,High Wage,1112,Financial and investment analysts,45.4974431,-73.6590576
Quebec,Données Modulo Inc.,"Lévis, QC G6V 3P5",1,High Wage,2173,Software engineers and designers,46.808983,-71.186812
Quebec,Dulcedo Inc.,"Montréal, QC H2Y 2G1",1,High Wage,5232,"Other performers, n.e.c.",45.500573,-73.558327
Quebec,ÉBÉNISTE D'ART INC.,"St-Bonaventure, QC J0C 1C0",1,High Wage,7272,Cabinetmakers,45.916973,-72.707741
Quebec,Ecole Nationale De Theatre,"Montréal, QC H2J 2L8",1,High Wage,5131,"Producers, directors, choreographers and related occupations",45.526966,-73.589462
Quebec,eFront solutions financières inc.,"Montréal, QC H3A 2R7",1,High Wage,2171,Information systems analysts and consultants,45.501996,-73.576373
Quebec,Element AI Inc.,"Montréal, QC H2W 2R2",1,High Wage,2173,Software engineers and designers,45.518103,-73.582162
Quebec,Elyo Shawarma Inc.,"Gatineau, QC J8T 5T7",1,High Wage,6321,Chefs,45.48668,-75.702168
Quebec,En toute confiance Inc.,"Montréal, QC H2Z 2B9",1,High Wage,2171,Information systems analysts and consultants,45.501709,-73.561666
Quebec,Enero Solutions Inc,"Montréal, QC H3J 1S6",1,High Wage,2133,Electrical and electronics engineers,45.489387,-73.565839
Quebec,Enseignes Montreal Neon Signs Inc.,"Laval, QC H7T 0H3",1,High Wage,0015,Senior managers ,45.557017,-73.768531
Quebec,Equalit.ie Inc.,"Montreal, QC H2T 1X3",1,High Wage,2174,Computer programmers and interactive media developers,45.525843,-73.595063
Quebec,Estampro Inc,"St-Évariste, QC G0M 1S0",1,High Wage,7231,Machinists and machining and tooling inspectors,45.743566,-70.698132
Quebec,EVENTLEADER SERVICES INC.,"St-Lambert, QC J4P 2K8",1,High Wage,1226,Conference and event planners,45.5014099,-73.5087387
Quebec,Exagens Corp.,"Montreal, QC H2Y 1Z5",1,High Wage,2174,Computer programmers and interactive media developers,45.502814,-73.555249
Quebec,Expertus Technologies Inc,"Montréal, QC H3A 1V4",1,High Wage,2174,Computer programmers and interactive media developers,45.501854,-73.576509
Quebec,EY LLP,"Montréal, QC H3B 1X9",1,High Wage,0013,Senior managers ,45.514464,-73.556599
Quebec,Fabrication SBL Inc.,"Saint-Benoit-Labre, QC G0M 1P0",3,High Wage,7237,Welders and related machine operators,45.843699,-70.570819
Quebec,Facilité Conseils et Solutions Inc.,"Montréal, QC H3B 2G2",5,High Wage,2174,Computer programmers and interactive media developers,45.557512,-73.527494
Quebec,Faro Technologies Canada Inc,"Westmount, QC H3Z 1T3",1,High Wage,2174,Computer programmers and interactive media developers,45.47595,-73.60026
Quebec,Fime Inc.,"Montreal, QC H2Z 1S8",1,High Wage,6221,Technical sales specialists ,45.502637,-73.565125
Quebec,Garage Azores Inc.,"Montréal, QC H2G 3A6",1,High Wage,7322,Motor vehicle body repairers,45.537724,-73.592447
Quebec,Garage L. Tufano Inc,"Montreal, QC H2S 3H2",1,High Wage,7322,Motor vehicle body repairers,45.530853,-73.613413
Quebec,Globe Medic Ltd,"Montreal, QC H7A 1R8",1,High Wage,6221,Technical sales specialists ,45.643242,-73.61866
Quebec,Gomel inc.,"Saint Bruno de Montarville, QC J3V 6H6",1,High Wage,7511,Transport truck drivers,45.544366,-73.356955
Quebec,Groupe Askida inc.,"Montréal, QC H2Y 2P5",1,High Wage,2173,Software engineers and designers,45.502079,-73.555664
Quebec,Groupe Atallah inc.,"Montréal, QC H2N 2E7",16,High Wage,5232,"Other performers, n.e.c.",45.539455,-73.654033
Quebec,Groupe Dynamite inc,"Ville Mont-Royal, QC H4P 1M2",1,High Wage,0013,Senior managers ,45.495141,-73.660894
Quebec,Groupe Gorilla Canada Inc. / Gorilla Group Canada inc.,"Montreal, QC H2Y 2W8",1,High Wage,2173,Software engineers and designers,45.504629,-73.557465
Quebec,Groupe In-RGY Consultation Inc,"Montréal, QC H2Y 1Y3",2,High Wage,2171,Information systems analysts and consultants,45.500452,-73.557958
Quebec,Groupe SECTOR Canada inc.,"Montréal, QC H3G 1W3",1,High Wage,2233,Industrial engineering and manufacturing technologists and technicians,45.499243,-73.575485
Quebec,Gymbirds Inc.,"DDO, QC H9A 1S3",1,High Wage,2174,Computer programmers and interactive media developers,45.496402,-73.827313
Quebec,Hardwater Fashion inc,"Montreal, QC H2N 2C9",1,High Wage,5245,Patternmakers ,45.540817,-73.653258
Quebec,Hébergement OVH Inc.,"Montreal, QC H3A 2N4",1,High Wage,2171,Information systems analysts and consultants,45.502688,-73.5723
Quebec,HEC Montréal,"Montréal, QC H3T 2A7",6,High Wage,4011,University professors and lecturers,45.504013,-73.622601
Quebec,IMDS Software Inc.,"Montréal, QC H2Y 3P6",3,High Wage,2174,Computer programmers and interactive media developers,45.507999,-73.554237
Quebec,Incloud Solutions d'affaires inc,"Montreal, QC H3C 1C7",1,High Wage,2174,Computer programmers and interactive media developers,45.501127,-73.5605
Quebec,Industries Canatal Inc.,"Thetford Mines, QC G6G 6P6",1,High Wage,7237,Welders and related machine operators,46.112205,-71.281155
Quebec,InfoVista Canada Inc.,"Gatineau, QC J8Z 1W2",1,High Wage,2173,Software engineers and designers,45.467541,-75.740659
Quebec,Innu-Science Canada Inc.,"Sainte-Julie, QC J3E 1Z6",1,High Wage,6411,Sales and account representatives ,45.58078,-73.32038
Quebec,Institut de recherches cliniques de Montréal,"Montréal, QC H2W 1R7",1,High Wage,2121,Biologists and related scientists,45.516231,-73.574104
Quebec,Intermark Transport Inc.,"La Prairie, QC J5R 6W9",5,High Wage,7511,Transport truck drivers,45.40192,-73.493456
Quebec,Isart Digital Montréal Inc.,"Montréal, QC H3G 1R8",1,High Wage,0421,Administrators ,45.496112,-73.576751
Quebec,KeaText inc.,"St-Laurent, QC H4R 3M2",1,High Wage,2175,Web designers and developers,45.506129,-73.714288
Quebec,Kinda Montréal 1 Inc.,"Montréal, QC H3A 2S9",1,High Wage,6322,Cooks,45.504934,-73.571413
Quebec,KINESSOR GROUPE-CONSEILS INC.,"Montréal, QC H3B 1P5",1,High Wage,2171,Information systems analysts and consultants,45.514193,-73.55685
Quebec,Ktalysis Inc.,"Montréal, QC H3C 1C7",1,High Wage,2171,Information systems analysts and consultants,45.501127,-73.5605
Quebec,Kwanko Numérique Inc.,"Montréal, QC H3B 4G7",1,High Wage,0124,"Advertising, marketing and public relations managers",45.50155,-73.570142
Quebec,La Maison Simons,"Québec, QC G1R 3V9",4,High Wage,5221,Photographers,46.814237,-71.207178
Quebec,LA PIAZZA PAZZA,"Brossard, QC J4Y 1A2",1,High Wage,6322,Cooks,45.455367,-73.465146
Quebec,Lallemand Inc,"Montreal, QC H1W 2N8",1,High Wage,2132,Mechanical engineers,45.539291,-73.544322
Quebec,Laporte Experts Conseils Inc.,"Montréal, QC H4P 1L4",1,High Wage,2141,Industrial and manufacturing engineers,45.498153,-73.656841
Quebec,Larian Québec inc.,"Québec, QC G1K 3C7",2,High Wage,5241,Graphic designers and illustrators,46.815793,-71.219509
Quebec,Latécoère  SERVICE CANADA INC.,"Laval, QC H7P 0J1",1,High Wage,2132,Mechanical engineers,45.57732,-73.802474
Quebec,Le Chateau Inc.,"Saint Laurent, QC H4N 2M3",1,High Wage,5241,Graphic designers and illustrators,45.503243,-73.671312
Quebec,Le Palais Libanais inc.,"Gatineau, QC J8T 8H4",1,High Wage,6321,Chefs,45.478168,-75.700978
Quebec,Les 7 doigts de la main (2003) inc.,"Montréal, QC H2W 1M5",1,High Wage,5227,"Support occupations in motion pictures, broadcasting, photography and the performing arts",45.517274,-73.574378
Quebec,Les Chaussures Rubino Inc.,"Montréal, QC H1P 3B4",1,High Wage,1225,Purchasing agents and officers,45.583663,-73.607141
Quebec,Les Produits Florisec Inc.,"Longueuil, QC J4N 1C7",1,High Wage,1241,Administrative assistants,45.565339,-73.453891
Quebec,Les Services Conseils Systématix Inc.,"Québec, QC G1V 4W2",1,High Wage,2171,Information systems analysts and consultants,46.771029,-71.281169
Quebec,Les Services Optométriques Beauport inc.,"Québec, QC G1E 1Z1",1,High Wage,3231,Opticians,46.812697,-71.202083
Quebec,Les Studios Bethesda Montréal Inc.,"Montréal, QC H3C 2M7",2,High Wage,2174,Computer programmers and interactive media developers,45.496988,-73.555482
Quebec,Les Studios Moment Factory Inc.,"Montréal, QC H2V 4H8",1,High Wage,2174,Computer programmers and interactive media developers,45.526299,-73.611371
Quebec,Lightspeed POS inc.,"Montreal, QC H2Y 1A6",1,High Wage,1123,"Professional occupations in advertising, marketing and public relations",45.500463,-73.562724
Quebec,L'industrielle Alliance,"Québec, QC G1K 7M3",1,High Wage,2174,Computer programmers and interactive media developers,46.81749,-71.2123
Quebec,Ludia inc,"Montréal, QC H2Y 2P5",1,High Wage,2174,Computer programmers and interactive media developers,45.502079,-73.555664
Quebec,LumaPix Inc.,"Brossard, QC J4W 1M2",1,High Wage,2174,Computer programmers and interactive media developers,45.473333,-73.469899
Quebec,LVL Studio Inc.,"Montréal,Qc, QC H2W 2R2",1,High Wage,2174,Computer programmers and interactive media developers,45.518103,-73.582162
Quebec,Magasin Laura (P.V.) Inc.,"Laval, QC H7L 3W2",4,High Wage,5232,"Other performers, n.e.c.",45.585158,-73.751624
Quebec,Manac Inc.,"St-Georges de Beauce, QC G5Y 8G6",11,High Wage,7237,Welders and related machine operators,46.134199,-70.662775
Quebec,Marine GeoDev Canada inc.,"Montréal, QC H3C 1L9",1,High Wage,2174,Computer programmers and interactive media developers,45.49939,-73.557986
Quebec,Marmen Énergie Inc.,"Matane, QC G4W 3N1",3,High Wage,7237,Welders and related machine operators,48.841814,-67.532128
Quebec,Mathias Marine Sports Inc.,"St-Mathias-sur-Richelieu, QC J3L 6A2",1,High Wage,7334,"Motorcycle, all",45.489367,-73.261445
Quebec,Medicago R&D Inc.,"Québec, QC G1V 3V9",1,High Wage,0124,"Advertising, marketing and public relations managers",46.743475,-71.219495
Quebec,Métal Grenier Ltée,"Victoriaville, QC G6T 2H6",1,High Wage,7237,Welders and related machine operators,46.085639,-71.947955
Quebec,MÉTAL NORGATE 2012 INC.,"La Guadeloupe, QC G0M 1G0",1,High Wage,7237,Welders and related machine operators,45.960989,-70.944539
Quebec,Milident Inc.,"Gatineau, QC J8Z 3G4",1,High Wage,3223,"Dental technologists, technicians and laboratory assistants",45.476047,-75.77838
Quebec,Minority Media Inc.,"Montreal, QC H2T 2T3",1,High Wage,2174,Computer programmers and interactive media developers,45.519642,-73.586924
Quebec,Mirametrix Inc,"Montréal, QC H3B 1A7",1,High Wage,2173,Software engineers and designers,45.505159,-73.567934
Quebec,Montrium Inc.,"Montréal, QC H2Y 2W8",1,High Wage,2171,Information systems analysts and consultants,45.504629,-73.557465
Quebec,NAKISA INC.,"Montreal, QC H3B 1M6",1,High Wage,1111,Financial auditors and accountants,45.502594,-73.569128
Quebec,Navut inc.,"Montreal, QC H3C 1N8",1,High Wage,0124,"Advertising, marketing and public relations managers",45.497461,-73.558629
Quebec,Neosoft Technologies Inc.,"Québec, QC G1V 3V7",1,High Wage,2173,Software engineers and designers,46.743475,-71.219495
Quebec,Nishan Transport Inc.,"Pointe-Claire, QC H9R 1A1",4,High Wage,7511,Transport truck drivers,45.472088,-73.826282
Quebec,Northforge Innovations Inc,"Gatineau, QC J8X 3H3",1,High Wage,2173,Software engineers and designers,45.428523,-75.715981
Quebec,Novipro Solutions d'Affaires inc.,"Montréal, QC H3A 1V4",1,High Wage,2171,Information systems analysts and consultants,45.501854,-73.576509
Quebec,NSAIIA INTERNATIONAL INC,"Magog, QC J1X 2B3",1,High Wage,2174,Computer programmers and interactive media developers,45.260413,-72.133451
Quebec,Nuance Communications Canada Inc.,"Montréal, QC H3A 3S7",1,High Wage,2147,Computer engineers (except software engineers and designers),45.508898,-73.581448
Quebec,Octasic Inc.,"Montreal, QC H1Y 3L1",1,High Wage,2174,Computer programmers and interactive media developers,45.541368,-73.564001
Quebec,Octopus inc.,"Saint-Bruno-de-Montarville, QC J3V 4B2",1,High Wage,6411,Sales and account representatives ,45.5195657,-73.3278905
Quebec,ON Animation Studio Montreal Inc.,"Montréal, QC H3H 2K5",9,High Wage,5241,Graphic designers and illustrators,45.494409,-73.5762991
Quebec,Opal-Rt Technologies Inc.,"Montréal, QC H3K 1G6",1,High Wage,2171,Information systems analysts and consultants,45.484047,-73.562138
Quebec,Optel Technologies inc.,"Québec, QC G1P 4S6",1,High Wage,6221,Technical sales specialists ,46.796824,-71.31291
Quebec,OSF Global Services inc.,"Québec, QC G2K 1M1",1,High Wage,2171,Information systems analysts and consultants,46.83322,-71.280679
Quebec,Pages jaunes solutions numériques et médias limitée,"Montreal, QC H3E 2A5",1,High Wage,2174,Computer programmers and interactive media developers,45.469193,-73.542681
Quebec,Papineau International S.E.C.,"Saint-Jérôme, QC J7Y 4C2",3,High Wage,7511,Transport truck drivers,45.789524,-74.029341
Quebec,Paxyl Inc.,"Montréal, QC H2Y 1T9",1,High Wage,2173,Software engineers and designers,45.501627,-73.55908
Quebec,Pearl Studios Inc.,"Montreal, QC H2Y 1Z9",1,High Wage,2174,Computer programmers and interactive media developers,45.502079,-73.555664
Quebec,PÊCHERIES NIKAN S.E.C.,"Essipit, QC G0T 1K0",2,High Wage,7384,"Other trades and related occupations, n.e.c.",48.340459,-69.402411
Quebec,PeopleCorp Gaming Inc.,"Montréal, QC H4M 2X6",1,High Wage,2174,Computer programmers and interactive media developers,45.531351,-73.673984
Quebec,Pépinière Paysagiste Jardin Fleuri inc,"Boucherville, QC J4B 6T6",1,High Wage,9414,"Concrete, clay and stone forming operators",45.581876,-73.454291
Quebec,Plastiques Moore Inc.,"Saint-Damien-de-Buckland, QC G0R 2Y0",4,High Wage,7231,Machinists and machining and tooling inspectors,46.679336,-70.917265
Quebec,Plate 2000 inc,"St-Anselme, QC G0R 2N0",1,High Wage,7237,Welders and related machine operators,46.64819,-70.99023
Quebec,Probiotech International Inc,"Saint-Hyacinthe, QC J2S 8L2",1,High Wage,6221,Technical sales specialists ,45.628869,-72.991044
Quebec,Produits de construction Derby inc.,"St-Augustin-de-Desmaures, QC G3A 2K1",1,High Wage,7231,Machinists and machining and tooling inspectors,46.7500561,-71.4473663
Quebec,Produits Zinda Canada Inc,"Candiac, QC J5R 6X1",1,High Wage,7311,Construction millwrights and industrial mechanics,45.376851,-73.532676
Quebec,Pro-Metal Plus Inc,"Deschambault, QC G0A 1S0",1,High Wage,7237,Welders and related machine operators,46.64613,-71.934034
Quebec,Public Image Management,"Montreal, QC H3J 2V2",2,High Wage,5232,"Other performers, n.e.c.",45.483135,-73.573192
Quebec,Réalisations inc. Montreal,"Montreal, QC H2R 2Y5",1,High Wage,5131,"Producers, directors, choreographers and related occupations",45.5334847,-73.6191595
Quebec,Reitmans Canada Ltd,"Montréal, QC H3L 1Z2",1,High Wage,1123,"Professional occupations in advertising, marketing and public relations",45.542796,-73.662597
Quebec,Restaurant Aix Inc.,"Montréal, QC H2Y 2X6",1,High Wage,6321,Chefs,45.505445,-73.557594
Quebec,Restaurant El Meson Inc.,"Montréal, QC H8S 2N1",1,High Wage,6321,Chefs,45.432413,-73.679065
Quebec,RESTAURANT JUNI INC,"Montréal, QC H2T 2N7",1,High Wage,6321,Chefs,45.524484,-73.591554
Quebec,Restaurant La Quintessence Inc.,"Mont-Tremblant, QC J8E 1E1",1,High Wage,6322,Cooks,46.209869,-74.589412
Quebec,Restaurant Man Na (9183-0695 QUÉBEC INC.),"Montreal, QC H3G 2E4",1,High Wage,6322,Cooks,45.496619,-73.576395
Quebec,Rheinmetall Canada Inc.,"St-Jean-sur-Richelieu, QC J3B 8E9",1,High Wage,2132,Mechanical engineers,45.283289,-73.274494
Quebec,Rodeo FX Inc.,"Montréal, QC H3C 6X4",6,High Wage,5241,Graphic designers and illustrators,45.497678,-73.555405
Quebec,Rotobec Inc.,"Sainte-Justine, QC G0R 1Y0",6,High Wage,7231,Machinists and machining and tooling inspectors,46.4105453491211,-70.3466491699219
Quebec,S. Huot Inc.,"Québec, QC G1N 4N3",1,High Wage,7231,Machinists and machining and tooling inspectors,46.804212,-71.249664
Quebec,Sahib Restaurant Inc.,"Pointe-Claire, QC H9R 1G4",2,High Wage,6321,Chefs,45.459049,-73.82407
Quebec,Savoir-faire Linux Inc.,"Montréal, QC H2R 2Y5",1,High Wage,2171,Information systems analysts and consultants,45.5334847,-73.6191595
Quebec,Scalian Inc,"Montreal, QC H3K 1G6",1,High Wage,2174,Computer programmers and interactive media developers,45.484047,-73.562138
Quebec,Service Trans-West inc.,"Lachine, QC H8T 2X9",6,High Wage,7511,Transport truck drivers,45.452889,-73.718656
Quebec,SGT 2000 Inc,"St Germain De Grantham, QC J0C 1K0",1,High Wage,7511,Transport truck drivers,45.850955,-72.577291
Quebec,Sherpa RTLS Solutions Inc.,"Montréal, QC H2S 1L6",1,High Wage,0212,Architecture and science managers,45.534598,-73.609349
Quebec,Silva Couvreurs inc.,"Montréal, QC H1H 2Z8",1,High Wage,7272,Cabinetmakers,45.592188,-73.624881
Quebec,SMARDT HOLDING INC.,"Dorval, QC H9P 1H7",1,High Wage,2132,Mechanical engineers,45.480346,-73.786776
Quebec,SNC-Lavalin Inc.,"Montreal, QC H2Z 1Z3",1,High Wage,2131,Civil engineers,45.504245,-73.565475
Quebec,Société Conseil Groupe LGS,"Québec, QC G1V 4K5",7,High Wage,2174,Computer programmers and interactive media developers,46.769541,-71.284097
Quebec,Société en Commandite Avions C Series,"Mirabel, QC J7N 3C6",1,High Wage,2146,Aerospace engineers,45.565891,-73.880256
Quebec,Société pour l'informatique industrielle SII Inc.,"Montréal, QC H3C 1K7",1,High Wage,2173,Software engineers and designers,45.515299,-73.549716
Quebec,Sokno Media Inc.,"Montréal, QC H3K 1G6",1,High Wage,2175,Web designers and developers,45.484047,-73.562138
Quebec,Sol de Chanvre inc,"Québec, QC G2C 1S9",1,High Wage,0124,"Advertising, marketing and public relations managers",46.822598,-71.309833
Quebec,Solution B.I. CANADA INC.,"Montréal, QC H3B 2E3",1,High Wage,2171,Information systems analysts and consultants,45.502497,-73.568814
Quebec,Solutions E'Mind Tek inc.,"Thetford Mines, QC G6G 6K8",1,High Wage,1241,Administrative assistants,46.091422,-71.335986
Quebec,Solutions Humanitas inc.,"Montréal, QC H2V 2A3",1,High Wage,2173,Software engineers and designers,45.516046,-73.59206
Quebec,Sonder Canada Inc.,"Montreal, QC H2W 1V1",1,High Wage,0121,"Insurance, real estate and financial brokerage managers",45.514928,-73.578538
Quebec,Sotragri Canada Inc.,"Montréal, QC H3B 1S6",1,High Wage,7301,"Contractors and supervisors, mechanic trades",45.50376,-73.566803
Quebec,Studio Tod Canada inc.,"Montréal, QC H2T 1A8",1,High Wage,5241,Graphic designers and illustrators,45.5273,-73.597432
Quebec,STUDIOS FÉLIX & PAUL INC.,"Montréal, QC H2Y 1Y3",1,High Wage,2174,Computer programmers and interactive media developers,45.500452,-73.557958
Quebec,Synergie Hunt International,"Montréal, QC H3A 1E7",3,High Wage,7511,Transport truck drivers,45.505014,-73.57343
Quebec,Système électronique Rayco Ltée,"Québec, QC G1P 3X1",1,High Wage,2241,Electrical and electronics engineering technologists and technicians,46.792735,-71.292358
Quebec,Systèmes Danfreight inc.,"Joliette, QC J6E 0L8",14,High Wage,7511,Transport truck drivers,46.0285851,-73.4499872
Quebec,Systèmes d'Emballage Sécuritaire Nelmar Inc.,"Terrebonne, QC J6Y 0A2",1,High Wage,9214,"Supervisors, plastic and rubber products manufacturing",45.696876,-73.73892
Quebec,TandemLaunch Inc,"Montréal, QC H4C 2K1",2,High Wage,2147,Computer engineers (except software engineers and designers),45.483324,-73.583975
Quebec,Technologies Dealflo Inc.,"Montréal, QC H2W 2R2",1,High Wage,2175,Web designers and developers,45.518103,-73.582162
Quebec,Technologies OVH inc,"Québec, QC G1K 3J2",2,High Wage,5241,Graphic designers and illustrators,46.814144,-71.222934
Quebec,TELEDYNE DALSA SEMICONDUCTEUR,"Bromont, QC J2L 1S7",1,High Wage,2233,Industrial engineering and manufacturing technologists and technicians,45.298921,-72.713414
Quebec,Tobo Inc.,"Montréal, QC H2T 3B3",1,High Wage,2174,Computer programmers and interactive media developers,45.527042,-73.595999
Quebec,Toubkal inc.,"Gatineau, QC J9J 1H8",1,High Wage,2171,Information systems analysts and consultants,45.4512499,-75.8481293
Quebec,Transat Tours Canada Inc.,"Montreal, QC H2X 4C2",1,High Wage,0016,Senior managers ,45.511448,-73.576694
Quebec,Transformateurs Delta Star Inc.,"St-Jean-sur-Richelieu, QC J2X 5V5",1,High Wage,2132,Mechanical engineers,45.304111,-73.215592
Quebec,Transport aériens & maritimes Arrival Inc.,"Mont-Royal, QC H4P 2A2",1,High Wage,1315,"Customs, ship and other brokers",45.502848,-73.663186
Quebec,Transport Jocelyn Bourdeau Inc.,"St-Chrysostome, QC J0S 1R0",2,High Wage,7511,Transport truck drivers,45.103144,-73.761241
Quebec,Transport L.F.L. Inc.,"Vallée-Jonction, QC G0S 3J0",8,High Wage,7511,Transport truck drivers,46.365874,-70.924965
Quebec,Transsat Express Inc.,"Dollard-des-Ormeaux, QC H9B 1K6",1,High Wage,7511,Transport truck drivers,45.491703,-73.80128
Quebec,Tricots Liesse (1983) Inc.,"Montréal, QC H3B 2A1",1,High Wage,0621,Retail and wholesale trade managers,,
Quebec,Ubisoft Divertissements Inc.,"Montréal, QC H2T 1S6",1,High Wage,2172,Database analysts and data administrators,45.525858,-73.598898
Quebec,Unito Inc.,"Montreal, QC H1Y 3J1",1,High Wage,0124,"Advertising, marketing and public relations managers",45.546444,-73.563432
Quebec,Université de Montréal,"Montréal, QC H3C 3J7",1,High Wage,3114,Veterinarians,45.491524,-73.568127
Quebec,Université de Sherbrooke,"Sherbrooke, QC J1H 5N4",1,High Wage,3111,Specialist physicians,45.447645,-71.863029
Quebec,Université du Québec à Chicoutimi,"Saguenay, QC G7H 2B1",1,High Wage,4011,University professors and lecturers,48.417601,-71.05555
Quebec,Université du Québec à Montréal,"Montréal, QC H3C 3P8",2,High Wage,4011,University professors and lecturers,45.491196,-73.561963
Quebec,Université McGill,"Montréal, QC H3A 0G4",1,High Wage,1241,Administrative assistants,45.50362,-73.575006
Quebec,Usitech 2000 Inc.,"Saint-Anselme, QC G0R 2N0",1,High Wage,7231,Machinists and machining and tooling inspectors,46.64819,-70.99023
Quebec,Verbom Inc.,"Valcourt, QC J0E 2L0",5,High Wage,7231,Machinists and machining and tooling inspectors,45.535331,-72.298759
Quebec,Veritas IRB inc.,"Montréal, QC H4S 1Z6",1,High Wage,2175,Web designers and developers,45.490893,-73.751632
Quebec,Viagénie Inc.,"Québec, QC G1R 2E1",1,High Wage,2174,Computer programmers and interactive media developers,46.801979,-71.227062
Quebec,Viconics technologies Inc.,"Montréal, QC H2R 2Z5",1,High Wage,2174,Computer programmers and interactive media developers,45.5322,-73.621464
Quebec,Voith HYDRO Inc.,"Brossard, QC J4Z 3V5",1,High Wage,2132,Mechanical engineers,45.452213,-73.424042
Quebec,Volt Canada Inc.,"Montreal, QC H3C 2V6",1,High Wage,0213,Computer and information systems managers,,
Quebec,Volta Création inc,"Québec, QC G1K 8G3",2,High Wage,5241,Graphic designers and illustrators,46.813822,-71.22369
Quebec,VON ARX OUTILLAGE ET MATRICE INC.,"Granby, QC J2J 0H6",3,High Wage,7231,Machinists and machining and tooling inspectors,45.38559,-72.7773519
Quebec,Voonyx Inc,"Lac-Beauport, QC G3B 1M7",4,High Wage,2174,Computer programmers and interactive media developers,46.983645,-71.2906409
Quebec,WB Games Montréal Inc.,"Montréal, QC H2L 4S8",1,High Wage,2174,Computer programmers and interactive media developers,45.491755,-73.583887
Quebec,165368 Canada Inc,"Sainte-Catherine, QC J5C 1G5",1,165368 Canada Inc,9213,"Supervisors, food, beverage and associated products processing",45.393115,-73.580178
Quebec,4175174 Canada Inc.,"Montréal, QC H3J 1S6",2,Low Wage,6531,Tour and travel guides,45.489387,-73.565839
Quebec,6173306 Canada Inc.,"Amos, QC J9T 1H3",4,Low Wage,6311,Food service supervisors,48.5716997,-78.1157926
Quebec,6750630 Canada Inc,"Montréal, QC H4B 1P3",1,Low Wage,6322,Cooks,45.462327,-73.631544
Quebec,9044-1866 Québec Inc.,"Les Coteaux, QC J7X 1A6",1,Low Wage,7445,Other repairers and servicers,45.268592,-74.218565
Quebec,9168-0819 QUÉBEC INC.,"Montreal, QC H3A 1M7",1,Low Wage,6322,Cooks,45.518201,-73.558476
Quebec,9180-6091 Québec Inc.,"Montreal, QC H4A 1Y2",1,Low Wage,6322,Cooks,45.467737,-73.62118
Quebec,9208-3336 Québec Inc.,"Montreal, QC H2V 4G7",1,Low Wage,6322,Cooks,45.520791,-73.59896
Quebec,9218-5699 Quebec inc.,"Matane, QC G4W 3M6",1,Low Wage,0631,Restaurant and food service managers,48.849387,-67.549881
Quebec,9227-5742 Québec Inc.,"St-Donat, QC J0T 2C0",1,Low Wage,6332,Bakers,46.371298,-74.241626
Quebec,9232-6727 QUEBEC INC,"Longueuil, QC J4L 4T4",1,Low Wage,5254,"Program leaders and instructors in recreation, sport and fitness",45.518057,-73.440414
Quebec,9326-1519 Québec inc.,"Notre-Dame-des-Prairies, QC J6E 1G1",1,Low Wage,2242,Electronic service technicians (household and business equipment),46.048251,-73.421927
Quebec,9328-7217 Québec inc.,"Lac-Saguay, QC J0W 1L0",1,Low Wage,0632,Accommodation service managers,46.488667,-75.105463
Quebec,9343-0528 Québec Inc,"Sainte-Anne-de-Bellevue, QC H9X 1M4",1,Low Wage,0631,Restaurant and food service managers,45.404007,-73.953164
Quebec,9442286 Canada Inc,"Montreal, QC H3B 3G1",1,Low Wage,6344,"Jewellers, jewellery and watch repairers and related occupations",45.504111,-73.568634
Quebec,Arclay Technologies Naturelles inc.,"Saint-Hubert, QC J3Y 5T6",1,Low Wage,1241,Administrative assistants,45.503033,-73.441885
Quebec,Arts Martiaux Évolution inc.,"Gatineau, QC J8T 3P8",1,Low Wage,5254,"Program leaders and instructors in recreation, sport and fitness",45.46683,-75.700411
Quebec,Aurpal inc.,"Marieville, QC J3M 1E8",3,Low Wage,9617,"Labourers in food, beverage and associated products processing",45.428728,-73.15503
Quebec,Boulangerie Kiri Inc.,"Sherbrooke, QC J1N 0A7",1,Low Wage,6332,Bakers,45.362425,-72.012454
Quebec,Boulangerie Normétal Inc.,"Normétal, QC J0Z 3A0",1,Low Wage,6332,Bakers,48.996949,-79.364793
Quebec,Boulangerie Patisserie Delices du Monde Inc.,"Québec, QC G1V 1T5",1,Low Wage,6332,Bakers,46.783796,-71.289209
Quebec,Eric Borderon Artisan Patissier-Boulanger Inc.,"Québec, QC G1P 4M2",1,Low Wage,6332,Bakers,46.8020035,-71.2969449
Quebec,Feutre National Inc.,"Saint-Narcisse, QC G0X 2Y0",2,Low Wage,9441,"Textile fibre and yarn, hide and pelt processing machine operators and workers",46.591111,-72.482367
Quebec,Folen Inc.,"Baie St-Paul, QC G3Z 1M3",1,Low Wage,6322,Cooks,47.442671,-70.506788
Quebec,Groupe Macadam inc.,"Québec, QC G1C 2H9",1,Low Wage,6733,"Janitors, caretakers and building superintendents",46.870884,-71.161848
Quebec,Innotex Inc,"Richmond, QC J0B 2H0",2,Low Wage,6342,"Tailors, dressmakers, furriers and milliners",45.663237,-72.139185
Quebec,Julien Beaudoin Ltée,"Daveluyville, QC G0Z 1C0",2,Low Wage,6345,Upholsterers,46.200803,-72.135107
Quebec,LE DANSEUR TRISTE DU NIRVANA INC./ Dark Dancer of Nirvana Inc.,"Montréal, QC H3A 1R7",1,Low Wage,6321,Chefs,45.50104,-73.576691
Quebec,Les Aliments Bari Inc.,"St-Léonard d'Aston, QC J0C 1M0",3,Low Wage,9617,"Labourers in food, beverage and associated products processing",46.099764,-72.332324
Quebec,Les Viandes Lacroix Inc.,"St-Hyacinthe, QC J2S 8E3",17,Low Wage,9617,"Labourers in food, beverage and associated products processing",45.626075,-72.992756
Quebec,Ma Poule Mouillée inc.,"Montréal, QC H2W 2G9",1,Low Wage,6322,Cooks,45.519615,-73.579467
Quebec,Microbrasserie le Naufrageur Inc.,"Carleton, QC G0C 1J0",1,Low Wage,6332,Bakers,48.106064,-66.123436
Quebec,Oly-Robi Transformation SEC,"Yamachiche, QC G0X 3L0",5,Low Wage,9617,"Labourers in food, beverage and associated products processing",46.27531,-72.839775
Quebec,Palettes CMP Inc,"Courcelles, QC G0M 1C0",2,Low Wage,9533,Other wood products assemblers and inspectors,45.870616,-70.977775
Quebec,Pâtisserie La Farandole,"Sainte-Adèle, QC J8B 2N4",1,Low Wage,6332,Bakers,45.950801,-74.133639
Quebec,Restaurant Tacos la Mexi-Cana Inc,"Rimouski, QC G5L 2H1",1,Low Wage,6322,Cooks,48.4437373,-68.5156549
Quebec,Royal Vezina Inc. (Rôtisserie St-Hubert),"Montreal, QC H1N 1C3",1,Low Wage,1311,Accounting technicians and bookkeepers,45.579994,-73.544734
Quebec,SWISSh Commercial Equipment Inc.,"Montreal, QC H1S 1A9",1,Low Wage,7332,Appliance servicers and repairers,45.589842,-73.581893
Quebec,Transport Bourassa Inc.,"St-Jean-sur-Richelieu, QC J3B 8G3",4,Low Wage,7452,Material handlers,45.3139079,-73.2848184
Quebec,Voyages Bernard Gendron Inc,"Valleyfield, QC J6S 1C2",1,Low Wage,6521,Travel counsellors,45.271968,-74.12336
Quebec,2433-7529 Québec Inc.,"Lanoraie, QC J0K 1E0",2,2433-7529 Québec Inc.,8431,General farm workers,45.956657,-73.221825
Quebec,2746-1912 QUÉBEC INC,"Bury, QC J0B 1J0",1,Primary Agriculture,8431,General farm workers,45.456448,-71.546495
Quebec,2756-2396 Québec Inc.,"St-Alexis, QC J0K 1T0",1,Primary Agriculture,8431,General farm workers,45.96805,-73.68699
Quebec,2959-4363 Québec Inc (Ferme Nado Henderson,"St-Louis de Gonzague, QC J0S 1T0",1,Primary Agriculture,8431,General farm workers,45.2125625610352,-74.0070037841797
Quebec,6265863 Canada inc.,"Sherbrooke, QC J1M 1Z3",15,Primary Agriculture,8432,Nursery and greenhouse workers,45.307256,-71.829763
Quebec,9008-1951 Québec Inc.,"La Présentation, QC J0H 1B0",29,Primary Agriculture,8431,General farm workers,45.687511,-73.099655
Quebec,9011-1246 Québec Inc.,"St-Alexis, QC J0K 1T0",1,Primary Agriculture,8431,General farm workers,45.96805,-73.68699
Quebec,9019-2345 Québec Inc.,"Mascouche, QC J7K 3T9",2,Primary Agriculture,8431,General farm workers,45.743056,-73.610993
Quebec,9022-2662 Québec Inc.,"Dunham, QC J0E 1M0",1,Primary Agriculture,8431,General farm workers,45.18365,-72.83659
Quebec,9029-0354 Québec Inc,"Saint-Jean-sur-Richelieu, QC J2X 5T9",1,Primary Agriculture,8431,General farm workers,45.327376,-73.235338
Quebec,9042-5893 Qc inc.,"Stoke, QC J0B 3G0",1,Primary Agriculture,8252,"Agricultural service contractors, farm supervisors and specialized livestock workers",45.570049,-71.767395
Quebec,9057-0565 Québec Inc. (Vergers Leahy),"Franklin, QC J0S 1E0",10,Primary Agriculture,8431,General farm workers,45.02937,-73.92373
Quebec,9058-3964 Quebec inc.,"Saint Jude, QC J0H 1P0",30,Primary Agriculture,8431,General farm workers,45.77193,-72.98863
Quebec,9077-5750 Québec inc,"Val-Joli, QC J1S 0C1",6,Primary Agriculture,8431,General farm workers,45.59941,-72.041408
Quebec,9092-1248 Québec Inc.,"St-Ambroise, QC G7P 2M1",5,Primary Agriculture,8431,General farm workers,48.5535556,-71.3200689
Quebec,9103-6038 Québec inc.,"St-Rémi, QC J0L 2L0",2,Primary Agriculture,8431,General farm workers,45.205117,-73.653262
Quebec,9128-1071 Quebec Inc,"St-Paul d'Abbotsford, QC J0E 1A0",1,Primary Agriculture,8431,General farm workers,45.435286,-72.883572
Quebec,9132-8542 Québec. inc.,"Blainville, QC J7C 0V2",2,Primary Agriculture,8432,Nursery and greenhouse workers,45.677992,-73.902659
Quebec,9165-4996 Québec Inc.,"Mirabel, QC J7N 2B4",2,Primary Agriculture,8431,General farm workers,45.626235,-74.054783
Quebec,9184-2963 Québec inc,"Lavaltrie, QC J5T 4B2",1,Primary Agriculture,8611,Harvesting labourers,45.904203,-73.318721
Quebec,9196-7273 Québec inc.,"Lyster, QC G0S 1V0",1,Primary Agriculture,8431,General farm workers,46.383591,-71.637416
Quebec,9199-1802 Québec inc.,"Saint-François-de-l'Ile-d'Orléans, QC G0A 3S0",4,Primary Agriculture,8431,General farm workers,47.001216,-70.813840
Quebec,9204-3389 Québec Inc. (Ferme Stepido),"Luskville, QC J0X 2G0",1,Primary Agriculture,8431,General farm workers,45.537542,-76.048533
Quebec,9272-2453 Québec inc.,"Mont-St-Grégoire, QC J0J 1K0",2,Primary Agriculture,8431,General farm workers,45.348071,-73.1917
Quebec,9274-7948 Qc Inc,"Sainte-Sophie, QC J5J 2V3",3,Primary Agriculture,8432,Nursery and greenhouse workers,45.816035,-73.907662
Quebec,9288-0004 Quebec inc.,"St-Louis-de-Gonzague, QC J0S 1T0",2,Primary Agriculture,8431,General farm workers,45.2125625610352,-74.0070037841797
Quebec,9329-5541 Québec inc,"Ste-Clotilde, QC J0L 1W0",1,Primary Agriculture,8431,General farm workers,45.1579093933105,-73.6762390136719
Quebec,9329-5558 Québec inc,"Ste-Clotilde, QC J0L 1W0",3,Primary Agriculture,8431,General farm workers,45.1579093933105,-73.6762390136719
Quebec,9332-9860 Québec inc.,"St-Chrysostome, QC J0S 1R0",1,Primary Agriculture,8431,General farm workers,45.103144,-73.761241
Quebec,Agro Énergie Inc.,"Saint-Roch-de-l'Achigan, QC J0K 3H0",3,Primary Agriculture,8431,General farm workers,45.848711,-73.623247
Quebec,Atocas Bédard Inc.,"St-Louis-de-Blandford, QC G0Z 1B0",7,Primary Agriculture,8431,General farm workers,46.220281,-72.047316
Quebec,Atocas Notre Dame Inc.,"Sainte-Sophie-d'Halifax, QC G0P 1L0",38,Primary Agriculture,8431,General farm workers,46.153275,-71.707873
Quebec,Atocas Villeroy inc.,"Plessisville, QC G6L 2Y2",1,Primary Agriculture,8431,General farm workers,46.2042323,-71.7511832
Quebec,Au Jardin Noir enr.,"Ange-Gardien, QC J0E 1E0",1,Primary Agriculture,8431,General farm workers,45.358702,-72.922095
Quebec,Aurel Harvey & Fils Inc.,"La Malbaie, QC G5A 1C5",1,Primary Agriculture,8431,General farm workers,47.678167,-70.175504
Quebec,Benjoporc inc.,"Ste-Geneviève-de-Batiscan, QC G0X 2R0",1,Primary Agriculture,8431,General farm workers,46.612569,-72.291314
Quebec,Bleuetière Point du Jour,"Lavaltrie, QC J5T 3P4",2,Primary Agriculture,8431,General farm workers,45.928921,-73.338073
Quebec,Bonduelle Canada Inc.,"St-Denis sur Richelieu, QC J0H 1K0",5,Primary Agriculture,8431,General farm workers,45.805835,-73.106924
Quebec,Canards Des Monts Inc,"Rougemont, QC J0L 1M0",2,Primary Agriculture,8431,General farm workers,45.43813,-73.092904
Quebec,Canneberges Bieler Inc.,"St-Louis-de-Blandford, QC G0Z 1B0",1,Primary Agriculture,8431,General farm workers,46.220281,-72.047316
Quebec,Canneberges Schneider inc,"Lavaltrie, QC J5T 3P2",4,Primary Agriculture,8431,General farm workers,45.916435,-73.353986
Quebec,Centre Maraîcher Eugène Guinois Jr. Inc.,"Ste-Clotilde, QC J0L 1W0",1,Primary Agriculture,8431,General farm workers,45.1579093933105,-73.6762390136719
Quebec,Clement Chartier Et Fils Inc,"St-Thomas, QC J0K 3L0",5,Primary Agriculture,8431,General farm workers,46.012426,-73.355485
Quebec,Cultures Quinto Inc.,"Saint-Ubalde, QC G0A 4L0",4,Primary Agriculture,8431,General farm workers,46.781573,-72.354831
Quebec,Delfland Inc,"Napierville, QC J0J 1L0",2,Primary Agriculture,8431,General farm workers,45.202786,-73.406868
Quebec,Domaine De Dunham Inc.,"Dunham, QC J0E 1M0",4,Primary Agriculture,8431,General farm workers,45.18365,-72.83659
Quebec,Domaine Les Brome,"Lac Brome, QC J0E 1S0",1,Primary Agriculture,8431,General farm workers,45.050584,-72.37232
Quebec,Durasphalte inc.,"Sherbrooke, QC J1N 3G7",46,Primary Agriculture,8432,Nursery and greenhouse workers,45.383942,-71.96614
Quebec,Dutch Greenhouse inc.,"St-Cyprien-de-Napierville, QC J0J 1L0",2,Primary Agriculture,8432,Nursery and greenhouse workers,45.202786,-73.406868
Quebec,Entreprise Agricole Petch Inc,"Hemmingford, QC J0L 1H0",5,Primary Agriculture,8431,General farm workers,45.05619,-73.58501
Quebec,Excel-Serres ltee,"St-Damase, QC J0H 1J0",1,Primary Agriculture,8432,Nursery and greenhouse workers,45.711236,-72.73277
Quebec,Ferme  Sylvain Beaudry Inc.,"Upton, QC J0H 2E0",2,Primary Agriculture,8431,General farm workers,45.64189,-72.671958
Quebec,Ferme Algério inc.,"St-Henri, QC G0R 3E0",1,Primary Agriculture,8431,General farm workers,46.825966,-71.153383
Quebec,Ferme Arwijk S.E.N.C,"Saint-Valentin, QC J0J 2E0",1,Primary Agriculture,8431,General farm workers,45.157804,-73.078395
Quebec,Ferme Aston Inc.,"St-Léonard-d'Aston, QC J0C 1M0",3,Primary Agriculture,8431,General farm workers,46.099764,-72.332324
Quebec,Ferme Au Pic Enr,"Dunham, QC J0E 1M0",18,Primary Agriculture,8431,General farm workers,45.18365,-72.83659
Quebec,Ferme Auger inc.,"Saint-Léon-le-Grand, QC J0K 2W0",2,Primary Agriculture,8431,General farm workers,46.324056,-72.912008
Quebec,Ferme Aux Saveurs des Monts Inc.,"Val-des-Monts, QC J8N 7V3",1,Primary Agriculture,8431,General farm workers,45.556224,-75.61382
Quebec,Ferme Avicole B. Morin & Fils Inc.,"St-Bernard-de-Michaudville, QC J0H 1C0",2,Primary Agriculture,8431,General farm workers,45.8125381469727,-73.0415573120117
Quebec,Ferme Bard Inc.,"Ste-Anne-de-La-Pocatière, QC G0R 1Z0",1,Primary Agriculture,8431,General farm workers,47.359335,-70.027466
Quebec,Ferme Bastien Inc.,"St-Lin-Laurentides, QC J5M 1Y6",2,Primary Agriculture,8431,General farm workers,45.847931,-73.695598
Quebec,Ferme Bibomeau Inc.,"Aston-Jonction, QC G0Z 1A0",2,Primary Agriculture,8431,General farm workers,46.1554695,-72.2012605
Quebec,Ferme Boeuf des Patriotes inc,"St-Jean-sur-Richelieu, QC J2Y 1H5",1,Primary Agriculture,8431,General farm workers,45.260584,-73.383869
Quebec,Ferme Bon-Conseil inc.,"Notre-Dame-du-Bon-Conseil, QC J0C 1A0",1,Primary Agriculture,8431,General farm workers,45.991414,-72.321616
Quebec,Ferme Bousquet et Blanchette Inc.,"La Présentation, QC J0H 1B0",4,Primary Agriculture,8431,General farm workers,45.687511,-73.099655
Quebec,Ferme Celijean s.e.n.c.,"Saint-Thuribe, QC G0A 4H0",1,Primary Agriculture,8431,General farm workers,46.705755,-72.160051
Quebec,Ferme Champs d'or,"Mirabel, QC J7N 2T9",1,Primary Agriculture,8431,General farm workers,45.608193,-74.067786
Quebec,Ferme Charel senc,"Champlain, QC G0X 1C0",2,Primary Agriculture,8431,General farm workers,46.46682,-72.380759
Quebec,Ferme Choisel Inc.,"St-Blaise-sur-le-Richelieu, QC J0J 1W0",1,Primary Agriculture,8431,General farm workers,45.195559,-73.263154
Quebec,Ferme CMJI Robert inc.,"Rougemont, QC J0L 1M0",10,Primary Agriculture,8431,General farm workers,45.43813,-73.092904
Quebec,Ferme Comestar Holstein Inc.,"Victoriaville, QC G6T 0S9",3,Primary Agriculture,8431,General farm workers,46.0830119,-71.992766
Quebec,Ferme Côte Rouge SENC,"Mirabel, QC J7N 2R3",2,Primary Agriculture,8431,General farm workers,45.534862,-74.09206
Quebec,Ferme Counard SENC,"Saint-Ephrem-de-Beauce, QC G0M 1R0",1,Primary Agriculture,8431,General farm workers,46.057641,-70.953781
Quebec,Ferme Couvrette & Fils Senc.,"Mirabel, QC J7N 2Y5",1,Primary Agriculture,8431,General farm workers,45.638614,-74.100341
Quebec,Ferme Daniel Blais inc.,"Saint-Jean-de-l'Ile-d'Orléans, QC G0A 3W0",1,Primary Agriculture,8431,General farm workers,46.922903,-70.893368
Quebec,Ferme Daniel Coutu Inc.,"St-Thomas, QC J0K 3L0",8,Primary Agriculture,8431,General farm workers,46.012426,-73.355485
Quebec,Ferme Dani-Jean Inc.,"Alma, QC G8E 1X5",3,Primary Agriculture,8431,General farm workers,48.633071,-71.702658
Quebec,Ferme Dency Senc.,"Saint-Antoine-de-l'Isle-aux-Grues, QC G0R 1P0",1,Primary Agriculture,8431,General farm workers,47.111139,-70.529778
Quebec,FERME DENIS & ANDRÉ MORIN INC.,"Saint-Gabriel-de-Brandon, QC J0K 2N0",1,Primary Agriculture,8431,General farm workers,46.228855,-73.406588
Quebec,Ferme Denis Perrier & Fils Inc.,"St-Michel, QC J0L 2J0",4,Primary Agriculture,8431,General farm workers,45.346674,-73.436841
Quebec,Ferme Dorésimo inc.,"Sainte-Cécile-de-Lévrard, QC G0X 2M0",2,Primary Agriculture,8431,General farm workers,46.466098,-72.179204
Quebec,Ferme Douporc inc.,"St-Alexis, QC J0K 1T0",1,Primary Agriculture,8431,General farm workers,45.96805,-73.68699
Quebec,Ferme du Domaine 2000 inc.,"Shawinigan, QC G9P 5G6",9,Primary Agriculture,8431,General farm workers,46.487467,-72.742849
Quebec,Ferme EDPA inc.,"St-Édouard, QC J0L 1Y0",2,Primary Agriculture,8431,General farm workers,45.23844,-73.5129
Quebec,Ferme Éric Sépul Inc.,"St-Sébastien, QC J0J 2C0",1,Primary Agriculture,8431,General farm workers,45.123524,-73.148494
Quebec,Ferme Estermann inc.,"Dundee, QC J0S 1L0",1,Primary Agriculture,8431,General farm workers,45.009811,-74.401249
Quebec,Ferme Familiporc inc,"Saint-Léon-le-Grand, QC J0K 2W0",1,Primary Agriculture,8431,General farm workers,46.324056,-72.912008
Quebec,Ferme Fiset Lyster Inc.,"Inverness, QC G0S 1K0",1,Primary Agriculture,8431,General farm workers,46.278765,-71.607726
Quebec,Ferme Floroma Inc,"Pont-Rouge, QC G3H 1S3",1,Primary Agriculture,8431,General farm workers,46.728994,-71.739682
Quebec,Ferme Franche SENC.,"Mirabel, QC J7N 3B5",1,Primary Agriculture,8431,General farm workers,45.5982902,-74.1916653
Quebec,Ferme FX Orléans inc.,"Saint-Jean de l'Ile d'Orléans, QC G0A 3W0",5,Primary Agriculture,8431,General farm workers,46.922903,-70.893368
Quebec,Ferme G. Charlebois et fils Inc.,"Ste-Justine-de-Newton, QC J0P 1T0",1,Primary Agriculture,8431,General farm workers,45.288029,-74.396902
Quebec,Ferme Gambler + Inc.,"Tingwick, QC J0A 1L0",2,Primary Agriculture,8431,General farm workers,45.882973,-71.945626
Quebec,Ferme Geneva Friola inc.,"Ste-Brigitte-des-Saults, QC J0C 1E0",1,Primary Agriculture,8431,General farm workers,45.995956,-72.457686
Quebec,Ferme Girelou Inc.,"St-Wenceslas, QC G0Z 1J0",3,Primary Agriculture,8431,General farm workers,46.167895,-72.328926
Quebec,Ferme Gremmy 2012 inc.,"St-Blaise-sur-Richelieu, QC J0L 1W0",1,Primary Agriculture,8431,General farm workers,45.1579093933105,-73.6762390136719
Quebec,Ferme Guy Lefrançois & fils Inc.,"St-Rémi, QC J0L 2L0",2,Primary Agriculture,8431,General farm workers,45.205117,-73.653262
Quebec,Ferme H. Daigneault & fils Inc.,"St. Michel, QC J0L 2J0",1,Primary Agriculture,8431,General farm workers,45.346674,-73.436841
Quebec,Ferme H.Y Mélançon senc,"Saint-Léon-le-Grand, QC J0K 2W0",1,Primary Agriculture,8431,General farm workers,46.324056,-72.912008
Quebec,Ferme Imperiale Senc.,"Noyan, QC J0J 1B0",1,Primary Agriculture,8431,General farm workers,45.097313,-73.249969
Quebec,Ferme Isabelle Inc.,"Coteau-du-Lac, QC J0P 1B0",1,Primary Agriculture,8431,General farm workers,45.31485,-74.19325
Quebec,Ferme J Ouimet inc.,"St-Roch de l'Achigan, QC J0K 3H0",8,Primary Agriculture,8611,Harvesting labourers,45.848711,-73.623247
Quebec,Ferme J. Veillette Inc.,"St-Maurice, QC G0X 2X0",1,Primary Agriculture,8431,General farm workers,46.445729,-72.506859
Quebec,Ferme J.M. Puppynck inc.,"Sainte-Hélène, QC J0H 1M0",1,Primary Agriculture,8431,General farm workers,45.780544,-72.751872
Quebec,Ferme Jarret et frères inc.,"Ange-Gardien, QC J0E 1E0",1,Primary Agriculture,8431,General farm workers,45.358702,-72.922095
Quebec,Ferme Jean Deschenes Inc.,"Québec, QC G2G 0G4",1,Primary Agriculture,8431,General farm workers,46.770783,-71.435442
Quebec,Ferme JNP Marcotte inc.,"St-Basile, QC G0A 3G0",1,Primary Agriculture,8431,General farm workers,46.820477,-71.78537
Quebec,Ferme Josef Husler Senc.,"Farnham, QC J2N 2R2",2,Primary Agriculture,8431,General farm workers,45.302983,-72.956547
Quebec,Ferme JP Côté et fils inc.,"Neuville, QC G0A 2R0",2,Primary Agriculture,8431,General farm workers,46.69649,-71.58933
Quebec,Ferme L.M. Drainville & Fils Inc.,"St-Thomas, QC J0K 3L0",1,Primary Agriculture,8431,General farm workers,46.012426,-73.355485
Quebec,Ferme La Tremblaie S.E.N.C,"Les Éboulements, QC G0A 2M0",1,Primary Agriculture,8431,General farm workers,47.465175,-70.337958
Quebec,Ferme Labbé et Fils Inc.,"Saint-Odilon-de-Cranbourne, QC G0S 3A0",1,Primary Agriculture,8431,General farm workers,46.13162,-70.926033
Quebec,Ferme Laitière Ambijoie inc.,"Mirabel, QC J7N 2R8",2,Primary Agriculture,8431,General farm workers,45.535555,-74.122762
Quebec,Ferme le Pré Gourmand,"Tingwick, QC J0A 1L0",2,Primary Agriculture,8431,General farm workers,45.882973,-71.945626
Quebec,Ferme Legaudière Inc.,"Coteau du Lac, QC J0P 1B0",1,Primary Agriculture,8431,General farm workers,45.31485,-74.19325
Quebec,Ferme Legermau 2000 inc.,"St-Anicet, QC J0S 1M0",1,Primary Agriculture,8431,General farm workers,45.0870018005371,-74.4231109619141
Quebec,Ferme Léo Jacobs et fils Inc.,"Cap-Santé, QC G0A 1L0",1,Primary Agriculture,8431,General farm workers,46.66989,-71.7747
Quebec,Ferme Leportage SENC,"Ste-Clotilde-de-Horton, QC J0A 1H0",2,Primary Agriculture,8431,General farm workers,45.896117,-72.056247
Quebec,Ferme Lilogru Inc.,"Isle-aux-Grues, QC G0R 1P0",3,Primary Agriculture,8431,General farm workers,47.111139,-70.529778
Quebec,Ferme Lise Charbonneau inc.,"St-Roch-de-l'Achigan, QC J0K 3H0",6,Primary Agriculture,8431,General farm workers,45.848711,-73.623247
Quebec,Ferme M.G Proulx Inc,"St-Placide, QC J0V 2B0",3,Primary Agriculture,8431,General farm workers,45.528053,-74.278758
Quebec,Ferme Mailloux et fils senc,"Granby, QC J2J 0K4",4,Primary Agriculture,8431,General farm workers,45.383616,-72.82709
Quebec,Ferme Mapi inc.,"Franklin, QC J0S 1E0",1,Primary Agriculture,8431,General farm workers,45.02937,-73.92373
Quebec,Ferme Marinier Inc.,"Oka, QC J0N 1E0",1,Primary Agriculture,8431,General farm workers,45.496258,-74.140595
Quebec,Ferme Mathieu Lavoie Inc,"St-Alexis-de-Montcalm, QC J0K 1T0",3,Primary Agriculture,8431,General farm workers,45.96805,-73.68699
Quebec,Ferme MC Mercier Inc.,"St-Roch-Ouest, QC J0K 3H0",5,Primary Agriculture,8431,General farm workers,45.848711,-73.623247
Quebec,Ferme Michel & Normand Piché Inc.,"Cap-Santé, QC G0A 1L0",2,Primary Agriculture,8431,General farm workers,46.66989,-71.7747
Quebec,Ferme Michel et Matthieu Cloutier inc.,"Coaticook, QC J1A 2S2",1,Primary Agriculture,8252,"Agricultural service contractors, farm supervisors and specialized livestock workers",45.15286,-71.80322
Quebec,Ferme Mijabo inc,"St-Léonard-d'Aston, QC J0C 1M0",1,Primary Agriculture,8431,General farm workers,46.099764,-72.332324
Quebec,Ferme Milvie senc,"St-Benoit l'Abre, QC G0M 1P0",1,Primary Agriculture,8431,General farm workers,45.843699,-70.570819
Quebec,Ferme Moffette inc.,"Dosquet, QC G0S 1H0",1,Primary Agriculture,8431,General farm workers,46.46617,-71.527885
Quebec,Ferme Morivan Inc.,"St-Bruno, QC G0W 2L0",1,Primary Agriculture,8431,General farm workers,48.485219,-71.649834
Quebec,Ferme Nandcel (2012) inc.,"Stoke, QC J0B 3G0",2,Primary Agriculture,8431,General farm workers,45.570049,-71.767395
Quebec,Ferme Pasquier enr.,"Lévis, QC G7A 4H2",1,Primary Agriculture,8431,General farm workers,46.7007546,-71.4101966
Quebec,Ferme Patro-De Inc.,"Saint-Flavien, QC G0S 2M0",2,Primary Agriculture,8431,General farm workers,46.486178,-72.03479
Quebec,Ferme Paul Massicotte & Fils Inc.(Massibec),"Champlain, QC G0X 1C0",3,Primary Agriculture,8431,General farm workers,46.46682,-72.380759
Quebec,Ferme Porcine Bellevue inc.,"Ayer's Cliff, QC J0B 1C0",1,Primary Agriculture,8431,General farm workers,45.167395,-72.039906
Quebec,Ferme Porcine JA-NI inc.,"St-David, QC J0G 1L0",1,Primary Agriculture,8431,General farm workers,45.961974,-72.806471
Quebec,FERME PUMARD INC,"St-Eugène-de-Grantham, QC J0C 1J0",1,Primary Agriculture,8431,General farm workers,45.811481,-72.762823
Quebec,Ferme R. Kundert inc.,"Bécancour, QC G9H 4E6",1,Primary Agriculture,8431,General farm workers,46.366594,-72.296879
Quebec,FERME R.D.S. INC.,"Saint-Flavien, QC G0S 2M0",3,Primary Agriculture,8431,General farm workers,46.486178,-72.03479
Quebec,Ferme Racette inc.,"St-Augustin-de-Desmaures, QC G3A 0K7",1,Primary Agriculture,8431,General farm workers,46.7320788,-71.4570788
Quebec,Ferme Régil Inc.,"Salaberry-de-Valleyfield, QC J6S 5P9",2,Primary Agriculture,8431,General farm workers,45.267409,-74.143086
Quebec,Ferme Réjean Beauparlant inc.,"Lanoraie, QC J0K 1E0",1,Primary Agriculture,8431,General farm workers,45.956657,-73.221825
Quebec,Ferme René Perreault Inc.,"Ste-Anne-de-la-Pérade, QC G0X 2J0",1,Primary Agriculture,8431,General farm workers,46.5834007263184,-72.1990966796875
Quebec,Ferme Retoma Inc.,"Saint-Blaise-sur-Richelieu, QC J0J 1W0",1,Primary Agriculture,8431,General farm workers,45.195559,-73.263154
Quebec,Ferme Robec inc.,"Mont St-Grégoire, QC J0J 1K0",2,Primary Agriculture,8431,General farm workers,45.348071,-73.1917
Quebec,Ferme Robert & Johanne Deneault inc.,"St-Valentin, QC J0J 2E0",1,Primary Agriculture,8431,General farm workers,45.157804,-73.078395
Quebec,Ferme Robert Grégoire SENC,"Saint-Valentin, QC J0J 2E0",2,Primary Agriculture,8431,General farm workers,45.157804,-73.078395
Quebec,Ferme Rochalain Inc.,"St-Albert, QC J0A 1E0",1,Primary Agriculture,8431,General farm workers,46.010673,-72.076606
Quebec,Ferme Rodveil Inc.,"St-Simon-les-Mines, QC G0M 1K0",1,Primary Agriculture,8431,General farm workers,46.187487,-70.706880
Quebec,Ferme Roytech inc,"St-Joseph, QC G0S 2V0",1,Primary Agriculture,8431,General farm workers,46.313856,-70.872211
Quebec,Ferme S.C.H. Inc.,"Saint-Charles-sur-Richelieu, QC J0H 2G0",1,Primary Agriculture,8431,General farm workers,45.632639,-73.131755
Quebec,Ferme Ste-Sophie Inc.,"Ste-Sophie-de-Levrard, QC G0X 3C0",2,Primary Agriculture,8431,General farm workers,46.444012,-72.136434
Quebec,Ferme Thibert & Fils Inc.,"St-Édouard, QC J0L 1Y0",1,Primary Agriculture,8431,General farm workers,45.23844,-73.5129
Quebec,FERME THOMAS-LOUIS DENIS ET SES FILS LTÉE,"St-Ubalde, QC G0A 4L0",1,Primary Agriculture,8431,General farm workers,46.781573,-72.354831
Quebec,Ferme U. Grégoire et Fils Inc.,"Saint-Blaise-sur-Richelieu, QC J0J 1W0",1,Primary Agriculture,8431,General farm workers,45.195559,-73.263154
Quebec,Ferme Valupierre Inc.,"St-Laurent I.O., QC G0A 3Z0",3,Primary Agriculture,8611,Harvesting labourers,46.860509,-71.014815
Quebec,Ferme Vianney et Marguerite Turcot Inc.,"St-André Avellin, QC J0V 1W0",1,Primary Agriculture,8431,General farm workers,45.671438,-75.020054
Quebec,Ferme Yvon Richard et Fils inc.,"Pont-Rouge, QC G3H 1C5",1,Primary Agriculture,8431,General farm workers,46.73572,-71.773177
Quebec,Fermes Boisvert (2007) inc. (Les),"L'Avenir, QC J0C 1B0",1,Primary Agriculture,8431,General farm workers,45.771864,-72.285053
Quebec,Fermes J.N. Beauchemin & Fils Inc.,"Saint-Ours, QC J0G 1P0",1,Primary Agriculture,8431,General farm workers,45.889498,-73.145833
Quebec,Fermes Trudeau Inc.,"St-Mathieu-de-Beloeil, QC J3G 0E3",8,Primary Agriculture,8431,General farm workers,45.5767022,-73.2460654
Quebec,Fruits et Légumes R.G. Inc.,"L'Islet, QC G0R 1X0",2,Primary Agriculture,8431,General farm workers,47.083705,-70.292884
Quebec,Gazonnière Bastien & Fils Inc.,"Terrebonne, QC J6X 0B2",4,Primary Agriculture,8431,General farm workers,45.7416214,-73.7206476
Quebec,Gestion G.R.Y.N. Gilbert Inc,"Ste-Clotilde, QC G0N 1C0",30,Primary Agriculture,8432,Nursery and greenhouse workers,46.218009,-71.07553
Quebec,Gidavin Inc,"Ste-Mélanie, QC J0K 3A0",2,Primary Agriculture,8432,Nursery and greenhouse workers,46.1376075744629,-73.5453567504883
Quebec,Groupe CidreCo inc.,"Hemmingford, QC J0L 1H0",6,Primary Agriculture,8611,Harvesting labourers,45.05619,-73.58501
Quebec,Inter Agro Inc.,"St-Isidore, QC G0S 2S0",1,Primary Agriculture,8431,General farm workers,46.294643,-70.873676
Quebec,Intermiel Inc.,"Mirabel, QC J7N 3M3",3,Primary Agriculture,8431,General farm workers,45.565314,-74.078302
Quebec,J.J. Croteau Inc.,"Saint-Fortunat, QC G0P 1G0",3,Primary Agriculture,8431,General farm workers,46.004598,-71.64606
Quebec,Jardin Zotic Inc,"St-Rémi, QC J0L 2L0",5,Primary Agriculture,8432,Nursery and greenhouse workers,45.205117,-73.653262
Quebec,Kildare I Inc.,"St-Ambroise-de-Kildare, QC J0K 1C0",1,Primary Agriculture,8431,General farm workers,46.08624,-73.613472
Quebec,La Ferme A & R Turcot Senc,"Saint-Roch-de l'Achigan, QC J0K 3H0",2,Primary Agriculture,8431,General farm workers,45.848711,-73.623247
Quebec,La Ferme Benoit Bilodeau Inc.,"St-Patrice, QC G0S 1B0",1,Primary Agriculture,8431,General farm workers,46.635905,-71.364567
Quebec,La Ferme du Platon Inc.,"Sainte-Croix, QC G0S 2H0",1,Primary Agriculture,8431,General farm workers,46.621806,-71.737168
Quebec,La Ferme Grover Inc.,"Laval, QC H7X 4G2",9,Primary Agriculture,8431,General farm workers,45.577702,-73.710989
Quebec,La Frissonnante inc.,"Danville, QC J0A 1A0",8,Primary Agriculture,8432,Nursery and greenhouse workers,45.78526,-72.01897
Quebec,La Plantation du Pinacle inc,"Coaticook, QC J1A 2S8",27,Primary Agriculture,8432,Nursery and greenhouse workers,45.131814,-71.792749
Quebec,La Suisse Normande inc,"St-Roch-Ouest, QC J0K 3H0",3,Primary Agriculture,8431,General farm workers,45.848711,-73.623247
Quebec,La Terre D'en Haut Inc.,"St-Alexis, QC J0K 1T0",1,Primary Agriculture,8431,General farm workers,45.96805,-73.68699
Quebec,Légumier Marcoux inc.,"Lévis, QC G7A 4H6",5,Primary Agriculture,8431,General farm workers,46.6897939,-71.4616183
Quebec,L'Équipoule Inc.,"Marieville, QC J3M 1J5",9,Primary Agriculture,8431,General farm workers,45.433967,-73.159539
Quebec,Les Chevreuils Du Lac Orr ULC,"Boileau, QC J0T 1G0",1,Primary Agriculture,0821,Managers in agriculture,45.979041,-74.629891
Quebec,Les élevages Baillargeon inc,"Ange-Gardien, QC J0E 1E0",1,Primary Agriculture,8431,General farm workers,45.358702,-72.922095
Quebec,Les Elevages Lessard inc.,"St-Fréderic, QC G0N 1P0",3,Primary Agriculture,8431,General farm workers,46.25956,-71.239746
Quebec,Les Élevages Viens inc.,"Ayer's Cliff, QC J0B 1C0",1,Primary Agriculture,8431,General farm workers,45.167395,-72.039906
Quebec,Les Entreprises Lirane inc.,"Inverness, QC G0S 1K0",1,Primary Agriculture,8431,General farm workers,46.278765,-71.607726
Quebec,Les Entreprises Robert Charette Inc,"St-Gabriel de Brandon, QC J0K 2N0",11,Primary Agriculture,8431,General farm workers,46.228855,-73.406588
Quebec,Les Fermes Du Soleil Inc.,"Sainte-Clotilde, QC J0L 1W0",8,Primary Agriculture,8431,General farm workers,45.1579093933105,-73.6762390136719
Quebec,Les Fermes Élio Notaro & fils inc.,"Sherrington, QC J0L 2N0",10,Primary Agriculture,8431,General farm workers,45.156582,-73.508952
Quebec,Les Fermes Froment & Fils inc.,"St-Paul-De-Joliette, QC J0K 3E0",3,Primary Agriculture,8431,General farm workers,45.978648,-73.393966
Quebec,Les Fermes G.N.C. inc.,"St-Lin-Laurentides, QC J5M 1Y6",10,Primary Agriculture,8431,General farm workers,45.847931,-73.695598
Quebec,Les Fermes Jacques Coulombe et Fils Ltée.,"St-Laurent I.O., QC G0A 3Z0",13,Primary Agriculture,8431,General farm workers,46.860509,-71.014815
Quebec,Les Fermes JF & C. Gagnon inc.,"St-Roch de l'Achigan, QC J0K 3H0",3,Primary Agriculture,8431,General farm workers,45.848711,-73.623247
Quebec,Les Fermes Michel Riendeau Ltée,"Saint-Rémi, QC J0L 2L0",4,Primary Agriculture,8431,General farm workers,45.205117,-73.653262
Quebec,Les Fermes Rivest Bourgeois Inc,"Rawdon, QC J0K 1S0",1,Primary Agriculture,8431,General farm workers,46.03366,-73.80563
Quebec,Les Fermes Tri-Jardins inc.,"St-Léonard d'Aston, QC J0C 1M0",3,Primary Agriculture,8431,General farm workers,46.099764,-72.332324
Quebec,Les Filles Auclair inc.,"Lavaltrie, QC J5T 3M9",2,Primary Agriculture,8431,General farm workers,45.919458,-73.3389915
Quebec,Les Fines herbes de Chez-Nous inc.,"St-Mathieu-de-Beloeil, QC J3G 0E3",10,Primary Agriculture,8431,General farm workers,45.5767022,-73.2460654
Quebec,Les Fraises De L'Ile D'orléans Inc.,"St-Laurent,Ile d'Orléans, QC G0A 3Z0",12,Primary Agriculture,8611,Harvesting labourers,46.860509,-71.014815
Quebec,Les Gourmets d'Amérique inc,"Rougemont, QC J0L 1M0",1,Primary Agriculture,8431,General farm workers,45.43813,-73.092904
Quebec,Les Jardiniers Idéal Ltée,"St-Michel, QC J0L 2J0",7,Primary Agriculture,8431,General farm workers,45.346674,-73.436841
Quebec,Les Jardins Cérès (9142-8854 Qc Inc.),"Yamachiche, QC G0X 3L0",1,Primary Agriculture,8431,General farm workers,46.27531,-72.839775
Quebec,Les Jardins Ducharme inc,"Ste-Mélanie, QC J0K 3A0",2,Primary Agriculture,8431,General farm workers,46.1376075744629,-73.5453567504883
Quebec,Les jardins G & R Ltée,"St-Lin-Laurentides, QC J5M 2N1",8,Primary Agriculture,8431,General farm workers,45.8153066,-73.7053171
Quebec,Les Jardins IEC Dubuc Inc.,"St-Édouard, QC J0L 1Y0",5,Primary Agriculture,8431,General farm workers,45.23844,-73.5129
Quebec,Les Jardins Lefort Inc.,"Ste-Clotilde, QC J0L 1W0",1,Primary Agriculture,8431,General farm workers,45.1579093933105,-73.6762390136719
Quebec,Les Jardins M.G. S.E.N.C.,"Ste-Madeleine, QC J0H 1S0",2,Primary Agriculture,8431,General farm workers,45.633803,-73.131577
Quebec,Les Jardins Vegibec inc.,"Oka, QC J0N 1E0",1,Primary Agriculture,8431,General farm workers,45.496258,-74.140595
Quebec,Les Maraichers MG inc.,"St-Lin-Laurentides, QC J5M 2A2",12,Primary Agriculture,8431,General farm workers,45.849306,-73.77401
Quebec,Les Patates Turcot Inc.,"Saint-Lin-Laurentides, QC J5M 2A1",2,Primary Agriculture,8431,General farm workers,45.84512,-73.692263
Quebec,Les Plantations Ideales Enr.,"Ham Nord, QC G0P 1A0",1,Primary Agriculture,8431,General farm workers,45.864106,-71.652267
Quebec,Les Plantations Robert Inc,"Lac-Drolet, QC G0Y 1C0",2,Primary Agriculture,8432,Nursery and greenhouse workers,45.724929,-70.86205
Quebec,Les Porcs Marineau Inc,"Lyster, QC G0S 1V0",1,Primary Agriculture,8431,General farm workers,46.383591,-71.637416
Quebec,Les Productions Horticoles Demers Inc.,"Lévis, QC G7A 0R7",3,Primary Agriculture,8431,General farm workers,46.6752107,-71.3806683
Quebec,Les Productions Margiric Inc.,"Laval, QC H7J 1A3",2,Primary Agriculture,8431,General farm workers,45.647544,-73.723904
Quebec,Les Produits Forino Inc.,"Ste-Clotilde, QC J0L 1W0",1,Primary Agriculture,8611,Harvesting labourers,45.1579093933105,-73.6762390136719
Quebec,Les Sapins Downey inc.,"Sherbrooke, QC J1M 1Z3",43,Primary Agriculture,8432,Nursery and greenhouse workers,45.307256,-71.829763
Quebec,Les Serres Belle Saison inc.,"Lévis, QC G7A 4W6",3,Primary Agriculture,8432,Nursery and greenhouse workers,46.7106348,-71.3628176
Quebec,Les Serres Biologico Inc.,"Ste-Sophie, QC J5J 2V3",4,Primary Agriculture,8432,Nursery and greenhouse workers,45.816035,-73.907662
Quebec,Les Serres Demers Inc.,"Lévis, QC G7A 0R7",17,Primary Agriculture,8432,Nursery and greenhouse workers,46.6752107,-71.3806683
Quebec,Les Serres Gaucher Inc.,"Saint-Damase, QC J0H 1J0",2,Primary Agriculture,8431,General farm workers,45.711236,-72.73277
Quebec,Les Serres Jacques Barbe inc.,"St-Eustache, QC J7R 4R7",8,Primary Agriculture,8432,Nursery and greenhouse workers,45.5574221,-73.9097504
Quebec,Les Serres Lefort inc.,"Ste-Clotilde, QC J0L 1W0",24,Primary Agriculture,8432,Nursery and greenhouse workers,45.1579093933105,-73.6762390136719
Quebec,Les Serres Maedler 89 Inc.,"Noyan, QC J0J 1B0",3,Primary Agriculture,8432,Nursery and greenhouse workers,45.097313,-73.249969
Quebec,Les Serres Sagami Charlevoix inc,"Ste-Sophie, QC J5J 2V3",3,Primary Agriculture,8432,Nursery and greenhouse workers,45.816035,-73.907662
Quebec,Les Serres Savoura Portneuf Inc.,"Portneuf, QC G0A 2Y0",11,Primary Agriculture,8432,Nursery and greenhouse workers,46.6936,-71.862257
Quebec,Les Serres Stéphane Bertrand inc.,"Mirabel, QC J7N 1P5",14,Primary Agriculture,8432,Nursery and greenhouse workers,45.745756,-74.018585
Quebec,Les Serres Sylvain Cléroux (Québec) inc.,"Laval, QC H7X 4A8",8,Primary Agriculture,8432,Nursery and greenhouse workers,45.53251,-73.839238
Quebec,Les Serres Thierry  Othon Inc.,"Mirabel, QC J7N 2Z9",3,Primary Agriculture,8432,Nursery and greenhouse workers,45.623844,-74.213066
Quebec,Les Terres Maraîchères Norvie Inc.,"Saint-Étienne-des-Grès, QC G0X 2P0",1,Primary Agriculture,8431,General farm workers,46.444001,-72.821311
Quebec,Les Vergers Denis Charbonneau inc.,"Mont Saint-Grégoire, QC J0J 1K0",2,Primary Agriculture,8431,General farm workers,45.348071,-73.1917
Quebec,Les Vergers Frier senc,"Hinchinbrooke, QC J0S 1A0",1,Primary Agriculture,8431,General farm workers,45.013097,-74.174444
Quebec,Les Vergers Jobin et Fils inc,"Frelighsburg, QC J0J 1C0",2,Primary Agriculture,8431,General farm workers,45.071888,-72.877933
Quebec,Les Vergers Missisquoi Inc,"Frelighsburg, QC J0J 1C0",2,Primary Agriculture,8431,General farm workers,45.071888,-72.877933
Quebec,Luma Génétique inc.,"St-Bernard, QC G0S 2G0",1,Primary Agriculture,8431,General farm workers,46.534055,-71.557415
Quebec,Maraîchers Du Ruisseau Inc.,"St-Lin-Laurentides, QC J5M 1Y5",3,Primary Agriculture,8431,General farm workers,45.8614072,-73.7472754
Quebec,Méloporc Inc.,"Saint-Paul, QC J0K 3E0",2,Primary Agriculture,8431,General farm workers,45.978648,-73.393966
Quebec,Michel et Victoire Palardy senc,"Sainte-Madeleine, QC J0H 1S0",1,Primary Agriculture,8431,General farm workers,45.633803,-73.131577
Quebec,Nature Canneberge inc.,"Sainte-Sophie-d'Halifax, QC G0P 1L0",5,Primary Agriculture,8431,General farm workers,46.153275,-71.707873
Quebec,Palmex Inc,"Marieville, QC J3M 1E8",3,Primary Agriculture,8431,General farm workers,45.428728,-73.15503
Quebec,Pépinière A. Massé inc.,"Saint-Césaire, QC J0L 1T0",14,Primary Agriculture,8431,General farm workers,45.414543,-73.02362
Quebec,Pepinière des Terrasses Inc.,"Laval, QC H7H 1S8",3,Primary Agriculture,8432,Nursery and greenhouse workers,45.629212,-73.772391
Quebec,Pépinière François Lemay Inc.,"Lanoraie, QC J0K 1E0",4,Primary Agriculture,8432,Nursery and greenhouse workers,45.956657,-73.221825
Quebec,Pépinière St Paul de Joliette inc.,"St-Paul-De-Joliette, QC J0K 3E0",3,Primary Agriculture,8432,Nursery and greenhouse workers,45.978648,-73.393966
Quebec,Plantations Nicholas inc.,"Ste-Clotilde, QC G0N 1C0",27,Primary Agriculture,8432,Nursery and greenhouse workers,46.218009,-71.07553
Quebec,Pomi Inc.,"Franklin, QC J0S 1E0",5,Primary Agriculture,8431,General farm workers,45.02937,-73.92373
Quebec,Porc S.B. inc.,"Saint-Elzéar, QC G0S 2J0",3,Primary Agriculture,8431,General farm workers,46.472999,-71.417828
Quebec,Potager Mont-Rouge senc.,"Rougemont, QC J0L 1M0",20,Primary Agriculture,8431,General farm workers,45.43813,-73.092904
Quebec,Production Lareault inc.,"Lavaltrie, QC J5T 4A9",18,Primary Agriculture,8611,Harvesting labourers,45.881086,-73.280891
Quebec,Progéniporc (2011) inc.,"Ste-Eulalie, QC G0Z 1E0",2,Primary Agriculture,8431,General farm workers,46.060542,-72.308591
Quebec,Qualité Delbi Inc.,"Côteau-du-Lac, QC J0P 1B0",5,Primary Agriculture,8431,General farm workers,45.31485,-74.19325
Quebec,Roland Janson Ltée.,"L'Assomption, QC J5W 1H3",1,Primary Agriculture,8431,General farm workers,45.8506517,-73.4076818
Quebec,Rose Drummond 2017 inc.,"Drummondville, QC J2B 8A9",1,Primary Agriculture,8431,General farm workers,45.853071,-72.527577
Quebec,Sapinière et Pépinière Downey inc.,"Cookshire-Eaton, QC J0B 1M0",2,Primary Agriculture,8432,Nursery and greenhouse workers,45.429257,-71.655029
Quebec,Serres et Jardins Girouard inc.,"Ste-Madeleine, QC J0H 1S0",1,Primary Agriculture,8432,Nursery and greenhouse workers,45.633803,-73.131577
Quebec,Simmental 700 inc.,"Lévis, QC G6V 6E1",1,Primary Agriculture,8431,General farm workers,46.785329,-71.162407
Quebec,Transvol Ltée,"St-Charles de Bellechasse, QC G0R 2T0",21,Primary Agriculture,8431,General farm workers,46.782091,-70.933043
Quebec,Val-Lait Senc.,"Stoke, QC J0B 3G0",2,Primary Agriculture,8431,General farm workers,45.570049,-71.767395
Quebec,Verger Caron Inc.,"Frelighsburg, QC J0J 1C0",83,Primary Agriculture,8431,General farm workers,45.071888,-72.877933
Quebec,Verger des Bois-Francs inc.,"Princeville, QC G6L 4K6",5,Primary Agriculture,8431,General farm workers,46.168705,-71.871248
Quebec,Verger Henryville senc.,"Henryville, QC J0J 1E0",1,Primary Agriculture,8431,General farm workers,45.100724,-73.25432
Quebec,Verger MAIA inc.,"St-Joseph du lac, QC J0N 1M0",1,Primary Agriculture,8431,General farm workers,45.518391,-73.982522
Quebec,Verger Pierre Tremblay et fils inc,"Mont St-Grégoire, QC J0J 1K0",3,Primary Agriculture,8431,General farm workers,45.348071,-73.1917
Quebec,Verger R et J Bouchard Inc.,"Saint-Paul-d'Abbotsford, QC J0E 1A0",7,Primary Agriculture,8431,General farm workers,45.435286,-72.883572
Quebec,Verger RC Guertin (2011) inc.,"Saint-Paul-d'Abbotsford, QC J0E 1A0",13,Primary Agriculture,8431,General farm workers,45.435286,-72.883572
Quebec,Vergers & Jardins Caouette SENC,"St-Eugène de l'Islet, QC G0R 1X0",4,Primary Agriculture,8431,General farm workers,47.083705,-70.292884
Quebec,Vergers DM Boileau Inc.,"Havelock, QC J0S 2C0",22,Primary Agriculture,8431,General farm workers,45.021595,-73.826589
Quebec,Vergers du Lac SENC,"St-Joseph-du-Lac, QC J0N 1M0",1,Primary Agriculture,8431,General farm workers,45.518391,-73.982522
Quebec,Vergers Paul Jodoin Inc.,"St-Jean-Baptiste, QC J0L 2B0",2,Primary Agriculture,8431,General farm workers,45.51939,-73.122029
Quebec,Vieux Saule Holstein Inc.,"St-Esprit, QC J0K 2L0",1,Primary Agriculture,8431,General farm workers,45.900074,-73.666056
Quebec,Vignoble de l'Orpailleur inc.,"Dunham, QC J0E 1M0",5,Primary Agriculture,8431,General farm workers,45.18365,-72.83659
Quebec,CGI Information Systems and Management Consultants Inc,"Montreal, QC H3G 1T4",1,CGI Information Systems and Management Consultants Inc,2171,Information systems analysts and consultants,45.506419,-73.563688
Quebec,Societe Des Missionaires D'Afrique,"Montreal, QC H2L 3Z3",1,Societe Des Missionaires D'Afrique,4154,Professional occupations in religion,45.517699,-73.563723
Ontario,0301 Inc.,"Milton, ON L9T 1N8",1,0301 Inc.,1311,Accounting technicians and bookkeepers,43.5129375,-79.8834075
Ontario,1002767 Ontario Inc.,"Toronto, ON M9W 5R8",13,High Wage,7282,Concrete finishers,43.678367,-79.584915
Ontario,10123269 Canada Inc.,"Toronto, ON M1S 4H1",1,High Wage,0015,Senior managers ,43.80774,-79.257086
Ontario,1295503 Ontario Inc.,"Mississauga, ON L5V 2H1",1,High Wage,1221,Administrative officers,43.593158,-79.700463
Ontario,1381603 Ontario Ltd.,"Brampton, ON L6T 1G8",1,High Wage,0911,Manufacturing managers,43.702991,-79.696212
Ontario,1458013 Ontario Inc.,"Kitchener, ON N2B 3C9",1,High Wage,2174,Computer programmers and interactive media developers,43.467282,-80.4546
Ontario,1557987 Ontario Ltd.,"Brampton, ON L6Y 5H7",1,High Wage,6322,Cooks,43.638792,-79.740548
Ontario,1562852 Ontario Ltd.,"Toronto, ON M8W 1Z6",1,High Wage,2211,Chemical technologists and technicians,43.6050475,-79.530514
Ontario,1564768 Ontario Inc.,"Brampton, ON L6T 1A7",3,High Wage,6322,Cooks,43.699443,-79.695807
Ontario,1600224 Ontario Inc.,"Brampton, ON L6Z 2V4",1,High Wage,1221,Administrative officers,43.71252,-79.785054
Ontario,1659656 Ontario inc,"Mississauga, ON L4X 1B1",1,High Wage,7281,Bricklayers,43.603607,-79.564228
Ontario,1685292 Ontario Ltd.,"Mississauga, ON L5T 1L6",1,High Wage,7205,"Contractors and supervisors, other construction trades, installers, repairers and servicers",43.6598405,-79.6491385
Ontario,1712797 Ontario Inc,"Brampton, ON L6W 4T9",1,High Wage,6311,Food service supervisors,43.677662,-79.7099
Ontario,1793753 Ontario Inc.,"Mississauga, ON L4K 2E2",1,High Wage,0711,Construction managers,43.795681,-79.478138
