Province,Employer,Address,Positions,Stream,NOC 2011,NOC Name,Latitude,Longitude
Newfoundland and Labrador,Central Regional Health Authority,"GRAND FALLS-WINDSOR, NL A2A 1Y4",1,Central Regional Health Authority,3111,Specialist physicians,48.9296771,-55.6621051
Newfoundland and Labrador,Eastern Regional Integrated Health Authority o/a Dr. G.B. Cross Memorial Hospital,"BURIN, NL A0E 1E0",1,High Wage,3111,Specialist physicians,47.037913,-55.162985
Newfoundland and Labrador,Empowered Homes Inc.,"St. John's, NL A1B 3X5",1,High Wage,6314,Customer and information services supervisors,47.570833,-52.738986
Newfoundland and Labrador,Western Regional Integrated Health Authority,"Corner Brook, NL A2H 6J7",1,High Wage,3111,Specialist physicians,48.965333,-58.030775
Newfoundland and Labrador,LouisGee's Pizza & Donair,"Corner Brook, NL A2H 2Z3",2,LouisGee's Pizza & Donair,6322,Cooks,48.950829,-57.940961
Newfoundland and Labrador,Norlab Limited,"Happy Valley-Goose Bay, NL A0P 1E0",1,Low Wage,6311,Food service supervisors,53.312758,-60.38015
Newfoundland and Labrador,J & C Sod Farm Ltd,"Bay Bull, NL A0A 1C0",3,J & C Sod Farm Ltd,8431,General farm workers,47.403988,-52.79987
Newfoundland and Labrador,Lester's Farm Market,"Mount Pearl, NL A1N 2C4",12,Primary Agriculture,8431,General farm workers,47.519204,-52.807406
Prince Edward Island,A & R Adventures Inc.,"Kensington, PE C0B 1M0",1,A & R Adventures Inc.,6332,Bakers,46.43789,-63.63458
Prince Edward Island,Atlantic Beef Products Inc.,"Albany, PE C0B 1A0",10,Low Wage,9462,"Industrial butchers and meat cutters, poultry preparers and related workers",46.318197,-63.558561
Prince Edward Island,Beach Point Processing Company,"Beach Point, PE C0A 1V0",99,Low Wage,9463,Fish and seafood plant workers,46.002798,-62.519557
Prince Edward Island,Belle River Enterprises Ltd.,"Belle River, PE C0A 1B0",10,Low Wage,9463,Fish and seafood plant workers,45.9791603088379,-62.8373565673828
Prince Edward Island,Captain Cooke's Seafood Inc.,"Borden-Carleton, PE C0B 1X0",16,Low Wage,9463,Fish and seafood plant workers,46.256255,-63.67178
Prince Edward Island,Claddagh Holdings Inc.,"Charlottetown, PE C1A 1G5",2,Low Wage,6322,Cooks,46.23326,-63.126346
Prince Edward Island,"North Lake Fisheries (2013), Inc.","Montague, PE C0A 1R0",46,Low Wage,9463,Fish and seafood plant workers,46.1637,-62.64674
Prince Edward Island,Royal Star Foods Ltd.,"Tignish, PE C0B 2B0",15,Low Wage,9463,Fish and seafood plant workers,46.9756355285645,-64.0738525390625
Prince Edward Island,Seafood 2000 Ltd.,"Georgetown, PE C0A 1L0",102,Low Wage,9463,Fish and seafood plant workers,46.185653,-62.522954
Prince Edward Island,South Shore Seafoods Ltd.,"Bloomfield, PE C0B 1E0",24,Low Wage,9463,Fish and seafood plant workers,46.696448,-64.383974
Prince Edward Island,"Xiyuan PEI International Co., Ltd.","Stratford, PE C1B 0B2",1,Low Wage,0125,Other business services managers,46.213201,-63.0895
Prince Edward Island,Birch Farms Limited,"SUMMERSIDE, PE C1N 4J9",6,Birch Farms Limited,8431,General farm workers,46.39208,-63.740224
Prince Edward Island,Birkentree Holsteins Inc.,"HUNTER RIVER, PE C0A 1N0",2,Primary Agriculture,8252,"Agricultural service contractors, farm supervisors and specialized livestock workers",46.401847,-63.338722
Prince Edward Island,Carruthers Farms Ltd.,"Kensington, PE C0B 1M0",3,Primary Agriculture,8431,General farm workers,46.43789,-63.63458
Prince Edward Island,Cassialane Holsteins Ltd.,"Freetown, PE C0B 1L0",2,Primary Agriculture,8431,General farm workers,46.396245,-63.562365
Prince Edward Island,Claude McCardle/The Berry Patch,"Tracadie Cross, PE C0A 1T0",6,Primary Agriculture,8431,General farm workers,46.3396301269531,-62.8716468811035
Prince Edward Island,MGS Holdings & Distribution Co. Ltd,"ALBERTON, PE C0B 1B0",48,Primary Agriculture,8431,General farm workers,46.837425,-64.113384
Prince Edward Island,Mol Farms Inc,"Kinkora, PE C0B 1N0",3,Primary Agriculture,8431,General farm workers,46.344061,-63.548072
Prince Edward Island,Productions Vegkiss PEI,"Vernon River, PE C0A 2E0",36,Primary Agriculture,8431,General farm workers,46.179,-62.884
Prince Edward Island,Victoria Potato Farm Inc,"Crapaud, PE C0A 1J0",5,Primary Agriculture,8431,General farm workers,46.24001,-63.50021
Nova Scotia,Clarke Road Transport Inc.,"Halifax, NS B3S 0B7",7,Clarke Road Transport Inc.,7511,Transport truck drivers,44.642751,-63.671854
Nova Scotia,Connors Transfer Limited,"Stellarton, NS B0K 1S0",10,High Wage,7511,Transport truck drivers,45.5583249,-62.6623249
Nova Scotia,Eassons Transport Ltd.,"Kentville, NS B4N 3V7",10,High Wage,7511,Transport truck drivers,45.067163,-64.547804
Nova Scotia,Indo Food Service Ltd,"HALIFAX, NS B3H 4H5",1,High Wage,0631,Restaurant and food service managers,44.6362608,-63.5784891
Nova Scotia,Irving Shipbuilding Inc.,"Halifax, NS B3K 5M7",2,High Wage,0711,Construction managers,44.66274,-63.590281
Nova Scotia,Maple Tree Montesori Limited,"Halifax, NS B3L 2W5",1,High Wage,4214,Early childhood educators and assistants,44.653888,-63.609083
Nova Scotia,Open Door Masonry Ltd.,"Waverly, NS B2R 1G4",2,High Wage,7281,Bricklayers,44.7815049,-63.5989622
Nova Scotia,Precision Concrete Services Ltd,"Bedford, NS B4B 1H1",3,High Wage,7282,Concrete finishers,44.722456,-63.710231
Nova Scotia,Provincial Woodworkers Limited,"Dartmouth, NS B3B 1X9",1,High Wage,7272,Cabinetmakers,44.706395,-63.596703
Nova Scotia,Queen Nails,"Sydney, NS B1P 6S9",2,High Wage,6562,"Estheticians, electrologists and related occupations",46.1478065,-60.1419858
Nova Scotia,Suerteksa Canada Inc.,"Halifax, NS B3J 3N2",6,High Wage,7235,Structural metal and platework fabricators and fitters,44.6520116,-63.5760615
Nova Scotia,Track Group Analytics Ltd.,"Bedford, NS B4A 3Y4",1,High Wage,0013,Senior managers ,44.733105,-63.655979
Nova Scotia,Ubisoft Divertissements Inc.,"HALIFAX, NS B3J 3R5",1,High Wage,5241,Graphic designers and illustrators,44.645046,-63.57027
Nova Scotia,3099794 NS Ltd (Enfield Big Stop),"Enfield, NS B2T 1C8",3,3099794 NS Ltd (Enfield Big Stop),6322,Cooks,44.939685,-63.534989
Nova Scotia,3261369 Nova Scotia Ltd.,"Bridgewater, NS B4V 2V6",1,Low Wage,6313,"Accommodation, travel, tourism and related services supervisors",44.384266,-64.515245
Nova Scotia,3261998 NS Ltd,"TRURO, NS B2N 1K8",1,Low Wage,6311,Food service supervisors,45.369567,-63.2991855
Nova Scotia,3274912 NS Limited,"Timberlea, NS B3T 1B4",1,Low Wage,4214,Early childhood educators and assistants,44.634393,-63.662959
Nova Scotia,3279061 Nova Scotia Limited,"Halifax, NS B3J 1E5",3,Low Wage,6322,Cooks,44.644805,-63.572305
Nova Scotia,Aquashell Holdings Inc.,"Wallace, NS B0K 1Y0",25,Low Wage,9463,Fish and seafood plant workers,45.79188,-63.520605
Nova Scotia,Crystal Day Nursery Limited,"Dartmouth, NS B3A 4R9",1,Low Wage,4214,Early childhood educators and assistants,44.688619,-63.58779
Nova Scotia,Holloway Lodging LP - multiple locations,"HALIFAX, NS B3S 0H9",2,Low Wage,6322,Cooks,44.650415,-63.667125
Nova Scotia,Laurel's Lake Residence Inc.,"Dartmouth, NS B2W 0G6",2,Low Wage,3413,"Nurse aides, orderlies and patient service associates",44.679615,-63.503722
Nova Scotia,Lismore Seafoods Inc.,"Merigomish, NS B0K 1G0",15,Low Wage,9618,Labourers in fish and seafood processing,45.714164,-62.213319
Nova Scotia,Nio Wholesale Ltd o/a Bento Sushi,"Bedford, NS B4A 0G6",1,Low Wage,6322,Cooks,44.718207,-63.6507639
Nova Scotia,North Nova Seafoods Ltd.,"Pictou, NS B0K 1H0",30,Low Wage,9463,Fish and seafood plant workers,45.6460571289063,-62.8005790710449
Nova Scotia,Pêcherie Cheticamp Fisheries Intl. (2016) Ltd.,"Cheticamp, NS B0E 1H0",44,Low Wage,9463,Fish and seafood plant workers,46.506849,-61.025641
Nova Scotia,Point Pleasant Child Care Centre,"Halifax, NS B3H 1B9",2,Low Wage,4214,Early childhood educators and assistants,44.6280662,-63.5719542
Nova Scotia,Randy's Pizza and Donair,"Halifax, NS B3K 4B6",2,Low Wage,6322,Cooks,44.651883,-63.588495
Nova Scotia,Riverside Lobster International Inc.,"Meteghan River, NS B0W 2L0",30,Low Wage,9463,Fish and seafood plant workers,44.221552,-66.119502
Nova Scotia,University Children's Centre Society,"HALIFAX, NS B3H 4R2",2,Low Wage,4214,Early childhood educators and assistants,44.6370504,-63.5964136
Nova Scotia,Ye & Zhou Food Company,"Halifax, NS B3L 4P1",2,Low Wage,6322,Cooks,44.64651,-63.617539
Nova Scotia,3226198 Nova Scotia Ltd,"Centreville, NS B0P 1J0",98,3226198 Nova Scotia Ltd,8431,General farm workers,45.195976,-64.680474
Nova Scotia,Allen Farms Limited,"Centreville, NS B0P 1J0",49,Primary Agriculture,8431,General farm workers,45.195976,-64.680474
Nova Scotia,Apple Lane Farm Inc,"MORRISTOWN, NS B0P 1E0",2,Primary Agriculture,8431,General farm workers,45.090922,-64.823309
Nova Scotia,Balamore Farm Ltd,"Great Village, NS B0M 1L0",167,Primary Agriculture,8431,General farm workers,45.369405,-63.662186
Nova Scotia,Basinview Farms Ltd,"CANNING, NS B0P 1H0",14,Primary Agriculture,8431,General farm workers,45.026806,-64.165254
Nova Scotia,Beech Hill Farm Ltd,"PRINCEPORT, NS B6L 1R2",3,Primary Agriculture,8252,"Agricultural service contractors, farm supervisors and specialized livestock workers",45.2952475,-63.4620024
Nova Scotia,Bekkers Farms Incorporated,"ANTIGONISH, NS B2G 2L2",2,Primary Agriculture,8252,"Agricultural service contractors, farm supervisors and specialized livestock workers",45.654903,-61.944846
Nova Scotia,Berfelo Hog Farms Ltd.,"Stewiacke, NS B0N 2J0",2,Primary Agriculture,8252,"Agricultural service contractors, farm supervisors and specialized livestock workers",45.1884755,-63.3253614
Nova Scotia,Birchleigh Farms Ltd,"ROCKLAND, NS B0P 1E0",12,Primary Agriculture,8431,General farm workers,45.090922,-64.823309
Nova Scotia,Canard Orchards Ltd,"Centreville, NS B0P 1J0",12,Primary Agriculture,8431,General farm workers,45.195976,-64.680474
Nova Scotia,CAP Farms Inc,"Grafton, NS B0P 1V0",4,Primary Agriculture,8431,General farm workers,45.1708349,-64.7669826
Nova Scotia,Charles Keddy Farms Limited,"Lakeville, NS B4N 3V7",22,Primary Agriculture,8431,General farm workers,45.067163,-64.547804
Nova Scotia,Craig Nichols Farms,"Aylesford, NS B0P 1C0",9,Primary Agriculture,8431,General farm workers,45.066995,-64.800737
Nova Scotia,Crisp Growers Inc.,"Berwick, NS B0P 1E0",6,Primary Agriculture,8431,General farm workers,45.090922,-64.823309
Nova Scotia,D & M Lightfoot Farms Ltd.,"WOLFVILLE, NS B4P 2S3",4,Primary Agriculture,8431,General farm workers,45.087665,-64.37296
Nova Scotia,Eisses Farms Ltd,"Centreville, NS B0P 1J0",9,Primary Agriculture,8431,General farm workers,45.195976,-64.680474
Nova Scotia,Fox Harb'r Development Limited,"Wallace, NS B0K 1Y0",8,Primary Agriculture,8431,General farm workers,45.79188,-63.520605
Nova Scotia,G.A.R. Tree Farms Ltd.,"Barss Corner, NS B0R 1A0",30,Primary Agriculture,8432,Nursery and greenhouse workers,44.6241188049316,-64.6746444702148
Nova Scotia,Golden Quail Eco Farm Inc.,"Bedford, NS B4A 1H1",1,Primary Agriculture,8252,"Agricultural service contractors, farm supervisors and specialized livestock workers",44.709382,-63.669363
Nova Scotia,High Point Orchards Ltd.,"Kentville, NS B4N 3V7",12,Primary Agriculture,8431,General farm workers,45.067163,-64.547804
Nova Scotia,J & B Millen Farms Limited,"Great Village, NS B0M 1L0",48,Primary Agriculture,8431,General farm workers,45.369405,-63.662186
Nova Scotia,Jost Vineyards Limited,"NORTH SHORE (MALAGASH), NS B0K 1E0",8,Primary Agriculture,8431,General farm workers,45.794472,-63.453043
Nova Scotia,Kimberlee Farms,"CENTERVILLE, NS B0P 1J0",7,Primary Agriculture,8431,General farm workers,45.195976,-64.680474
Nova Scotia,Luckett Farms Ltd,"WALLBROOK, NS B4P 2R3",4,Primary Agriculture,8431,General farm workers,45.068884,-64.348807
Nova Scotia,Lutz Family Farm Ltd,"Berwick, NS B0P 1E0",8,Primary Agriculture,8431,General farm workers,45.090922,-64.823309
Nova Scotia,McConnell-Gordon Estates Ltd.,"Gaspereau, NS B4P 2R1",4,Primary Agriculture,8431,General farm workers,45.013938,-64.403589
Nova Scotia,Melvin Farms Limited,"CANNING, NS B0P 1H0",33,Primary Agriculture,8431,General farm workers,45.026806,-64.165254
Nova Scotia,Millen Farms Limited,"Great Village, NS B0M 1L0",221,Primary Agriculture,8431,General farm workers,45.369405,-63.662186
Nova Scotia,Noggins Corner Farm II Ltd,"Greenwich, NS B4P 2R2",23,Primary Agriculture,8431,General farm workers,44.997527,-64.451876
Nova Scotia,Oxford Berry Farm,"Oxford, NS B0M 1P0",18,Primary Agriculture,8431,General farm workers,45.810473,-63.849946
Nova Scotia,Perfect Berries Limited,"Berwick, NS B0P 1E0",15,Primary Agriculture,8431,General farm workers,45.090922,-64.823309
Nova Scotia,Power Farms Inc,"CANNING, NS B0P 1H0",4,Primary Agriculture,8431,General farm workers,45.026806,-64.165254
Nova Scotia,Randsland Farms Inc,"CANNING, NS B0P 1H0",46,Primary Agriculture,8431,General farm workers,45.026806,-64.165254
Nova Scotia,Reimer Gardens Inc.,"Waterville, NS B0P 1V0",14,Primary Agriculture,8431,General farm workers,45.1708349,-64.7669826
Nova Scotia,Rene Penner/Janice Penner/RJ Farms,"WELSFORD, NS B0P 1E0",2,Primary Agriculture,8431,General farm workers,45.090922,-64.823309
Nova Scotia,River Breeze Farm Limited,"Upper Onslow, NS B6L 6Y3",10,Primary Agriculture,8431,General farm workers,45.3961213,-63.2848257
Nova Scotia,Sheffield Valley Farms,"Centreville, NS B0P 1J0",12,Primary Agriculture,8431,General farm workers,45.195976,-64.680474
Nova Scotia,Spurr Brothers Farms,"Melvern Square, NS B0P 1R0",11,Primary Agriculture,8431,General farm workers,45.074551,-64.720682
Nova Scotia,TE Boyle Farm & Forestry Ltd,"., NS B0H 1A0",4,Primary Agriculture,8431,General farm workers,45.60221,-61.744775
Nova Scotia,Van Meekeren Farms Limited,"Lakeville, NS B4N 3V7",8,Primary Agriculture,8431,General farm workers,45.067163,-64.547804
Nova Scotia,Vermeulen Farms Limited,"CANNING, NS B0P 1H0",24,Primary Agriculture,8431,General farm workers,45.026806,-64.165254
Nova Scotia,Webster Farms Ltd,"Cambridge, NS B0P 1G0",36,Primary Agriculture,8431,General farm workers,45.0180485,-64.6008165
Nova Scotia,Ubisoft Divertissements Inc.,"HALIFAX, NS B3J 3R5",1,Ubisoft Divertissements Inc.,2173,Software engineers and designers,44.645046,-63.57027
New Brunswick,697028 NB Inc. o/a Amal Transport Inc.,"Woodstock, NB E7M 2M1",2,697028 NB Inc. o/a Amal Transport Inc.,7511,Transport truck drivers,46.1528135,-67.5740235
New Brunswick,AYR Motor Express Inc.,"Woodstock, NB E7M 4G2",5,High Wage,7511,Transport truck drivers,46.123818,-67.616701
New Brunswick,Culberson Trucking Ltd.,"Jacksonville, NB E7M 3J8",2,High Wage,7511,Transport truck drivers,46.032829,-67.603206
New Brunswick,Elephant Transport Inc.,"SCOUDOUC, NB E4P 1A9",1,High Wage,7511,Transport truck drivers,46.117245,-64.499995
New Brunswick,Jeramand Enterprises Ltd.,"Irishtown, NB E1H 2L3",2,High Wage,7511,Transport truck drivers,46.241466,-64.801236
New Brunswick,Murray Enterprises Ltd.,"Sussex Corner, NB E4E 2Y5",2,High Wage,7511,Transport truck drivers,45.7100729,-65.4774611
New Brunswick,Regional Health Authority B,"SAINT JOHN, NB E2L 4L4",1,High Wage,3111,Specialist physicians,45.275358,-65.97392
New Brunswick,Sunbury Transport Limited,"Saint John, NB E2L 4H8",10,High Wage,7511,Transport truck drivers,45.286786,-66.046267
New Brunswick,611179 NB Inc.,"Moncton, NB E1G 2W5",1,611179 NB Inc.,6312,Executive housekeepers,46.133307,-64.88621
New Brunswick,671348 NB Inc.,"Moncton, NB E1C 1E3",1,Low Wage,6322,Cooks,46.089078,-64.775165
New Brunswick,690944 NB INC. o/a Tokai Ramen,"Moncton, NB E1C 1G1",1,Low Wage,6322,Cooks,46.088252,-64.778773
New Brunswick,Bolero Shellfish Processing Inc.,"Saint-Simon, NB E8P 2B2",18,Low Wage,9463,Fish and seafood plant workers,47.624341,-65.230642
New Brunswick,Cape Bald Packers Ltd,"Cap-Pelé, NB E4N 1E3",74,Low Wage,9463,Fish and seafood plant workers,46.2167287,-64.283788
New Brunswick,Captain Dan's Inc.,"Richibouctou-Village, NB E4W 1C9",64,Low Wage,9463,Fish and seafood plant workers,46.660031,-64.709287
New Brunswick,DY Trucking Inc.,"Fredericton, NB E3B 9S1",1,Low Wage,7511,Transport truck drivers,45.9079994,-66.5964713
New Brunswick,Edmond Gagnon Ltd,"Grand-Barachois, NB E4P 8A4",50,Low Wage,9463,Fish and seafood plant workers,46.222988,-64.422449
New Brunswick,Elphege & Norbert Leblanc Ltd.,"Petit Cap, NB E4N 2E8",15,Low Wage,9463,Fish and seafood plant workers,46.314749,-64.515918
New Brunswick,Enterprise L' Oriental Ltée o/a Restaurant l'Oriental,"Caraquet, NB E1W 1A3",1,Low Wage,6322,Cooks,47.770719,-64.999987
New Brunswick,Kwong's Take Out (2004) Ltd.,"Riverview, NB E1B 3J7",1,Low Wage,6322,Cooks,46.06138,-64.81533
New Brunswick,L'Association Coopérative des Pêcheurs de l'Île Ltée./Island Fishermen's Cooperative Association Ltd,"Pointe-Sapin, NB E9A 1V1",31,Low Wage,9463,Fish and seafood plant workers,47.0270462036133,-65.0327301025391
New Brunswick,Shediac Lobster Shop Ltd.,"Shediac, NB E4P 2A6",36,Low Wage,9463,Fish and seafood plant workers,46.21997,-64.53642
New Brunswick,Suncoast Seafood Inc.,"GRAND-DIGUE, NB E4R 4H7",55,Low Wage,9463,Fish and seafood plant workers,46.321068,-64.536383
New Brunswick,Thai Union Canada Inc,"Tracadie-Sheila, NB E1X 1G4",27,Low Wage,9463,Fish and seafood plant workers,47.536215,-64.907582
New Brunswick,Westmorland Fisheries Ltd.,"Cap-Pelé, NB E4N 1V3",140,Low Wage,9463,Fish and seafood plant workers,46.181127,-64.210248
New Brunswick,Yarn Trucking Inc.,"Fredericton, NB E3B 9N4",1,Low Wage,7511,Transport truck drivers,45.907019,-66.595239
New Brunswick,Zoa Mansu BBQ Inc.,"Dieppe, NB E1A 1G1",1,Low Wage,6322,Cooks,46.088634,-64.736314
New Brunswick,Cavendish Farms Corp,"Dieppe, NB E1A 6X4",6,Cavendish Farms Corp,8431,General farm workers,46.103269,-64.710436
New Brunswick,"Jolly Farmer Products, Inc","Northampton, NB E7N 1R6",6,Primary Agriculture,8432,Nursery and greenhouse workers,46.053925,-67.549314
New Brunswick,Les Petits Fruits de Pré-d'en-Haut Inc,"Memramcook, NB E4K 1K8",34,Primary Agriculture,8431,General farm workers,45.968083,-64.605089
New Brunswick,Verger Belliveau Orchard Ltd.,"Memramcook, NB E4K 2S6",7,Primary Agriculture,8431,General farm workers,45.949971,-64.628396
New Brunswick,Computer Generated Solutions Canada Limited,"SAINT JOHN, NB E2L 5E8",1,Computer Generated Solutions Canada Limited,2173,Software engineers and designers,45.265608,-66.05629
Quebec,/NSPRO Inc.,"Montréal, QC H2Y 2R6",1,/NSPRO Inc.,2171,Information systems analysts and consultants,45.502584,-73.557382
Quebec,2964-3277 Quebec Inc.,"Lasalle, QC H8R 3H9",1,High Wage,1241,Administrative assistants,45.433461,-73.646062
Quebec,3731537 Canada Inc.,"Montréal, QC H3H 2T1",1,High Wage,1123,"Professional occupations in advertising, marketing and public relations",45.491862,-73.58147
Quebec,4205766 Canada Inc.,"St-Laurent, QC H4S 1E9",1,High Wage,7321,"Automotive service technicians, truck and bus mechanics and mechanical repairers",45.4957095,-73.7473096
Quebec,8585547 Canada inc,"Pointe-Claire, QC H9R 5Z5",1,High Wage,0631,Restaurant and food service managers,45.478996,-73.789357
Quebec,9005-7043 Québec Inc (Foritex),"Québec, QC G1P 3T2",1,High Wage,1241,Administrative assistants,46.787182,-71.30549
Quebec,9052-9470 Québec Inc.,"St-Lazare, QC J7T 2B8",4,High Wage,7231,Machinists and machining and tooling inspectors,45.3760368,-74.127809
Quebec,9099-5507 Quebec Inc.,"Montréal, QC H3H 1E8",1,High Wage,6321,Chefs,45.494018,-73.583967
Quebec,9149-0847 QUÉBEC INC.,"Sherbrooke, QC J1R 0S7",1,High Wage,7237,Welders and related machine operators,45.388997,-72.003951
Quebec,9199-6884 Québec Inc.,"Montréal, QC H2R 2N4",1,High Wage,1311,Accounting technicians and bookkeepers,45.542479,-73.616699
Quebec,9218-9778 Québec Inc.,"Saint-Jean Port-Joli, QC G0R 3G0",1,High Wage,7272,Cabinetmakers,47.189526,-70.267506
Quebec,9219-1568 Québec Inc.,"Montreal, QC H4P 2H2",1,High Wage,2174,Computer programmers and interactive media developers,45.496458,-73.655477
Quebec,9229-0402 Québec Inc.,"St-Eustache, QC J7P 3E5",1,High Wage,2171,Information systems analysts and consultants,45.577236,-73.859648
Quebec,9248-9921 Québec inc.,"St-Léonard, QC H1S 2J3",4,High Wage,7272,Cabinetmakers,45.577071,-73.579746
Quebec,9252-0618 Québec Inc.,"Montréal, QC H4P 1P5",1,High Wage,1241,Administrative assistants,45.496813,-73.654607
Quebec,9285-1658 Quebec inc,"Blainville, QC J7C 4N1",1,High Wage,1241,Administrative assistants,45.675256,-73.859285
Quebec,9309-4142 Québec Inc.,"Montréal, QC H2X 2T6",1,High Wage,6322,Cooks,45.514036,-73.57248
Quebec,9339-1373 Québec Inc,"Montréal, QC H2A 2W8",1,High Wage,5241,Graphic designers and illustrators,45.564227,-73.604278
Quebec,9345-9329 Quebec Inc.,"Cote-Saint-Luc, QC H4W 1B7",1,High Wage,0016,Senior managers ,45.4767515,-73.6607145
Quebec,9351-5666 Québec Inc.,"Saint-Georges, QC G5Y 2C7",1,High Wage,6322,Cooks,46.066058,-70.622077
Quebec,9359-1246 QUÉBEC INC,"COWANSVILLE, QC J2K 3R5",1,High Wage,1222,Executive assistants,45.272533,-72.828802
Quebec,9735771 Canada inc.,"MONTREAL, QC H3A 1T5",1,High Wage,3111,Specialist physicians,45.500487,-73.573562
Quebec,9796851 Canada Inc.,"Montreal, QC H3A 2R7",1,High Wage,6321,Chefs,45.501996,-73.576373
Quebec,ABF Systèmes Inc,"Boucherville, QC J4B 7M7",1,High Wage,2241,Electrical and electronics engineering technologists and technicians,45.567348,-73.442739
Quebec,Acass Canada Ltd,"Montréal, QC H4T 2B5",1,High Wage,6221,Technical sales specialists ,45.486765,-73.689892
Quebec,Advantech sans fil Inc./Advantech Wireless Inc.,"Dorval, QC H9P 1G1",1,High Wage,6221,Technical sales specialists ,45.455565,-73.732098
Quebec,AgileDSS Inc.,"Montréal, QC H2Y 2G3",1,High Wage,2171,Information systems analysts and consultants,45.500405,-73.557362
Quebec,AIMABLE & CAISSY INC.,"Terrebonne, QC J6V 1H4",1,High Wage,1241,Administrative assistants,45.715651,-73.512181
Quebec,Alessa MTL Rive Sud Inc.,"Montréal, QC H3A 2A5",1,High Wage,0124,"Advertising, marketing and public relations managers",45.504141,-73.57196
Quebec,Aliments Shanti Inc.,"Montréal, QC H4N 1G5",1,High Wage,6311,Food service supervisors,45.558484,-73.646126
Quebec,AMEC USINAGE Inc.,"St-Augustin-de-Desmaures, QC G3K 2K1",4,High Wage,7231,Machinists and machining and tooling inspectors,46.841015,-71.407042
Quebec,Analyses et Conseils Techniques pour l'industrie,"Montréal, QC H4C 1L8",1,High Wage,2232,Mechanical engineering technologists and technicians,45.472652,-73.590139
Quebec,ARCTICNET INC.,"QUÉBEC, QC G1V 0A6",1,High Wage,2132,Mechanical engineers,46.7841863,-71.2852596
Quebec,ARTITALIA GROUP INC,"Montreal, QC H1E 7J8",1,High Wage,6221,Technical sales specialists ,45.642063,-73.571228
Quebec,Atelier d'usinage Gagne inc,"MONTREAL, QC H3K 1T1",1,High Wage,7231,Machinists and machining and tooling inspectors,45.473638,-73.564464
Quebec,Aurel Harvey & Fils Inc.,"La Malbaie, QC G5A 1C5",2,High Wage,7321,"Automotive service technicians, truck and bus mechanics and mechanical repairers",47.678167,-70.175504
Quebec,Bar Buonanotte,"Montréal, QC H2S 3C9",1,High Wage,6321,Chefs,45.53293,-73.614428
Quebec,Behaviour Interactive Inc.,"MONTREAL, QC H2S 3H1",1,High Wage,5241,Graphic designers and illustrators,45.530814,-73.613315
Quebec,BellatRx Inc.,"Saint-Anne-de-Bellevue, QC H9X 4B2",1,High Wage,2232,Mechanical engineering technologists and technicians,45.4265767,-73.9250977
Quebec,Beyond Technologies Consulting Inc./Solutions Beyond Technologies Inc.,"MONTRÉAL, QC H3C 2M1",1,High Wage,2171,Information systems analysts and consultants,45.495114,-73.553389
Quebec,BNP Paribas,"Montréal, QC H3A 2W8",1,High Wage,2172,Database analysts and data administrators,45.502029,-73.570987
Quebec,BNP Paribas Solutions TI Canada Inc.,"Montréal, QC H3A 2W8",1,High Wage,2171,Information systems analysts and consultants,45.502029,-73.570987
Quebec,Bojeux Inc.,"Montréal, QC H1J 1C3",1,High Wage,5241,Graphic designers and illustrators,45.61353,-73.571402
Quebec,Bombardier Inc.,"MONTRÉAL, QC H3B 1Y8",3,High Wage,2146,Aerospace engineers,45.514464,-73.556599
Quebec,Bouclair Inc,"Pointe-Claire, QC H9R 6B4",1,High Wage,0213,Computer and information systems managers,45.458361,-73.830327
Quebec,BRP inc.,"VALCOURT, QC J0E 2L0",1,High Wage,0016,Senior managers ,45.535331,-72.298759
Quebec,Busbud Inc.,"Montréal, QC H2T 1X6",1,High Wage,2175,Web designers and developers,45.52637,-73.596238
Quebec,C.H. Express inc,"St-Jean-sur-Richelieu, QC J2X 5A9",1,High Wage,7511,Transport truck drivers,45.308613,-73.219822
Quebec,Carrosserie Idéale Internationale St-Leonard inc.,"Montreal, QC H1P 2B7",1,High Wage,7322,Motor vehicle body repairers,45.595182,-73.581985
Quebec,CDA-TEQ Québec Inc.,"Montréal, QC H3K 2E4",1,High Wage,6411,Sales and account representatives ,45.485437,-73.55873
Quebec,Centre de Collision Centre-Ville Inc.,"Montreal, QC H3K 2A4",1,High Wage,7321,"Automotive service technicians, truck and bus mechanics and mechanical repairers",45.480893,-73.553021
Quebec,Centre de collision Dollard-Des-Ormeaux Inc,"Dollard-des-Ormeaux, QC H9B 1Z9",2,High Wage,7322,Motor vehicle body repairers,45.488806,-73.801589
Quebec,Centre du Camion Amos inc,"Amos, QC J9T 3A2",1,High Wage,7321,"Automotive service technicians, truck and bus mechanics and mechanical repairers",48.560137,-78.118985
Quebec,Centre hospitalier de l'Université de Montréal,"MONTRÉAL, QC H2X 0A9",3,High Wage,3012,Registered nurses and registered psychiatric nurses,45.511383,-73.5555509
Quebec,CFR Dorchester Inc,"SAINTE-CLAIRE, QC G0R 2V0",1,High Wage,7333,Electrical mechanics,46.594235,-70.860566
Quebec,Châssis d'auto Idéal (Montréal) inc.,"Montréal, QC H2J 1A6",1,High Wage,7322,Motor vehicle body repairers,45.5317503,-73.5917029
Quebec,Cinesite Inc.,"MONTRÉAL, QC H2Y 0A3",1,High Wage,2175,Web designers and developers,45.5052277,-73.5557318
Quebec,CISSS de l'Abitibi-Témiscamingue,"ROUYN-NORANDA, QC J9X 2B2",1,High Wage,3112,General practitioners and family physicians,48.2429663,-79.0207956
Quebec,CISSS du Bas St-Laurent,"Rimouski, QC G5L 3N2",2,High Wage,3111,Specialist physicians,48.463758,-68.5189555
Quebec,CIUSSS de la Capitale-Nationale,"Baie Saint-Paul, QC G3Z 2J6",1,High Wage,3012,Registered nurses and registered psychiatric nurses,47.436249,-70.5080071
Quebec,CIUSSS de l'Est-de l'Ile-de Montréal,"Montréal, QC H1T 2M4",1,High Wage,3012,Registered nurses and registered psychiatric nurses,45.573296,-73.55876
Quebec,CIUSSS du Saguenay-Lac-Saint-Jean,"Chicoutimi, QC G7H 7K9",1,High Wage,3111,Specialist physicians,48.423979,-71.041919
Quebec,Club de Hockey Shawinigan,"Shawinigan, QC G9N 0B7",1,High Wage,1241,Administrative assistants,46.5738415,-72.7244116
Quebec,Club De Natation Neptune Inc.,"St-Jérôme, QC J7Z 5T7",1,High Wage,5252,Coaches,45.774963,-74.011171
Quebec,Cofomo Développement Inc.,"MONTRÉAL, QC H3B 4W5",11,High Wage,2174,Computer programmers and interactive media developers,45.515392,-73.553859
Quebec,Collabora Canada Inc,"Montreal, QC H2Y 2K7",1,High Wage,2173,Software engineers and designers,45.501413,-73.558536
Quebec,Collège des médecins du Québec,"Montréal, QC H3B 0G2",2,High Wage,3111,Specialist physicians,45.513113,-73.556115
Quebec,Commission scolaire de Laval,"Laval, QC H7S 1M5",1,High Wage,3237,Other technical occupations in therapy and assessment,45.582947,-73.703524
Quebec,Commission Scolaire Des Bois-Francs,"Victoriaville, QC G6P 9R1",1,High Wage,4212,Social and community service workers,46.043059,-72.00783
Quebec,Communication Visuelle,"Laval, QC H7K 3N1",1,High Wage,5232,"Other performers, n.e.c.",45.624086,-73.72392
Quebec,Complexe Hôtelier La Cache du Domaine Inc.,"Thetford Mines, QC G6G 0G1",1,High Wage,6321,Chefs,46.17731,-71.448422
Quebec,Comptoir Agricole Ste-Anne inc.,"Repentigny, QC J5Z 4X5",2,High Wage,7237,Welders and related machine operators,45.754562,-73.480006
Quebec,Compulsion Games inc.,"Montreal, QC H4C 2Z6",1,High Wage,5241,Graphic designers and illustrators,45.47629,-73.591751
Quebec,Concept aspire inc.,"Montréal, QC H1N 1B3",1,High Wage,0124,"Advertising, marketing and public relations managers",45.57536,-73.547683
Quebec,Conseiller en Gestion et Informatique CGI Inc,"Montreal, QC H3G 1T4",1,High Wage,2173,Software engineers and designers,45.506419,-73.563688
Quebec,Côté Fleury Inc.,"Québec, QC G1N 2C8",1,High Wage,7384,"Other trades and related occupations, n.e.c.",46.815488,-71.218357
Quebec,Côté Inox inc.,"St-Lazare-de-Bellechasse, QC G0R 3J0",1,High Wage,7231,Machinists and machining and tooling inspectors,46.524049,-70.721344
Quebec,Creaform Inc,"Lévis, QC G6W 0L9",1,High Wage,2174,Computer programmers and interactive media developers,46.7530428,-71.2196569
Quebec,Crème glacée et café Marach Inc,"Montréal, QC H8N 1B1",1,High Wage,2233,Industrial engineering and manufacturing technologists and technicians,45.4367152,-73.6141375
Quebec,Dalkotech Inc.,"Sherbrooke, QC J1N 0G2",10,High Wage,7237,Welders and related machine operators,45.38481,-71.964371
Quebec,Delom Services Inc.,"Montréal, QC H1A 3N6",1,High Wage,7333,Electrical mechanics,45.657828,-73.515507
Quebec,DELOUPE INC.,"Saint-Évariste, QC G0M 1S0",6,High Wage,7237,Welders and related machine operators,45.743566,-70.698132
Quebec,Distribution G.V.A inc.,"Laval, QC H7M 2Y5",1,High Wage,0113,Purchasing managers,45.606412,-73.732098
Quebec,Divertissements Gameloft Inc.,"Montréal, QC H2R 2Z5",1,High Wage,5225,Audio and video recording technicians,45.5322,-73.621464
Quebec,Doucet Machineries Inc.,"DAVELUYVILLE, QC G0Z 1C0",2,High Wage,7231,Machinists and machining and tooling inspectors,46.200803,-72.135107
Quebec,Dulcedo Inc.,"Montréal, QC H2Y 2G1",1,High Wage,5232,"Other performers, n.e.c.",45.500573,-73.558327
Quebec,E.M.S. SEIMEC INC.,"MONTREAL, QC H1P 1Y1",3,High Wage,7333,Electrical mechanics,45.607862,-73.596775
Quebec,École de danse contemporaine de Montréal,"MONTREAL, QC H3A 2H7",1,High Wage,5134,Dancers,45.506653,-73.567252
Quebec,Ecole de Technologie Superieure,"Montreal, QC H3C 1K3",1,High Wage,4011,University professors and lecturers,45.514678,-73.550098
Quebec,EFFENTI INC.,"Québec, QC G1W 2K7",3,High Wage,2174,Computer programmers and interactive media developers,46.767534,-71.309732
Quebec,Entreprises Intmotion Inc.,"Saint-Laurent, QC H4N 3A8",1,High Wage,2281,Computer network technicians,45.525528,-73.653248
Quebec,Équipements Lafontaine Inc.,"Lévis, QC G6V 7M5",1,High Wage,7321,"Automotive service technicians, truck and bus mechanics and mechanical repairers",46.758964,-71.169389
Quebec,Expertus Technologies Inc,"Montréal, QC H3A 1V4",1,High Wage,2174,Computer programmers and interactive media developers,45.501854,-73.576509
Quebec,EY LLP,"Montréal, QC H3B 1X9",1,High Wage,1111,Financial auditors and accountants,45.514464,-73.556599
Quebec,Fabrication SBL Inc.,"SAINT-BENOIT-LABRE, QC G0M 1P0",2,High Wage,7237,Welders and related machine operators,45.843699,-70.570819
Quebec,Fibrotek Matériaux avancés Inc.,"Clermont, QC G4A 1B7",3,High Wage,7231,Machinists and machining and tooling inspectors,47.6918,-70.2088
Quebec,Ficodis Inc.,"Montréal, QC H2Y 2R6",1,High Wage,1225,Purchasing agents and officers,45.502584,-73.557382
Quebec,Forum Jeunesse,"Baie Saint-Paul, QC G3Z 1Y3",1,High Wage,4212,Social and community service workers,47.4361724,-70.5083564
Quebec,Fresche Solutions Inc.,"Montreal, QC H3C 1V3",1,High Wage,2171,Information systems analysts and consultants,45.494091,-73.556848
Quebec,Genetec Inc.,"MONTRÉAL, QC H3A 2S9",1,High Wage,0125,Other business services managers,45.504934,-73.571413
Quebec,Geometry GlobalLTD/Geometrie Globale Ltée,"MOntréal, QC H2Y 1M6",1,High Wage,0124,"Advertising, marketing and public relations managers",45.503238,-73.558922
Quebec,GESTION D'ÉVÈNEMENTS GESTEV INC. (EVENT MANAGEMENT GESTEV INC.),"Montreal, QC H3C 4M8",1,High Wage,5131,"Producers, directors, choreographers and related occupations",45.500989,-73.560447
Quebec,Gestion Genevieve Kelly Inc,"Montréal, QC H2Y 1Y1",1,High Wage,5241,Graphic designers and illustrators,45.502053,-73.557429
Quebec,Gestion TVM Science de la vie,"Montréal, QC H3Z 3C1",1,High Wage,1222,Executive assistants,45.489087,-73.586825
Quebec,Greek Mountain Cheese ltd,"St-Jacques de Montcalm, QC J0K 2R0",1,High Wage,9461,"Process control and machine operators, food, beverage and associated products processing",45.967496,-73.566293
Quebec,Groupe Atallah inc./SSENSE,"Montréal, QC H2N 2E7",11,High Wage,5232,"Other performers, n.e.c.",45.539455,-73.654033
Quebec,Groupe Nexio Inc.,"Montréal, QC H3A 2J5",3,High Wage,2174,Computer programmers and interactive media developers,45.507564,-73.56949
Quebec,Groupe SECTOR Canada inc.,"Montréal, QC H3G 1W3",1,High Wage,0124,"Advertising, marketing and public relations managers",45.499243,-73.575485
Quebec,Groupe Shark Media Inc,"Sherbrooke, QC J1K 2X6",1,High Wage,2175,Web designers and developers,45.386707,-71.923793
Quebec,Hachette Canada,"Outremont, QC H2V 3B2",1,High Wage,1241,Administrative assistants,45.517531,-73.617042
Quebec,Howard Szalavetz Properties Inc.,"Montréal, QC H2N 2J4",1,High Wage,1311,Accounting technicians and bookkeepers,45.537247,-73.655478
Quebec,Industries Carpo Inc.,"St-Alphonse de Granby, QC J0E 2A0",3,High Wage,7231,Machinists and machining and tooling inspectors,45.327003,-72.78909
Quebec,Infogérance Evolix Inc,"Montreal, QC H2J 3H9",1,High Wage,2281,Computer network technicians,45.527693,-73.576177
Quebec,Institut national de la recherche scientifique (INRS),"Québec, QC G1K 9A9",1,High Wage,4011,University professors and lecturers,46.812875,-71.223742
Quebec,Intermark Transport Inc.,"La Prairie, QC J5R 6W9",10,High Wage,7511,Transport truck drivers,45.40192,-73.493456
Quebec,J.I.T. Laser inc,"St-Louis-de-Blandford, QC G0Z 1B0",2,High Wage,2253,Drafting technologists and technicians,46.220281,-72.047316
Quebec,JDA Software Canada Ltd.,"MONTRÉAL, QC H2W 2R2",1,High Wage,2171,Information systems analysts and consultants,45.518103,-73.582162
Quebec,JMJ Aéronautique Inc.,"Saint-Hubert, QC J3Y 8Y9",1,High Wage,2271,"Air pilots, flight engineers and flying instructors",45.526775,-73.420973
Quebec,Jolident Inc.,"Laval, QC H7T 2P7",1,High Wage,0124,"Advertising, marketing and public relations managers",45.562221,-73.781769
Quebec,Kinton Ramen 6 Montréal Inc,"MONTRÉAL, QC H3A 2S9",1,High Wage,6322,Cooks,45.504934,-73.571413
Quebec,La Fabrique Arhoma Inc.,"Montréal, QC H2L 1S7",1,High Wage,6332,Bakers,45.52588,-73.559252
Quebec,La Maison Simons,"MONTRÉAL, QC H2V 4M1",2,High Wage,5221,Photographers,45.529668,-73.615289
Quebec,Laboratoire Victhom Inc.,"Laval, QC H7S 2J1",1,High Wage,3219,Other medical technologists and technicians (except dental health),45.574847,-73.723785
Quebec,Laboratoires Charles River Montreal,"Senneville, QC H9X 3R3",1,High Wage,2121,Biologists and related scientists,45.420202,-73.967452
Quebec,Le Bouvier Inc.,"Québec, QC G2B 1B3",1,High Wage,6322,Cooks,46.857074,-71.340461
Quebec,Le Shack du Mont-Tremblant inc.,"Mont-Tremblant, QC J8E 1B1",1,High Wage,6322,Cooks,46.175419,-74.634758
Quebec,lepointedevente.com inc,"Québec, QC G1R 3C1",1,High Wage,2175,Web designers and developers,46.877035,-71.240028
Quebec,Les entreprises Rolland inc.,"Saint-Jérome, QC J7Y 0L6",1,High Wage,0016,Senior managers ,45.791389,-74.011258
Quebec,Les Entreprises S. Bergeron Inc.,"Lévis, QC G6Y 9E7",1,High Wage,2225,Landscape and horticulture technicians and specialists,46.819277,-71.123644
Quebec,Les équipements Masse (1987) Inc.,"Trois-Rivières, QC G9B 7J5",5,High Wage,7511,Transport truck drivers,46.30901,-72.668488
Quebec,Les Finesses D'Alsace inc.,"Rimouski, QC G5L 1A2",1,High Wage,6321,Chefs,48.451842,-68.526194
Quebec,Les Jardins Paul Cousineau & Fils Inc.,"St-Constant, QC J5A 0R2",1,High Wage,7312,Heavy,45.379181,-73.5644913
Quebec,Les Laboratoires Interdata Inc.,"Montréal, QC H2S 1R4",1,High Wage,2175,Web designers and developers,45.527806,-73.611946
Quebec,Les Portes du Manoir,"Sorel-Tracy, QC J3R 2B4",1,High Wage,1241,Administrative assistants,46.030841,-73.130647
Quebec,LES PRODUCTIONS GESTEV INC.,"Montréal, QC H3C 4M8",2,High Wage,5133,Musicians and singers,45.500989,-73.560447
Quebec,Les Services Conseils Systématix Inc.,"QUÉBEC, QC G1V 4W2",3,High Wage,2174,Computer programmers and interactive media developers,46.771029,-71.281169
Quebec,Les Studios Moment Factory Inc.,"Montréal, QC H2V 4H8",1,High Wage,5241,Graphic designers and illustrators,45.526299,-73.611371
Quebec,Lexim International Inc.,"Westmount, QC H3Z 1T3",1,High Wage,0512,Managers ,45.47595,-73.60026
Quebec,Location Pro-Métal Inc.,"Deschambault, QC G0A 1S0",2,High Wage,7237,Welders and related machine operators,46.64613,-71.934034
Quebec,LOGIX  ITS INC.,"MONTREAL, QC H4Z 1E9",1,High Wage,2171,Information systems analysts and consultants,45.513334,-73.533843
Quebec,LOYAL EXPRESS FRIGORIFIQUE INC.,"DORVAL, QC H9P 1E7",2,High Wage,7511,Transport truck drivers,45.452951,-73.734878
Quebec,LR Tech Inc,"LÉVIS, QC G6V 1A8",1,High Wage,2174,Computer programmers and interactive media developers,46.82008,-71.178141
Quebec,Magasin Laura Shoppe (P.V.) Inc.,"Laval, QC H7L 3W2",1,High Wage,5232,"Other performers, n.e.c.",45.585158,-73.751624
Quebec,Mega Brands Inc.,"Montréal, QC H4T 1K4",1,High Wage,5241,Graphic designers and illustrators,45.4798919,-73.6944073
Quebec,Métallurgie Castech Inc,"Thetford Mines, QC G6G 7M8",3,High Wage,7237,Welders and related machine operators,46.108546,-71.30539
Quebec,Milan Conception Inc,"Sherbrooke, QC J1L 0A3",3,High Wage,7231,Machinists and machining and tooling inspectors,45.4068545,-71.96113
Quebec,Modlum Lighting Canada Inc.,"Montreal, QC H4R 1X1",1,High Wage,0013,Senior managers ,45.4923767,-73.7101569
Quebec,Momentum Technologies inc.,"Québec, QC G2J 0B9",1,High Wage,2171,Information systems analysts and consultants,46.840635,-71.282188
Quebec,Mont-Cal Logistics inc.,"LASALLE, QC H8N 3A9",4,High Wage,7511,Transport truck drivers,45.435434,-73.639943
Quebec,Morgan Stanley Canada Ltd,"Montréal, QC H3C 3S4",1,High Wage,2173,Software engineers and designers,45.497747,-73.55526
Quebec,Néomed-Labs Inc.,"Laval, QC H7V 3S8",1,High Wage,0013,Senior managers ,45.557614,-73.696535
Quebec,Next Canada,"Montreal, QC H3B 3B9",1,High Wage,5232,"Other performers, n.e.c.",45.503208,-73.569472
Quebec,Northforge Innovations Inc,"Gatineau, QC J8X 3H3",1,High Wage,2173,Software engineers and designers,45.428523,-75.715981
Quebec,Nunetworx Communications Inc.,"Montréal, QC H2N 1L5",1,High Wage,2281,Computer network technicians,45.539495,-73.643404
Quebec,onepoint Canada Inc.,"Montreal, QC H3B 1K9",1,High Wage,2281,Computer network technicians,45.503555,-73.568196
Quebec,Orchestre Symphonique De Montreal,"Montréal, QC H2X 0S1",1,High Wage,5132,"Conductors, composers and arrangers",45.51243,-73.566982
Quebec,ORDRE DES ORTHOPHONISTES ET AUDIOLOGISTES DU QC,"Montréal, QC H2X 1N8",1,High Wage,1241,Administrative assistants,45.511195,-73.559866
Quebec,Parfum Direct Inc,"Laval, QC H7S 2K6",1,High Wage,1241,Administrative assistants,45.561709,-73.728342
Quebec,Paysafe Technologies inc.,"MONTREAL, QC H3Z 3C1",1,High Wage,0124,"Advertising, marketing and public relations managers",45.489087,-73.586825
Quebec,PeopleCorp Gaming Inc.,"Montréal, QC H4M 2X6",1,High Wage,5241,Graphic designers and illustrators,45.531351,-73.673984
Quebec,Playhybrid Divertissement Inc,"MONTREAL, QC H2Z 1N3",1,High Wage,2174,Computer programmers and interactive media developers,45.504327,-73.56266
Quebec,Plessitech inc.,"PLESSISVILLE, QC G6L 3N2",4,High Wage,7231,Machinists and machining and tooling inspectors,46.229572,-71.777267
Quebec,Pneumatique Transport Inc.,"ÎLETS CARIBOU, QC G0H 1A0",2,High Wage,7384,"Other trades and related occupations, n.e.c.",49.403751,-67.310413
Quebec,Polycor Inc.,"QUÉBEC, QC G1K 3V9",10,High Wage,9611,Labourers in mineral and metal processing,46.881657,-71.15704
Quebec,Pomerleau Inc,"MONTRÉAL, QC H2Y 0A2",1,High Wage,2131,Civil engineers,45.5012918,-73.5603435
Quebec,Productions Double Negative Montréal Ltée,"MONTRÉAL, QC H2Y 1A6",15,High Wage,5241,Graphic designers and illustrators,45.500463,-73.562724
Quebec,Progitek Dev Inc,"Québec, QC G2E 5X1",1,High Wage,2282,User support technicians,46.816812,-71.362969
Quebec,Pro-Par inc.,"Sherbrooke, QC J1M 1Z4",4,High Wage,7237,Welders and related machine operators,45.335987,-71.838305
Quebec,PureLoad Software Canada Inc.,"Saint-Pie, QC J0H 1W0",1,High Wage,2171,Information systems analysts and consultants,45.484431,-72.849367
Quebec,PWS Logistics Montréal Inc,"St-Laurent, QC H4T 2A2",1,High Wage,0731,Managers in transportation,45.4817426,-73.7032185
Quebec,Reitmans Canada Ltd,"Montréal, QC H3L 1Z2",20,High Wage,5232,"Other performers, n.e.c.",45.542796,-73.662597
Quebec,Re-mi Academy,"Montreal, QC H4B 2M5",1,High Wage,5133,Musicians and singers,45.462911,-73.627225
Quebec,RENAPS Technologies Canada Inc.,"ST-LAURENT, QC H4N 2M3",1,High Wage,2171,Information systems analysts and consultants,45.503243,-73.671312
Quebec,REpower Systems Inc.,"Montréal, QC H3B 4W8",1,High Wage,2132,Mechanical engineers,45.497394,-73.571571
Quebec,Rio Tinto Alcan Inc.,"Montréal, QC H3B 0E3",1,High Wage,0212,Architecture and science managers,45.499914,-73.568918
Quebec,Rotobec Inc.,"Sainte-Justine, QC G0R 1Y0",6,High Wage,7231,Machinists and machining and tooling inspectors,46.4105453491211,-70.3466491699219
Quebec,S. Ouellet et M. Roy inc.(Brunet),"Disraeli, QC G0N 1E0",1,High Wage,3131,Pharmacists,45.907459,-71.360914
Quebec,SANDOZ CANADA INC.,"Boucherville, QC J4B 7K8",1,High Wage,3131,Pharmacists,45.578817,-73.45144
Quebec,Sceno Plus Production Inc.,"Montreal, QC H2H 2C3",1,High Wage,5241,Graphic designers and illustrators,45.540294,-73.583282
Quebec,Service Trans-West inc.,"Lachine, QC H8T 2X9",2,High Wage,7511,Transport truck drivers,45.452889,-73.718656
Quebec,SERVICES SANITAIRES DENIS FORTIER INC.,"Thetford Mines, QC G6H 4G2",4,High Wage,7321,"Automotive service technicians, truck and bus mechanics and mechanical repairers",46.1202378,-71.2559893
Quebec,Services Sanitaires DF de Beauce inc,"Saint-georges de Beauce, QC G5Y 2J8",1,High Wage,7237,Welders and related machine operators,46.108328,-70.6537772
Quebec,Servodirection DSG inc.,"Québec, QC G2J 1P7",2,High Wage,7321,"Automotive service technicians, truck and bus mechanics and mechanical repairers",46.840846,-71.277555
Quebec,SIGNALISATION VER-MAC Inc,"Québec, QC G2G 2V2",1,High Wage,7237,Welders and related machine operators,46.806187,-71.382976
Quebec,SNC-Lavalin Inc.,"Montreal, QC H2Z 1Z3",1,High Wage,0711,Construction managers,45.504245,-73.565475
Quebec,SNC-Lavalin Operations & Maintenance Inc.,"Montreal, QC H2Z 1Z3",1,High Wage,0016,Senior managers ,45.504245,-73.565475
Quebec,Société Conseil Groupe LGS,"QUÉBEC, QC G1V 4K5",7,High Wage,2171,Information systems analysts and consultants,46.769541,-71.284097
Quebec,Société en Commandite Avions C Series,"Mirabel, QC J7N 3C6",2,High Wage,2146,Aerospace engineers,45.565891,-73.880256
Quebec,Solutions EXIA inc.,"Montréal, QC H4C 2Z6",1,High Wage,2171,Information systems analysts and consultants,45.47629,-73.591751
Quebec,Sonder Canada Inc.,"Montreal, QC H2W 1V1",1,High Wage,0015,Senior managers ,45.514928,-73.578538
Quebec,SPORT MASKA INC.,"Montreal, QC H4R 3L3",1,High Wage,0015,Senior managers ,45.5017473,-73.7212976
Quebec,Studios Framestore Inc.,"Montréal, QC H2T 3B3",2,High Wage,5241,Graphic designers and illustrators,45.527042,-73.595999
Quebec,Supermétal Québec inc.,"Lévis, QC G6W 5M6",1,High Wage,7237,Welders and related machine operators,46.750015,-71.238417
Quebec,Systèmes Danfreight Inc.,"Joliette, QC J6E 0L8",14,High Wage,7511,Transport truck drivers,46.0285851,-73.4499872
Quebec,TECHNO-PIEUX INC.,"Thetford Mines, QC G6G 8B2",3,High Wage,7237,Welders and related machine operators,46.1131,-71.288536
Quebec,TERRAGON Technologies de l'environnement Inc.,"Montreal, QC H3K 2C8",1,High Wage,0124,"Advertising, marketing and public relations managers",45.487498,-73.558415
Quebec,The Tom Kotter Company Ltd.,"MONTREAL, QC H4B 2K3",1,High Wage,5131,"Producers, directors, choreographers and related occupations",45.463728,-73.633496
Quebec,Transport Jacques Auger inc.,"Lévis, QC G6V 7M5",7,High Wage,7511,Transport truck drivers,46.758964,-71.169389
Quebec,Underdogs Power Corporation,"Montreal, QC H3C 2M7",1,High Wage,2175,Web designers and developers,45.496988,-73.555482
Quebec,Université de Montréal,"Montréal, QC H3C 3J7",2,High Wage,4011,University professors and lecturers,45.491524,-73.568127
Quebec,Universite du Quebec à Rimouski,"Rimouski, QC G5L 3A1",1,High Wage,4011,University professors and lecturers,48.451206,-68.514445
Quebec,Université McGill,"MONTREAL, QC H3G 2M1",2,High Wage,4011,University professors and lecturers,45.501123,-73.581707
Quebec,Valbo Inc.,"Montréal, QC H1E 1P4",1,High Wage,1241,Administrative assistants,45.634216,-73.569317
Quebec,Verbom Inc.,"VALCOURT, QC J0E 2L0",8,High Wage,7231,Machinists and machining and tooling inspectors,45.535331,-72.298759
Quebec,Via Consultants Informatique (2000) Inc.,"Montreal, QC H2Y 1M6",1,High Wage,2171,Information systems analysts and consultants,45.503238,-73.558922
Quebec,Vidéotron S.E.N.C.,"Montréal, QC H3C 4M8",1,High Wage,0124,"Advertising, marketing and public relations managers",45.500989,-73.560447
Quebec,Volta Création inc,"Québec, QC G1K 8G3",1,High Wage,5241,Graphic designers and illustrators,46.813822,-71.22369
Quebec,WB Games Montréal Inc.,"Montréal, QC H2L 4S8",1,High Wage,5241,Graphic designers and illustrators,45.491755,-73.583887
Quebec,7099398 Canada (Déménagement Aarion),"Montréal-Est, QC H1B 4V7",1,7099398 Canada (Déménagement Aarion),7312,Heavy,45.634705,-73.509787
Quebec,9008-1951 Québec Inc.,"La Présentation, QC J0H 1B0",29,Low Wage,8431,General farm workers,45.687511,-73.099655
Quebec,9067-5984 Québec Inc,"Salaberry de Valley-Field, QC J6S 3J6",1,Low Wage,7445,Other repairers and servicers,45.262395,-74.133963
Quebec,9115-2215 Québec Inc.,"Rouyn-Noranda, QC J9X 3C2",1,Low Wage,6332,Bakers,48.238553,-79.017201
Quebec,9129-6509 Québec Inc,"NOTRE-DAME-DU-NORD, QC J0Z 3B0",2,Low Wage,6732,Specialized cleaners,47.523781,-79.350873
Quebec,9163-2182 Québec inc,"ST-ZOTIQUE, QC J0P 1Z0",3,Low Wage,8612,Landscaping and grounds maintenance labourers,45.167462,-74.302459
Quebec,9166-8202 Québec Inc,"Vaudreuil-Dorion, QC J7V 2Z4",2,Low Wage,8612,Landscaping and grounds maintenance labourers,45.383213,-74.025898
Quebec,9168-1346 Québec Inc.,"Montréal, QC H3H 1J3",1,Low Wage,6322,Cooks,45.492131,-73.585037
Quebec,9169-0362 Québec inc.,"Thetford-Mines, QC G6G 8B2",3,Low Wage,9536,"Industrial painters, coaters and metal finishing process operators",46.1131,-71.288536
Quebec,9281-9242 Quebec inc.,"VARENNES, QC J3X 1Y5",10,Low Wage,8612,Landscaping and grounds maintenance labourers,45.66167,-73.425392
Quebec,9305-2090 Québec Inc.,"Montréal, QC H4B 1V3",1,Low Wage,6322,Cooks,45.456305,-73.631105
Quebec,9340-2915 Québec inc.,"Montréal, QC H4A 1C8",1,Low Wage,0651,"Managers in customer and personal services, n.e.c.",45.476496,-73.622168
Quebec,9356 4706 Québec inc.,"Laval, QC H7L 3H7",1,Low Wage,6321,Chefs,45.580716,-73.766987
Quebec,Aménagement Côté Jardin Inc.,"Montréal, QC H2H 2N2",6,Low Wage,8612,Landscaping and grounds maintenance labourers,45.538758,-73.565632
Quebec,Aurel Harvey & Fils Inc.,"La Malbaie, QC G5A 1C5",5,Low Wage,7321,"Automotive service technicians, truck and bus mechanics and mechanical repairers",47.678167,-70.175504
Quebec,BARDOBEC INC.,"Saint-Just-de-Bretenières, QC G0R 3H0",4,Low Wage,9614,"Labourers in wood, pulp and paper processing",46.5671195983887,-70.0939636230469
Quebec,Canards du Lac Brome Ltée,"KNOWLTON, QC J0E 1V0",1,Low Wage,9617,"Labourers in food, beverage and associated products processing",45.106752,-72.369331
Quebec,Charcuterie La Bicoise Inc.,"Rimouski, QC G0L 1B0",3,Low Wage,9617,"Labourers in food, beverage and associated products processing",48.354467,-68.714659
Quebec,CIF Métal Ltée,"Thetford Mines, QC G6G 8B2",3,Low Wage,9612,Labourers in metal fabrication,46.1131,-71.288536
Quebec,Club de golf Terrebonne inc.,"Terrebonne, QC J6X 0B2",10,Low Wage,8612,Landscaping and grounds maintenance labourers,45.7416214,-73.7206476
Quebec,Collections Girardin Inc,"Montréal, QC H2G 1Y9",1,Low Wage,5244,Artisans and craftspersons,45.540582,-73.584508
Quebec,Comptoir Agricole Ste-Anne inc.,"Repentigny, QC J5Z 4X5",24,Low Wage,7612,Other trades helpers and labourers,45.754562,-73.480006
Quebec,Entrepreneur Paysagistes Strathmore (1997) Ltée,"Montreal, QC H8N 2Z2",19,Low Wage,8612,Landscaping and grounds maintenance labourers,45.443914,-73.621446
Quebec,Entretien de pelouses Christian Bélanger Inc.,"Lévis, QC G7A 1E6",4,Low Wage,8612,Landscaping and grounds maintenance labourers,46.71468,-71.287578
Quebec,Envirostable Inc.,"Carignan, QC J3L 0K4",6,Low Wage,8612,Landscaping and grounds maintenance labourers,45.4135626,-73.3536955
Quebec,Équipement de Ferme Turgeon ltée,"St-narcisse, QC G0S 1W0",4,Low Wage,9612,Labourers in metal fabrication,46.541448,-71.432931
Quebec,ÉRABLIÈRE LMK INC.,"Laurierville, QC G0S 1P0",3,Low Wage,8431,General farm workers,46.347413,-71.699516
Quebec,FERME DIANE & DENIS CHAMPAGNE INC.,"LANORAIE, QC J0K 1E0",1,Low Wage,8431,General farm workers,45.956657,-73.221825
Quebec,Fertibeauce inc.,"Ste-Marie, QC G6E 3H3",5,Low Wage,8612,Landscaping and grounds maintenance labourers,46.461792,-71.038874
Quebec,G.T.L. Paysagiste Inc.,"La Prairie, QC J5R 4P2",6,Low Wage,8612,Landscaping and grounds maintenance labourers,45.414219,-73.465746
Quebec,Gazons Verkest Inc,"Saint-Thomas, QC J0K 3L0",10,Low Wage,8612,Landscaping and grounds maintenance labourers,46.012426,-73.355485
Quebec,Gordon Food Service Canada Ltd.,"QUÉBEC, QC G2C 2E2",10,Low Wage,7452,Material handlers,46.821207,-71.352503
Quebec,Groupe MS Inc.,"St-Michel, QC J0L 2J0",4,Low Wage,8612,Landscaping and grounds maintenance labourers,45.346674,-73.436841
Quebec,Hortibeauce inc,"Ste-Marie, QC G6E 3E2",4,Low Wage,8612,Landscaping and grounds maintenance labourers,46.4625044,-71.0476063
Quebec,Industries Technopaint Inc.,"Ste-Clotilde de Beauce, QC G0N 1C0",3,Low Wage,9612,Labourers in metal fabrication,46.218009,-71.07553
Quebec,J.I.T. Laser inc,"St-Louis-de-Blandford, QC G0Z 1B0",7,Low Wage,9416,Metalworking and forging machine operators,46.220281,-72.047316
Quebec,Jardins Groupe Design Inc.,"St-Basile-Le-Grand, QC J3N 1M3",23,Low Wage,8612,Landscaping and grounds maintenance labourers,45.548563,-73.270418
Quebec,LA COMPAGNIE DE PARTERRES PORTUGAIS LTÉE,"Québec, QC G2G 2N8",3,Low Wage,8612,Landscaping and grounds maintenance labourers,46.809983,-71.385744
Quebec,La Remontée Inc.,"La Malbaie, QC G5A 3A7",2,Low Wage,6731,Light duty cleaners,47.629745,-70.143793
Quebec,Les 7 doigts de la main (2003) inc.,"MONTRÉAL, QC H2X 2T5",2,Low Wage,5232,"Other performers, n.e.c.",45.512247,-73.568825
Quebec,Les Aliments Bari Inc.,"St-Léonard d'Aston, QC J0C 1M0",3,Low Wage,9617,"Labourers in food, beverage and associated products processing",46.099764,-72.332324
Quebec,Les Aliments Trans Gras inc.,"DRUMMONDVILLE, QC J2C 6Z6",6,Low Wage,9617,"Labourers in food, beverage and associated products processing",45.870173,-72.527229
Quebec,Les aliments Whytes Inc.,"Laval, QC H7L 2N6",8,Low Wage,9617,"Labourers in food, beverage and associated products processing",45.612143,-73.7815
Quebec,Les banquets Morin Inc.,"Saint-Henri, QC G0R 3E0",3,Low Wage,6711,"Food counter attendants, kitchen helpers and related support occupations",46.825966,-71.153383
Quebec,Les Embellissements La Chaudière Inc.,"Sainte-Marie, QC G6E 2S5",5,Low Wage,8612,Landscaping and grounds maintenance labourers,46.43024,-71.008473
Quebec,Les Fermes Belvache Inc.,"Ste-Anne-des-Plaines, QC J0N 1H0",4,Low Wage,8431,General farm workers,45.768594,-73.803746
Quebec,Les Gazons Ste-Julie Ltée,"Les Coteaux, QC J7X 1G4",13,Low Wage,8612,Landscaping and grounds maintenance labourers,45.280104,-74.237329
Quebec,Les Jardins du Haut St-Laurent (1990) enr.,"St-Augustin-de-Desmaures, QC G3A 0K9",1,Low Wage,3413,"Nurse aides, orderlies and patient service associates",46.7362292,-71.3784193
Quebec,Les Spécialités Prodal Ltée,"SAINT-BERNARD, QC G0S 2G0",18,Low Wage,9617,"Labourers in food, beverage and associated products processing",46.534055,-71.557415
Quebec,Les Terrassements Multi-Paysages Inc,"Joliette, QC J6E 4B7",20,Low Wage,8612,Landscaping and grounds maintenance labourers,46.005141,-73.454213
Quebec,Les Viandes Lacroix Inc.,"St-Hyacinthe, QC J2S 8E3",4,Low Wage,9617,"Labourers in food, beverage and associated products processing",45.626075,-72.992756
Quebec,Magasins Trévi Inc.,"Mirabel, QC J7J 0C4",25,Low Wage,7441,Residential and commercial installers and servicers,45.701655,-73.92717
Quebec,Manac Inc.,"St-Georges de Beauce, QC G5Y 8G6",1,Low Wage,9522,"Motor vehicle assemblers, inspectors and testers",46.134199,-70.662775
Quebec,Martel Paysagiste inc.,"Sainte-Julie, QC J3E 0C2",7,Low Wage,8612,Landscaping and grounds maintenance labourers,45.5828684,-73.3364663
Quebec,MATELAS DAUPHIN INC.,"Lévis, QC G6X 1C9",4,Low Wage,9446,Industrial sewing machine operators,46.724761,-71.270577
Quebec,Métallurgie Castech Inc,"Thetford Mines, QC G6G 7M8",9,Low Wage,9412,Foundry workers,46.108546,-71.30539
Quebec,Oly-Robi Transformation SEC,"Yamachiche, QC G0X 3L0",6,Low Wage,9617,"Labourers in food, beverage and associated products processing",46.27531,-72.839775
Quebec,Pâtisserie Amal Bohsali Canada inc.,"Laval, QC H7V 4C2",1,Low Wage,6321,Chefs,45.556185,-73.742796
Quebec,Patisserie Lajeunesse Vimont Inc.,"Laval, QC H7M 2P5",1,Low Wage,6322,Cooks,45.599075,-73.724243
Quebec,Paysages Rossignol inc.,"St-André-Avellin, QC J0V 1W0",11,Low Wage,8612,Landscaping and grounds maintenance labourers,45.671438,-75.020054
Quebec,Pépinière et Paysages Marcel Marin Inc.,"St-Augustin-de-Desmaures, QC G3A 1W7",4,Low Wage,8612,Landscaping and grounds maintenance labourers,46.867287,-71.177646
Quebec,PEPINIERE JARDIN 2000 INC.,"Sainte-Julie, QC J3E 1Y2",4,Low Wage,8612,Landscaping and grounds maintenance labourers,45.577917,-73.349013
Quebec,Perfection Inc.,"Courcelles, QC G0M 1C0",11,Low Wage,6342,"Tailors, dressmakers, furriers and milliners",45.870616,-70.977775
Quebec,Plessitech inc.,"PLESSISVILLE, QC G6L 3N2",6,Low Wage,7237,Welders and related machine operators,46.229572,-71.777267
Quebec,Polybois,"Thetford Mines, QC G6G 7K7",4,Low Wage,9533,Other wood products assemblers and inspectors,46.109891,-71.298271
Quebec,Restaurant Leméac Café Bistro Inc.,"Montreal, QC H2V 2L1",1,Low Wage,6322,Cooks,45.518199,-73.597069
Quebec,RICHER-BOULET INC.,"Québec, QC G1M 3R7",12,Low Wage,8612,Landscaping and grounds maintenance labourers,46.826025,-71.291026
Quebec,Services Paysagers Martin Gagné inc.,"St-Basile-le-Grand, QC J3N 1M4",5,Low Wage,8612,Landscaping and grounds maintenance labourers,45.5085488,-73.2858266
Quebec,Signal Space Inc.,"Montréal, QC H2Y 1A3",1,Low Wage,2283,Information systems testing technicians,45.510761,-73.554568
Quebec,SJ Paysagiste Inc.,"LONGUEUIL, QC J4M 2Y6",7,Low Wage,8612,Landscaping and grounds maintenance labourers,45.540863,-73.441623
Quebec,T.B. Multi-Services Inc,"Lévis, QC G6W 0J2",3,Low Wage,8612,Landscaping and grounds maintenance labourers,46.758088,-71.22314
Quebec,Terrassement Technique Sylvain Labrecque Inc.,"Mont-Saint-Grégoire, QC J0J 1K0",9,Low Wage,8612,Landscaping and grounds maintenance labourers,45.348071,-73.1917
Quebec,Terrassements Portugais Inc.,"Québec, QC G2G 2N8",5,Low Wage,8612,Landscaping and grounds maintenance labourers,46.809983,-71.385744
Quebec,Transport Bourassa Inc.,"St-Jean-sur-Richelieu, QC J3B 8G3",2,Low Wage,7452,Material handlers,45.3139079,-73.2848184
Quebec,Ventilation LR inc.,"Plessisville, QC G6L 2Y7",2,Low Wage,9612,Labourers in metal fabrication,46.218587,-71.764931
Quebec,Viandes du Breton Inc. (Les),"Rivière-du-Loup, QC G5R 5X8",24,Low Wage,9462,"Industrial butchers and meat cutters, poultry preparers and related workers",47.837688,-69.499672
Quebec,Villa mon domaine inc.,"Lévis, QC G6V 8B4",2,Low Wage,3413,"Nurse aides, orderlies and patient service associates",46.814698,-71.174322
Quebec,2736-0064 Québec inc.,"Saint-Laurent (Île d'Orléans), QC G0A 3Z0",6,2736-0064 Québec inc.,8431,General farm workers,46.860509,-71.014815
Quebec,2744-6160 Québec inc.,"L'Assomption, QC J5W 1G7",2,Primary Agriculture,8431,General farm workers,45.8494484,-73.4088029
Quebec,2745-4214 QUÉBEC INC.,"Alma, QC G8E 1A1",1,Primary Agriculture,8431,General farm workers,48.652469,-71.646118
Quebec,2746-1912 QUÉBEC INC,"Bury, QC J0B 1J0",1,Primary Agriculture,8431,General farm workers,45.456448,-71.546495
Quebec,2756-2396 Québec Inc.,"St-Alexis, QC J0K 1T0",12,Primary Agriculture,8431,General farm workers,45.96805,-73.68699
Quebec,2948-1330 Québec Inc,"St-Roch-de-L'Achigan, QC J0K 3H0",6,Primary Agriculture,8431,General farm workers,45.848711,-73.623247
Quebec,9011-1246 Québec Inc.,"St-Alexis, QC J0K 1T0",1,Primary Agriculture,8431,General farm workers,45.96805,-73.68699
Quebec,9014-8222 Québec inc.,"Rawdon, QC J0K 1S0",2,Primary Agriculture,8431,General farm workers,46.03366,-73.80563
Quebec,9019-0786 Québec Inc.,"St-Faustin-Lac-Carré, QC J0T 1J2",4,Primary Agriculture,8432,Nursery and greenhouse workers,46.104627,-74.401124
Quebec,9029-0354 Québec Inc,"Saint-Jean-sur-Richelieu, QC J2X 5T9",1,Primary Agriculture,8431,General farm workers,45.327376,-73.235338
Quebec,9029-8373 Québec inc.,"Franklin, QC J0S 1E0",10,Primary Agriculture,8431,General farm workers,45.02937,-73.92373
Quebec,9038-8059 Québec Inc,"St-Chrysostome, QC J0S 1E0",7,Primary Agriculture,8431,General farm workers,45.02937,-73.92373
Quebec,9057-0565 Québec Inc. (Vergers Leahy),"Franklin, QC J0S 1E0",8,Primary Agriculture,8431,General farm workers,45.02937,-73.92373
Quebec,9058-3964 Quebec inc.,"Saint Jude, QC J0H 1P0",70,Primary Agriculture,8431,General farm workers,45.77193,-72.98863
Quebec,9060-1667 Québec inc.,"Notre-Dame-des-Pins, QC G0M 1K0",4,Primary Agriculture,8432,Nursery and greenhouse workers,46.187487,-70.706880
Quebec,9067-5588 Québec inc.,"Brigham, QC J2K 4E1",3,Primary Agriculture,8431,General farm workers,45.25008,-72.839859
Quebec,9071-2985 Québec inc.,"Québec, QC G1B 1C8",2,Primary Agriculture,8431,General farm workers,46.852877,-71.228526
Quebec,9072-1242 Québec Inc. (Ferme Féodal),"Saint-Raphaël, QC G0R 4C0",1,Primary Agriculture,8431,General farm workers,46.742379,-70.789009
Quebec,9077-5750 Québec inc,"Val-Joli, QC J1S 0C1",8,Primary Agriculture,8431,General farm workers,45.59941,-72.041408
Quebec,9085-9513 Québec Inc.,"Lotbinière, QC G0S 1S0",3,Primary Agriculture,8431,General farm workers,46.616385,-71.934769
Quebec,9091-8558 QUÉBEC INC. (Service Avicole JGL),"Victoriaville, QC G6T 2B4",19,Primary Agriculture,8431,General farm workers,46.058403,-72.013562
Quebec,9092-1248 Québec Inc.,"SAINT-AMBROISE, QC G7P 2A2",8,Primary Agriculture,8431,General farm workers,48.6116151,-71.3579057
Quebec,9093-5537 QUÉBEC INC.,"Scott, QC G0S 3G0",1,Primary Agriculture,8431,General farm workers,46.508047,-71.07536
Quebec,9103-6038 Québec inc.,"St-Rémi, QC J0L 2L0",11,Primary Agriculture,8431,General farm workers,45.205117,-73.653262
Quebec,9115-5499 Québec Inc,"Sainte-Jeanne-d'Arc, QC G0W 1E0",2,Primary Agriculture,8431,General farm workers,48.827226,-72.053892
Quebec,9127-7079 Québec inc,"St-Édouard, QC J0L 1Y0",6,Primary Agriculture,8431,General farm workers,45.23844,-73.5129
Quebec,9128-1071 Quebec Inc,"St-Paul d'Abbotsford, QC J0E 1A0",14,Primary Agriculture,8431,General farm workers,45.435286,-72.883572
Quebec,9130-3784 Québec inc.,"Senneville, QC H9X 3X4",3,Primary Agriculture,8431,General farm workers,45.441928,-73.95996
Quebec,9132-8542 Québec. inc.,"Blainville, QC J7C 0V2",4,Primary Agriculture,8432,Nursery and greenhouse workers,45.677992,-73.902659
Quebec,9165-4996 Québec Inc.,"Mirabel, QC J7N 2B4",13,Primary Agriculture,8431,General farm workers,45.626235,-74.054783
Quebec,9168-7368 Québec Inc.,"Plessisville, QC G6L 2Y2",3,Primary Agriculture,8431,General farm workers,46.2042323,-71.7511832
Quebec,9169-8241 Québec inc.,"Frelighsburg, QC J0J 1C0",2,Primary Agriculture,8431,General farm workers,45.071888,-72.877933
Quebec,9195-5922 Québec inc.,"St-Hyacinthe, QC J2T 5J5",29,Primary Agriculture,8431,General farm workers,45.6071547,-72.9101129
Quebec,9205-6449 Québec Inc.,"Havelock, QC J0S 2C0",4,Primary Agriculture,8431,General farm workers,45.021595,-73.826589
Quebec,9239-0640 Québec Inc.,"Saint-Urbain, QC G0A 4K0",2,Primary Agriculture,8431,General farm workers,47.557124,-70.538822
Quebec,9246-5517 Qc inc. (Miellerie St-Stanislas),"St-Stanislas-de-Kostka, QC J0S 1W0",3,Primary Agriculture,8431,General farm workers,45.160264,-74.035217
Quebec,9247-9880 Québec Inc,"Mirabel, QC J7N 2Z3",1,Primary Agriculture,8431,General farm workers,45.580403,-74.226544
Quebec,9250-3085 QUÉBEC INC,"Sainte-Jeanne-d'Arc, QC G0W 1E0",2,Primary Agriculture,8431,General farm workers,48.827226,-72.053892
Quebec,9256-8963 Québec Inc.,"Saint-Élie-de-Caxton, QC G0X 2N0",2,Primary Agriculture,8432,Nursery and greenhouse workers,46.497529,-72.901392
Quebec,9260-6946 Québec Inc.,"Laval, QC H7X 4A8",3,Primary Agriculture,8431,General farm workers,45.53251,-73.839238
Quebec,9272-2453 Québec inc. (Petit verger du Village),"Mont-St-Grégoire, QC J0J 1K0",1,Primary Agriculture,8431,General farm workers,45.348071,-73.1917
Quebec,9274-5603 Québec Inc.,"Valleyfield, QC J6T 2J3",8,Primary Agriculture,8431,General farm workers,45.252394,-74.12941
Quebec,9274-5678 Québec Inc.,"ST-THOMAS, QC J0K 3L0",16,Primary Agriculture,8431,General farm workers,46.012426,-73.355485
Quebec,9302-1459 Québec Inc.,"St-Armand, QC J0J 1T0",1,Primary Agriculture,8431,General farm workers,45.057032,-73.058925
Quebec,9305-5747 Québec inc.,"St-Ambroise, QC G7P 2B4",4,Primary Agriculture,8432,Nursery and greenhouse workers,48.577378,-71.338023
Quebec,9316-3749 Québec inc.,"Longueuil, QC J3Y 5K2",2,Primary Agriculture,8431,General farm workers,45.478037,-73.36538
Quebec,9329-5541 Québec inc (Jardins Ste-Clotilde),"Ste-Clotilde, QC J0L 1W0",19,Primary Agriculture,8431,General farm workers,45.1579093933105,-73.6762390136719
Quebec,9329-5558 Québec inc,"Ste-Clotilde, QC J0L 1W0",13,Primary Agriculture,8431,General farm workers,45.1579093933105,-73.6762390136719
Quebec,9332-9860 Québec inc.,"St-Chrysostome, QC J0S 1R0",5,Primary Agriculture,8431,General farm workers,45.103144,-73.761241
Quebec,A. Bélisle et fils senc,"Saint-Eustache, QC J7R 4K3",90,Primary Agriculture,8431,General farm workers,45.579193,-73.878348
Quebec,A.O.L. Jardiniers Maraîchers inc,"SAINT-ÉDOUARD, QC J0L 1Y0",8,Primary Agriculture,8431,General farm workers,45.23844,-73.5129
Quebec,Agro Énergie Inc.,"SAINT-ROCH-DE-L'ACHIGAN, QC J0K 3H0",5,Primary Agriculture,8431,General farm workers,45.848711,-73.623247
Quebec,Atocas Lac St-Jean Inc.,"Dolbeau Mistassini, QC G8L 1E5",4,Primary Agriculture,8431,General farm workers,48.864751,-72.218302
Quebec,Atocas Notre Dame Inc.,"Sainte-Sophie-d'Halifax, QC G0P 1L0",9,Primary Agriculture,8431,General farm workers,46.153275,-71.707873
Quebec,Au Jardin Des Meunier,"St-Jean-sur-Richelieu, QC J2X 5T9",5,Primary Agriculture,8431,General farm workers,45.327376,-73.235338
Quebec,Au Jardin Noir enr.,"Ange-Gardien, QC J0E 1E0",5,Primary Agriculture,8431,General farm workers,45.358702,-72.922095
Quebec,Au potager de Josée,"Lévis, QC G6Y 0V6",2,Primary Agriculture,8431,General farm workers,46.8109329,-71.0698814
Quebec,Aux Aubépines 2002 inc.,"St-Polycarpe, QC J0P 1X0",2,Primary Agriculture,8432,Nursery and greenhouse workers,45.2722015380859,-74.3366470336914
Quebec,Aux Fruits des Champs senc,"Gatineau, QC J9J 2Y9",11,Primary Agriculture,8431,General farm workers,45.4162216,-75.8808382
Quebec,Benjoporc inc.,"Ste-Geneviève-de-Batiscan, QC G0X 2R0",1,Primary Agriculture,8431,General farm workers,46.612569,-72.291314
Quebec,Bergeroy Holstein inc.,"St-Samuel, QC G0Z 1G0",4,Primary Agriculture,8431,General farm workers,46.0371513366699,-72.1964874267578
Quebec,Blais productions inc.,"St-Anselme, QC G0R 2N0",3,Primary Agriculture,8431,General farm workers,46.64819,-70.99023
Quebec,Bleuetière de Parisville inc.,"Parisville, QC G0S 1X0",4,Primary Agriculture,8431,General farm workers,46.518134,-72.066562
Quebec,Bleuetière du Montreuil inc.,"Nédélec, QC J0Z 2Z0",5,Primary Agriculture,8431,General farm workers,47.575558,-79.456191
Quebec,Bleuetière Point du Jour,"Lavaltrie, QC J5T 3P4",106,Primary Agriculture,8431,General farm workers,45.928921,-73.338073
Quebec,"Bouchard, Martyn","DUNHAN, QC J0E 1M0",1,Primary Agriculture,8431,General farm workers,45.18365,-72.83659
Quebec,C & G Jetté Inc.,"Mirabel, QC J7N 2V1",4,Primary Agriculture,8431,General farm workers,45.616818,-74.061821
Quebec,Canards Des Monts Inc,"ST-JUDE, QC J0H 1P0",4,Primary Agriculture,8431,General farm workers,45.77193,-72.98863
Quebec,Canneberges Austin inc.,"Saint-Flavien, QC G0S 2M0",3,Primary Agriculture,8431,General farm workers,46.486178,-72.03479
Quebec,Canneberges Schneider inc,"Lavaltrie, QC J5T 3P2",3,Primary Agriculture,8431,General farm workers,45.916435,-73.353986
Quebec,Caropac inc.,"Ste-Clotilde, QC J0L 1W0",6,Primary Agriculture,8431,General farm workers,45.1579093933105,-73.6762390136719
Quebec,Cédrière Del-Fino inc.,"L'Assomption, QC J5W 3P4",3,Primary Agriculture,8431,General farm workers,45.820642,-73.456049
Quebec,Centre horticole Julie Moraldo St-Nicolas Inc.,"Lévis, QC G3A 2H5",1,Primary Agriculture,8432,Nursery and greenhouse workers,46.754467,-71.374889
Quebec,Centre horticole Julie Moraldo St-Nicolas Inc.,"Levis, QC G7A 2X6",2,Primary Agriculture,8431,General farm workers,46.7279178,-71.3117897
Quebec,Centre Jardin Vaudreuil-sur-le-lac inc,"Vaudreuil-Dorion, QC J7V 8P5",3,Primary Agriculture,8431,General farm workers,45.414411,-74.058445
Quebec,Centre Maraîcher Eugène Guinois Jr. Inc.,"Ste-Clotilde, QC J0L 1W0",183,Primary Agriculture,8431,General farm workers,45.1579093933105,-73.6762390136719
Quebec,Complexe Horticole Bastien inc.,"Terrebonne, QC J6X 0B2",3,Primary Agriculture,8432,Nursery and greenhouse workers,45.7416214,-73.7206476
Quebec,Construction GDL INC./Vignoble Ste-Pétronille,"Ste-Pétronille, QC G0A 4C0",1,Primary Agriculture,8431,General farm workers,46.851704,-71.107794
Quebec,Côte de Vaudreuil S.E.N.C.,"Vaudreuil-Dorion, QC J7V 8P2",1,Primary Agriculture,8431,General farm workers,45.370432,-74.031042
Quebec,Cultures Georges Forest & Fils inc,"Lavaltrie, QC J5T 3P3",2,Primary Agriculture,8431,General farm workers,45.922097,-73.345671
Quebec,DANIEL LAVIOLETTE PAYSAGISTE INC,"Saint-Placide, QC J0V 2B0",5,Primary Agriculture,8431,General farm workers,45.528053,-74.278758
Quebec,Delfland Inc,"Napierville, QC J0J 1L0",102,Primary Agriculture,8431,General farm workers,45.202786,-73.406868
Quebec,Denis Leguerrier Fils et Fille Senc,"Blainville, QC J7E 4H5",11,Primary Agriculture,8431,General farm workers,45.679517,-73.82552
Quebec,Denis Thivierge Maraicher inc,"St-Laurent-de-l'Île-d'Orléans, QC G0A 3Z0",4,Primary Agriculture,8431,General farm workers,46.860509,-71.014815
Quebec,Domaine de la Côte Mont-Rigaud inc.,"Dorval, QC H9P 1A6",4,Primary Agriculture,8611,Harvesting labourers,45.46016,-73.726151
Quebec,Domaine des Côtes d'Ardoises (2010) inc.,"Montréal, QC H2T 3E6",4,Primary Agriculture,8431,General farm workers,45.52514,-73.590993
Quebec,Domaine JMG Trottier Inc.,"Oka, QC J0N 1E0",1,Primary Agriculture,8431,General farm workers,45.496258,-74.140595
Quebec,Domaine Pelchat Lemaître - Auger Inc.,"St-Joseph, QC J0N 1M0",2,Primary Agriculture,8431,General farm workers,45.518391,-73.982522
Quebec,D-Trois-Pierres,"Montréal, QC H9K 1C6",4,Primary Agriculture,8431,General farm workers,45.46899,-73.924457
Quebec,Durasphalte inc.,"Sherbrooke, QC J1N 3G7",18,Primary Agriculture,8432,Nursery and greenhouse workers,45.383942,-71.96614
Quebec,ENDIVES J.M.S. INC,"St-Clet, QC J0P 1S0",12,Primary Agriculture,8431,General farm workers,45.288148,-74.315151
Quebec,Entreprise Agricole Petch Inc,"Hemmingford, QC J0L 1H0",3,Primary Agriculture,8431,General farm workers,45.05619,-73.58501
Quebec,Entreprise Charles Conway Inc.,"St-Polycarpe, QC J0P 1X0",3,Primary Agriculture,8432,Nursery and greenhouse workers,45.2722015380859,-74.3366470336914
Quebec,Entreprises Gaudreault Vanier inc.,"St-Gabriel-de-Brandon, QC J0K 2N0",2,Primary Agriculture,8432,Nursery and greenhouse workers,46.228855,-73.406588
Quebec,Éric et Mario Chaumont inc.,"Ste-Anne-des-Plaines, QC J0N 1H0",64,Primary Agriculture,8431,General farm workers,45.768594,-73.803746
Quebec,Ferdinand Hervieux Inc.,"LANORAIE, QC J0K 1E0",2,Primary Agriculture,8431,General farm workers,45.956657,-73.221825
Quebec,Ferme  Sylvain Beaudry Inc.,"Upton, QC J0H 2E0",2,Primary Agriculture,8431,General farm workers,45.64189,-72.671958
Quebec,Ferme A. Hogue & Fils inc.,"St-Lin-Laurentides, QC J5M 1Z6",1,Primary Agriculture,8431,General farm workers,45.8510185,-73.7887495
Quebec,Ferme A. St-Hilaire senc,"St-Odilon, QC G0S 3A0",2,Primary Agriculture,8431,General farm workers,46.13162,-70.926033
Quebec,Ferme Allfond Inc.,"St-Bruno-de-Guigues, QC J0Z 2G0",1,Primary Agriculture,8431,General farm workers,47.439748,-79.384781
Quebec,Ferme Aston Inc.,"St-Léonard-d'Aston, QC J0C 1M0",2,Primary Agriculture,8431,General farm workers,46.099764,-72.332324
Quebec,Ferme Au Pic Enr,"Dunham, QC J0E 1M0",1,Primary Agriculture,8431,General farm workers,45.18365,-72.83659
Quebec,Ferme aux Pleines Saveurs SENC,"St-André Avellin, QC J0V 1W0",8,Primary Agriculture,8431,General farm workers,45.671438,-75.020054
Quebec,Ferme Avicole B. Morin & Fils Inc.,"St-Bernard-de-Michaudville, QC J0H 1C0",2,Primary Agriculture,8431,General farm workers,45.8125381469727,-73.0415573120117
Quebec,Ferme avicole MLG Bourdeau Inc.,"Saint-Chrysostome, QC J0S 1R0",1,Primary Agriculture,8431,General farm workers,45.103144,-73.761241
Quebec,FERME B.T. HUGI INC,"St-Nazaire D'Acton, QC J0H 1V0",2,Primary Agriculture,8431,General farm workers,45.737565,-72.632486
Quebec,Ferme Bard Inc.,"Ste-Anne-de-La-Pocatière, QC G0R 1Z0",1,Primary Agriculture,8431,General farm workers,47.359335,-70.027466
Quebec,Ferme Bastien Inc.,"St-Lin-Laurentides, QC J5M 1Y6",4,Primary Agriculture,8431,General farm workers,45.847931,-73.695598
Quebec,Ferme Beaudry et fils inc.,"St-Valérien, QC J0H 2B0",1,Primary Agriculture,8431,General farm workers,45.553033,-72.656991
Quebec,Ferme Benoit Vernier Inc.,"ST-ZOTIQUE, QC J0P 1Z0",48,Primary Agriculture,8431,General farm workers,45.167462,-74.302459
Quebec,Ferme Bernard Lebel (1990) inc,"Saint-Arsène, QC G0L 2K0",26,Primary Agriculture,8431,General farm workers,47.567951,-69.064959
Quebec,Ferme Bernerhof Inc.,"Upton, QC J0H 2E0",1,Primary Agriculture,8431,General farm workers,45.64189,-72.671958
Quebec,Ferme Blondeau 2000 inc.,"Ste-Élizabeth-de-Warwick, QC J0A 1M0",1,Primary Agriculture,8431,General farm workers,45.960581,-72.020138
Quebec,Ferme Boeuf des Patriotes inc,"St-Jean-sur-Richelieu, QC J2Y 1H5",1,Primary Agriculture,8431,General farm workers,45.260584,-73.383869
Quebec,Ferme Bogemans Inc.,"St-Sébastien, QC J0J 2C0",1,Primary Agriculture,8431,General farm workers,45.123524,-73.148494
Quebec,Ferme Bon-Conseil inc.,"Notre-Dame-du-Bon-Conseil, QC J0C 1A0",1,Primary Agriculture,8431,General farm workers,45.991414,-72.321616
Quebec,Ferme Bonneterre Inc.,"Saint-Paul, QC J0K 3E0",1,Primary Agriculture,8431,General farm workers,45.978648,-73.393966
Quebec,Ferme Boulerice et fils enr.,"St-Édouard, QC J0L 1Y0",1,Primary Agriculture,8431,General farm workers,45.23844,-73.5129
Quebec,Ferme Bourdeau et Fils senc,"Franklin, QC J0S 1N0",1,Primary Agriculture,8431,General farm workers,45.103552,-73.760211
Quebec,Ferme Bousquet et Blanchette Inc.,"La Présentation, QC J0H 1B0",4,Primary Agriculture,8431,General farm workers,45.687511,-73.099655
Quebec,Ferme Brienz inc.,"Kingsey Falls, QC J0A 1B0",1,Primary Agriculture,8431,General farm workers,45.86967,-72.04108
Quebec,Ferme C.D.M.G. et Fils inc.,"St-Michel, QC J0L 2J0",6,Primary Agriculture,8431,General farm workers,45.346674,-73.436841
Quebec,Ferme C.J. Duval Inc.,"St-Lin-Laurentides, QC J5M 1Y5",14,Primary Agriculture,8431,General farm workers,45.8614072,-73.7472754
Quebec,Ferme Carinan Inc.,"Saint-Henri, QC G0R 3E0",1,Primary Agriculture,8431,General farm workers,46.825966,-71.153383
Quebec,Ferme Champagne et Frères Inc,"STE-AGATHE, QC G0S 2A0",2,Primary Agriculture,8431,General farm workers,46.40427,-71.369247
Quebec,Ferme Champs d'or 2011 inc.,"Mirabel, QC J7N 2T9",2,Primary Agriculture,8431,General farm workers,45.608193,-74.067786
Quebec,Ferme Charejo Inc,"St-Roch ouest, QC J0K 3H0",2,Primary Agriculture,8431,General farm workers,45.848711,-73.623247
Quebec,Ferme Choisel Inc.,"St-Blaise-sur-le-Richelieu, QC J0J 1W0",1,Primary Agriculture,8431,General farm workers,45.195559,-73.263154
Quebec,Ferme Christian Asselin inc.,"LANORAIE, QC J0K 1E0",2,Primary Agriculture,8431,General farm workers,45.956657,-73.221825
Quebec,Ferme Clair-Gré inc.,"St-Ours, QC J0G 1P0",1,Primary Agriculture,8431,General farm workers,45.889498,-73.145833
Quebec,Ferme Clement Roy inc,"Mercier, QC J6R 2L1",1,Primary Agriculture,8431,General farm workers,45.334092,-73.699046
Quebec,Ferme Comestar Holstein Inc.,"Victoriaville, QC G6T 0S9",1,Primary Agriculture,8431,General farm workers,46.0830119,-71.992766
Quebec,Ferme Cormier inc.,"L'Assomption, QC J5W 3M7",4,Primary Agriculture,8431,General farm workers,45.823156,-73.436637
Quebec,Ferme D. Vanasse Inc,"Ayer's Cliff, QC J0B 1C0",8,Primary Agriculture,8432,Nursery and greenhouse workers,45.167395,-72.039906
Quebec,Ferme D.M.Sauriol SENC.,"Laval, QC H7J 1C9",14,Primary Agriculture,8431,General farm workers,45.681867,-73.700853
Quebec,Ferme Daniel Blais inc.,"Saint-Jean-de-l'Ile-d'Orléans, QC G0A 3W0",1,Primary Agriculture,8431,General farm workers,46.922903,-70.893368
Quebec,Ferme Daniel Coutu Inc.,"ST-THOMAS, QC J0K 3L0",1,Primary Agriculture,8431,General farm workers,46.012426,-73.355485
Quebec,Ferme Dara,"Bécancour, QC G9H 3P1",1,Primary Agriculture,8431,General farm workers,46.302446,-72.276673
Quebec,Ferme de l'Hétrière (1993) Enr,"St-Charles-de-Bellechasse, QC G0R 2T0",1,Primary Agriculture,8431,General farm workers,46.782091,-70.933043
Quebec,Ferme d'en Bas inc.,"Saint-Esprit, QC J0K 2L0",7,Primary Agriculture,8431,General farm workers,45.900074,-73.666056
Quebec,Ferme Denis Beaudoin et Lucie Marcoux,"St-Antoine-de-Tilly, QC G0S 2C0",4,Primary Agriculture,8431,General farm workers,46.613035,-71.506759
Quebec,Ferme Denis Prud'homme Inc.,"SAINT-EUSTACHE, QC J7R 0J6",6,Primary Agriculture,8431,General farm workers,45.5628826,-73.9472964
Quebec,Ferme des Ormes S.E.N.C.,"Pierreville, QC J0G 1J0",9,Primary Agriculture,8431,General farm workers,46.092301,-72.759361
Quebec,Ferme Desdion SENC,"St-Placide, QC J0V 2B0",1,Primary Agriculture,8431,General farm workers,45.528053,-74.278758
Quebec,Ferme Dony inc,"SAINT-BASILE, QC G0A 3G0",1,Primary Agriculture,8431,General farm workers,46.820477,-71.78537
Quebec,Ferme D'Or inc.,"Sainte-Sophie d'Halifax, QC G0P 1L0",3,Primary Agriculture,8431,General farm workers,46.153275,-71.707873
Quebec,Ferme du Domaine 2000 inc.,"SHAWINIGAN, QC G9P 5G6",2,Primary Agriculture,8431,General farm workers,46.487467,-72.742849
Quebec,Ferme du Littoral inc.,"BAIE-DES-SABLES, QC G0J 1C0",1,Primary Agriculture,8431,General farm workers,48.709357,-67.912224
Quebec,Ferme Duroseau Inc.,"St-Lin-Laurentides, QC J5M 1Y6",2,Primary Agriculture,8431,General farm workers,45.847931,-73.695598
Quebec,Ferme EDPA inc.,"St-Édouard, QC J0L 1Y0",3,Primary Agriculture,8431,General farm workers,45.23844,-73.5129
Quebec,Ferme Estermann inc.,"Dundee, QC J0S 1L0",1,Primary Agriculture,8431,General farm workers,45.009811,-74.401249
Quebec,Ferme Faucher et fils inc.,"St-Ephrem, QC G0M 1R0",1,Primary Agriculture,8431,General farm workers,46.057641,-70.953781
Quebec,Ferme Fernand Lachance et fils inc.,"Saint-Évariste-de-Forsyth, QC G0M 1S0",2,Primary Agriculture,8431,General farm workers,45.743566,-70.698132
Quebec,Ferme Fernand Pilote et Fils SENC,"Ste-Irénée, QC G0T 1V0",1,Primary Agriculture,8431,General farm workers,47.52949,-70.219974
Quebec,Ferme Fortale Holstein inc,"St-Christophe-d'Arthabska, QC G6S 0N9",2,Primary Agriculture,8431,General farm workers,46.0179539,-71.8570061
Quebec,Ferme Franche SENC.,"Mirabel, QC J7N 3B5",1,Primary Agriculture,8431,General farm workers,45.5982902,-74.1916653
Quebec,Ferme François Blouin Inc.,"Ste-Famille (Ile d'Orléans), QC G0A 3P0",18,Primary Agriculture,8431,General farm workers,46.941978,-70.99902
Quebec,Ferme François Gosselin inc.,"Saint-Laurent-de-l'Île-d'Orléans, QC G0A 3Z0",78,Primary Agriculture,8431,General farm workers,46.860509,-71.014815
Quebec,Ferme FX Orléans inc.,"SAINT-JEAN-DE-L'ÎLE-D'ORLÉANS, QC G0A 3W0",1,Primary Agriculture,8431,General farm workers,46.922903,-70.893368
Quebec,Ferme G. Charlebois et fils Inc.,"Ste-Justine-de-Newton, QC J0P 1T0",1,Primary Agriculture,8431,General farm workers,45.288029,-74.396902
Quebec,Ferme G.M. Le Porc Inc.,"Montmagny, QC G5V 3R9",1,Primary Agriculture,8252,"Agricultural service contractors, farm supervisors and specialized livestock workers",46.966656,-70.531465
Quebec,Ferme Geliporc inc.,"SAINT-TITE, QC G0X 3H0",1,Primary Agriculture,8431,General farm workers,46.744431,-72.504794
Quebec,Ferme Guymari Inc.,"Tingwick, QC J0A 1L0",2,Primary Agriculture,8431,General farm workers,45.882973,-71.945626
Quebec,Ferme H. Daigneault & fils Inc.,"St. Michel, QC J0L 2J0",6,Primary Agriculture,8431,General farm workers,45.346674,-73.436841
Quebec,Ferme H.P. Gagnon & Fils Inc.,"Laterrière, QC G7N 1N7",4,Primary Agriculture,8431,General farm workers,48.3566742,-71.0550763
Quebec,Ferme Haeck SENC,"Mercier, QC J6R 2L1",20,Primary Agriculture,8431,General farm workers,45.334092,-73.699046
Quebec,Ferme Hec-Bert Inc,"Saint-Épiphane, QC G0L 2X0",1,Primary Agriculture,8431,General farm workers,47.90555,-69.295765
Quebec,Ferme Isabelle Inc.,"Coteau-du-Lac, QC J0P 1B0",6,Primary Agriculture,8431,General farm workers,45.31485,-74.19325
Quebec,Ferme J. Ouimet inc.,"St-Roch de l'Achigan, QC J0K 3H0",1,Primary Agriculture,8252,"Agricultural service contractors, farm supervisors and specialized livestock workers",45.848711,-73.623247
Quebec,Ferme J.L. Leblanc inc.,"St-Jacques, QC J0K 2R0",24,Primary Agriculture,8431,General farm workers,45.967496,-73.566293
Quebec,Ferme J.M. Puppynck inc.,"Sainte-Hélène, QC J0H 1M0",1,Primary Agriculture,8431,General farm workers,45.780544,-72.751872
Quebec,Ferme Jacques Michaud Inc.,"Sherrington, QC J0L 2N0",11,Primary Agriculture,8431,General farm workers,45.156582,-73.508952
Quebec,Ferme Janir Inc,"Alma, QC G8E 1A6",1,Primary Agriculture,8431,General farm workers,48.646006,-71.693167
Quebec,Ferme Jardin Champs de Rêves (2014) inc.,"Vaudreuil-Dorion, QC J7T 2C8",4,Primary Agriculture,8432,Nursery and greenhouse workers,45.429206,-74.131281
Quebec,Ferme Jarold Inc.,"St-Charles, QC G0R 2T0",6,Primary Agriculture,8431,General farm workers,46.782091,-70.933043
Quebec,Ferme Jean Forest & Fils Inc,"Saint-Jacques, QC J0K 2R0",12,Primary Agriculture,8431,General farm workers,45.967496,-73.566293
Quebec,Ferme Jean-Noël Gagné inc.,"St-Bernard, QC G0S 2G0",10,Primary Agriculture,8431,General farm workers,46.534055,-71.557415
Quebec,Ferme Jean-Pierre Plante inc.,"St-Laurent-de-l'Île-d'Orléans, QC G0A 3Z0",30,Primary Agriculture,8431,General farm workers,46.860509,-71.014815
Quebec,Ferme Jolicap inc.,"CAP-SAINT-IGNACE, QC G0R 1H0",1,Primary Agriculture,8431,General farm workers,47.0353012084961,-70.4599990844727
Quebec,Ferme Jonathan St-Onge inc,"Yamaska, QC J0G 1W0",2,Primary Agriculture,8431,General farm workers,45.996898,-72.902171
Quebec,Ferme JSD Patenaude SENC,"Napierville, QC J0J 1L0",6,Primary Agriculture,8431,General farm workers,45.202786,-73.406868
Quebec,Ferme Kakou Senc,"Cacouna, QC G0L 1G0",1,Primary Agriculture,8431,General farm workers,47.917754,-69.497966
Quebec,Ferme KDK inc.,"St-Honoré-de-Shenley, QC G0M 1V0",1,Primary Agriculture,8431,General farm workers,45.8217,-70.98566
Quebec,Ferme L.Campbell & Fils Inc.,"Sainte-Sabine, QC J0J 2B0",1,Primary Agriculture,8431,General farm workers,45.226356,-73.019467
Quebec,Ferme La Tremblaie S.E.N.C,"Les Éboulements, QC G0A 2M0",1,Primary Agriculture,8431,General farm workers,47.465175,-70.337958
Quebec,Ferme Laitière Ambijoie inc.,"Mirabel, QC J7N 2R8",1,Primary Agriculture,8431,General farm workers,45.535555,-74.122762
Quebec,Ferme Laitière Blondin Inc.,"St-Placide, QC J0V 2B0",1,Primary Agriculture,8431,General farm workers,45.528053,-74.278758
Quebec,Ferme Lando & Fils inc.,"St-Patrice-de-Sherrington, QC J0L 2N0",14,Primary Agriculture,8431,General farm workers,45.156582,-73.508952
Quebec,Ferme Langlois et fils enrg.,"Neuville, QC G0A 2R0",4,Primary Agriculture,8431,General farm workers,46.69649,-71.58933
Quebec,Ferme Laviolette inc.,"St-Étienne-des-Grès, QC G0X 2P0",18,Primary Agriculture,8431,General farm workers,46.444001,-72.821311
Quebec,Ferme Légil Inc.,"Princeville, QC G6L 4K4",1,Primary Agriculture,8431,General farm workers,46.1385701,-71.8435774
Quebec,Ferme Léonce Plante SENC,"Saint-Laurent-de-l'Île-d'Orléans, QC G0A 3Z0",24,Primary Agriculture,8431,General farm workers,46.860509,-71.014815
Quebec,Ferme Leportage SENC,"Ste-Clotilde-de-Horton, QC J0A 1H0",1,Primary Agriculture,8431,General farm workers,45.896117,-72.056247
Quebec,Ferme Lévis inc.,"St-Henri, QC G0R 3E0",1,Primary Agriculture,8431,General farm workers,46.825966,-71.153383
Quebec,Ferme Lidom Inc.,"St-Lin-Laurentides, QC J5M 2A2",3,Primary Agriculture,8431,General farm workers,45.849306,-73.77401
Quebec,Ferme Lilogru Inc.,"Isle-aux-Grues, QC G0R 1P0",3,Primary Agriculture,8431,General farm workers,47.111139,-70.529778
Quebec,Ferme Louis Gosselin inc.,"Saint-Laurent-de-l'Île-d'Orléans, QC G0A 3Z0",24,Primary Agriculture,8431,General farm workers,46.860509,-71.014815
Quebec,Ferme M. & J.C. Couture inc.,"Stratford, QC G0Y 1P0",5,Primary Agriculture,8431,General farm workers,45.760968,-71.244559
Quebec,Ferme M. et G. L'Heureux inc.,"Saint-Henri, QC G0R 3E0",1,Primary Agriculture,8252,"Agricultural service contractors, farm supervisors and specialized livestock workers",46.825966,-71.153383
Quebec,Ferme M. J. Alarie 2016 inc.,"Sainte-Anne-des-Plaines, QC J0N 1H0",46,Primary Agriculture,8431,General farm workers,45.768594,-73.803746
Quebec,Ferme M.G. Proulx Inc.,"St-Placide, QC J0V 2B0",1,Primary Agriculture,8431,General farm workers,45.528053,-74.278758
Quebec,Ferme Manicouagan S.E.N.C,"Pointe-Lebel, QC G0H 1N0",2,Primary Agriculture,8431,General farm workers,49.016712,-68.152237
Quebec,Ferme Mapi inc.,"Franklin, QC J0S 1E0",1,Primary Agriculture,8431,General farm workers,45.02937,-73.92373
Quebec,Ferme Marcel Nadeau et Frères Inc,"St-Bernard, QC G0S 2G0",1,Primary Agriculture,8431,General farm workers,46.534055,-71.557415
Quebec,Ferme Marcoutin Inc,"Ste-Marie, QC G6E 3A8",1,Primary Agriculture,8431,General farm workers,46.464098,-71.021774
Quebec,Ferme Marinier Inc.,"Oka, QC J0N 1E0",16,Primary Agriculture,8431,General farm workers,45.496258,-74.140595
Quebec,Ferme Marland,"Ste-Marie, QC G6E 3A8",3,Primary Agriculture,8431,General farm workers,46.464098,-71.021774
Quebec,Ferme Mathieu Lavoie Inc,"St-Alexis-de-Montcalm, QC J0K 1T0",3,Primary Agriculture,8431,General farm workers,45.96805,-73.68699
Quebec,Ferme Maurice & Philippe Vaillancourt Inc.,"Saint-Laurent-de-l'Île-d'Orléans, QC G0A 3Z0",22,Primary Agriculture,8431,General farm workers,46.860509,-71.014815
Quebec,Ferme Maxi 2009 Inc,"St-Elphège, QC J0G 1J0",1,Primary Agriculture,8431,General farm workers,46.092301,-72.759361
Quebec,Ferme MC Dubeault inc,"Saint-Eustache, QC J7R 0G3",1,Primary Agriculture,8431,General farm workers,45.5706211,-73.9969704
Quebec,Ferme Michaca Inc.,"Elgin, QC J0S 2E0",2,Primary Agriculture,8431,General farm workers,45.00909,-74.3134
Quebec,Ferme Michel Cossette inc,"Saint-Narcisse, QC G0X 2Y0",1,Primary Agriculture,8431,General farm workers,46.591111,-72.482367
Quebec,Ferme Michel Santerre senc,"ST-ALEXANDRE, QC J0J 1S0",1,Primary Agriculture,8431,General farm workers,45.22932,-73.13352
Quebec,Ferme Mijabo inc,"St-Léonard-d'Aston, QC J0C 1M0",1,Primary Agriculture,8431,General farm workers,46.099764,-72.332324
Quebec,Ferme Milvie Senc.,"ST-BENOIT- LABRE, QC G0M 1P0",1,Primary Agriculture,8431,General farm workers,45.843699,-70.570819
Quebec,Ferme Mojac inc,"Beauharnois, QC J6N 0K7",1,Primary Agriculture,8431,General farm workers,45.315659,-73.857985
Quebec,Ferme Morivan Inc.,"ST-BRUNO-LAC-SAINT-JEAN, QC G0W 2L0",3,Primary Agriculture,8431,General farm workers,48.485219,-71.649834
Quebec,Ferme Nabel Inc,"Saint-Jean-Port-Joli, QC G0R 3G0",2,Primary Agriculture,8431,General farm workers,47.189526,-70.267506
Quebec,Ferme Nadeau 2006 inc.,"Laurierville, QC G0S 1P0",1,Primary Agriculture,8431,General farm workers,46.347413,-71.699516
Quebec,Ferme Nandcel (2012) inc.,"Stoke, QC J0B 3G0",3,Primary Agriculture,8431,General farm workers,45.570049,-71.767395
Quebec,Ferme Normand et Lucie Riendeau et Fils S.E.N.C.,"Ste-Martine, QC J0S 1V0",1,Primary Agriculture,8431,General farm workers,45.260161,-73.792344
Quebec,Ferme Normand Marsolais inc.,"St-Alexis, QC J0K 1T0",1,Primary Agriculture,8431,General farm workers,45.96805,-73.68699
Quebec,Ferme O. Giguère & fils inc.,"Lavaltrie, QC J5T 3J6",4,Primary Agriculture,8431,General farm workers,45.931416,-73.351258
Quebec,Ferme Onésime Pouliot Inc.,"St-Jean-de-l'Île-d'Orléans, QC G0A 3W0",5,Primary Agriculture,8431,General farm workers,46.922903,-70.893368
Quebec,Ferme Paul Massicotte & Fils Inc.(Massibec),"Champlain, QC G0X 1C0",2,Primary Agriculture,8431,General farm workers,46.46682,-72.380759
Quebec,Ferme Porcer enr.,"St-Étienne-de-Beauharnois, QC J0S 1S0",1,Primary Agriculture,8431,General farm workers,45.250886,-73.915466
Quebec,Ferme Porc-Saint senc.,"SAINT-FRANÇOIS-XAVIER-DE-BROMPTON, QC J0B 2V0",3,Primary Agriculture,8431,General farm workers,45.504524,-72.112786
Quebec,Ferme Quecy inc.,"ST-ISIDORE, QC G0S 2S0",1,Primary Agriculture,8431,General farm workers,46.294643,-70.873676
Quebec,Ferme R Legault 2001 Inc.,"St-Eustache, QC J7R 0E2",5,Primary Agriculture,8431,General farm workers,45.557302,-73.9463443
Quebec,Ferme R. Bordeleau inc,"Clerval, QC J0Z 1R0",3,Primary Agriculture,8431,General farm workers,48.748674,-79.288931
Quebec,Ferme R. Kundert inc.,"Bécancour, QC G9H 4E6",1,Primary Agriculture,8431,General farm workers,46.366594,-72.296879
Quebec,FERME R.D.S. INC.,"Saint-Flavien, QC G0S 2M0",2,Primary Agriculture,8431,General farm workers,46.486178,-72.03479
Quebec,Ferme Racine et Fils SENC,"Dunham, QC J0E 1M0",3,Primary Agriculture,8431,General farm workers,45.18365,-72.83659
Quebec,Ferme Raymond Coutu et Fils senc,"ST-THOMAS, QC J0K 3L0",1,Primary Agriculture,8431,General farm workers,46.012426,-73.355485
Quebec,Ferme Raymond Meunier & fils S.E.N.C.,"Richelieu, QC J3L 6R3",2,Primary Agriculture,8431,General farm workers,45.366657,-73.222149
Quebec,Ferme Régil Inc.,"SALABERRY-DE-VALLEYFIELD, QC J6S 5P9",13,Primary Agriculture,8431,General farm workers,45.267409,-74.143086
Quebec,Ferme Rémillard et Tisseur Inc.,"St-Michel, QC J0L 2J0",1,Primary Agriculture,8431,General farm workers,45.346674,-73.436841
Quebec,Ferme René Gauthier inc.,"Ste-Irénée, QC G0T 1V0",1,Primary Agriculture,8431,General farm workers,47.52949,-70.219974
Quebec,Ferme Retoma Inc.,"Saint-Blaise-sur-Richelieu, QC J0J 1W0",2,Primary Agriculture,8431,General farm workers,45.195559,-73.263154
Quebec,Ferme Rhetaise Inc.,"Nicolet, QC J3T 1T5",1,Primary Agriculture,8431,General farm workers,46.224834,-72.626256
Quebec,Ferme Richard Desmarais & Filles Inc.,"Notre-Dame-de-Lourdes, QC J0K 1K0",8,Primary Agriculture,8431,General farm workers,46.06979,-73.420544
Quebec,Ferme Riviera Poirier inc.,"Sainte-Élisabeth, QC J0K 2J0",1,Primary Agriculture,8431,General farm workers,46.154859,-73.427218
Quebec,Ferme Rochalain Inc.,"St-Albert, QC J0A 1E0",3,Primary Agriculture,8431,General farm workers,46.010673,-72.076606
Quebec,Ferme Rocheleau Inc.,"Pont-Rouge, QC G3H 1C5",2,Primary Agriculture,8431,General farm workers,46.73572,-71.773177
Quebec,Ferme Rochon et Frère Inc.,"Mirabel, QC J7N 2R9",4,Primary Agriculture,8431,General farm workers,45.573099,-74.058021
Quebec,Ferme Royaula enr.,"Tring-Jonction, QC G0N 1X0",1,Primary Agriculture,8431,General farm workers,46.26867,-70.99654
Quebec,Ferme Rubis sur l'eau senc.,"Sainte-Sophie d'Halifax, QC G0P 1L0",4,Primary Agriculture,8431,General farm workers,46.153275,-71.707873
Quebec,Ferme Ruel & Fils Inc,"Saint-Gervais, QC G0R 3C0",1,Primary Agriculture,8431,General farm workers,46.715474,-70.886903
Quebec,Ferme S.C.H. Inc.,"Saint-Charles-sur-Richelieu, QC J0H 2G0",1,Primary Agriculture,8431,General farm workers,45.632639,-73.131755
Quebec,Ferme Saniben inc.,"St-François-de-la-Rivière-sud, QC G0R 3A0",1,Primary Agriculture,8252,"Agricultural service contractors, farm supervisors and specialized livestock workers",46.671567,-71.110015
Quebec,Ferme Si-An-Ol 2017 Inc.,"Ste-Sophie-de-Lévrard, QC G0X 3C0",1,Primary Agriculture,8431,General farm workers,46.444012,-72.136434
Quebec,Ferme Simon Lavallée,"Saint-Aimé, QC J0G 1K0",8,Primary Agriculture,8431,General farm workers,45.855400,-72.976866
Quebec,Ferme Sophie Caussignac et Serge Archambault SENC,"St-Antoine-sur-Richelieu, QC J0L 1R0",10,Primary Agriculture,8431,General farm workers,45.778034,-73.222125
Quebec,Ferme Speedo Inc.,"Victoriaville, QC G6T 0A9",1,Primary Agriculture,8431,General farm workers,46.097786,-71.990248
Quebec,Ferme St-Élie,"Sherbrooke, QC J1L 2L3",9,Primary Agriculture,8431,General farm workers,45.399001,-71.954993
Quebec,Ferme Stéphane Wolfe Inc.,"St-Jacques, QC J0K 2R0",12,Primary Agriculture,8431,General farm workers,45.967496,-73.566293
Quebec,Ferme Ste-Sophie Inc.,"Ste-Sophie-de-Levrard, QC G0X 3C0",2,Primary Agriculture,8431,General farm workers,46.444012,-72.136434
Quebec,Ferme Sylgo senc,"Saint-Raphaël, QC G0R 4C0",1,Primary Agriculture,8431,General farm workers,46.742379,-70.789009
Quebec,Ferme Sylvain et Pascal Vincent Inc.,"Franklin, QC J0S 1E0",1,Primary Agriculture,8431,General farm workers,45.02937,-73.92373
Quebec,Ferme Sylvain Jolicoeur,"Saint-Jacques, QC J0K 2R0",12,Primary Agriculture,8431,General farm workers,45.967496,-73.566293
Quebec,Ferme Tournesol,"Ste-Anne-de-la Pérade, QC G0X 2J0",5,Primary Agriculture,8431,General farm workers,46.5834007263184,-72.1990966796875
Quebec,Ferme Valupierre Inc.,"St-Laurent I.O., QC G0A 3Z0",3,Primary Agriculture,8431,General farm workers,46.860509,-71.014815
Quebec,Ferme Vianney et Marguerite Turcot Inc.,"St-André Avellin, QC J0V 1W0",2,Primary Agriculture,8431,General farm workers,45.671438,-75.020054
Quebec,Ferme Vie-Belle Inc.,"Matane, QC G4W 9G8",1,Primary Agriculture,8431,General farm workers,48.79608,-67.472852
Quebec,Ferme Yari inc,"Ste-Croix, QC G0S 2H0",1,Primary Agriculture,8431,General farm workers,46.621806,-71.737168
Quebec,Ferme YM Lacasse senc,"Rouyn-Noranda, QC J0Z 1S0",3,Primary Agriculture,8431,General farm workers,47.993412,-79.113438
Quebec,Ferme Yves Croteau & fils inc.,"Upton, QC J0H 2E0",1,Primary Agriculture,8431,General farm workers,45.64189,-72.671958
Quebec,Ferme Yvon Boyer Inc.,"St-Michel, QC J0L 2J0",5,Primary Agriculture,8431,General farm workers,45.346674,-73.436841
Quebec,Ferme Yvon Richard et Fils inc.,"Pont-Rouge, QC G3H 1C5",1,Primary Agriculture,8431,General farm workers,46.73572,-71.773177
Quebec,Fermes Denis Lauzon & Fils Inc.,"St-Eustache, QC J7R 0G4",12,Primary Agriculture,8431,General farm workers,45.5674556,-74.0170924
Quebec,Fermes J.N. Beauchemin & Fils Inc.,"Saint-Ours, QC J0G 1P0",1,Primary Agriculture,8431,General farm workers,45.889498,-73.145833
Quebec,Fermes M & R Guilbault Inc (Les),"Saint-Esprit, QC J0K 2L0",4,Primary Agriculture,8431,General farm workers,45.900074,-73.666056
Quebec,Fermes Trudeau Inc.,"St-Mathieu-de-Beloeil, QC J3G 0E3",30,Primary Agriculture,8431,General farm workers,45.5767022,-73.2460654
Quebec,Fiducie La Belle Alliance,"SHEFFORD, QC J2M 1B2",3,Primary Agriculture,8431,General farm workers,45.326792,-72.551159
Quebec,Florian Robert & Fils Inc,"St-Michel, QC J0L 2J0",6,Primary Agriculture,8431,General farm workers,45.346674,-73.436841
Quebec,Fraisebec Inc.,"Ste-Anne-des-Plaines, QC J0N 1H0",159,Primary Agriculture,8431,General farm workers,45.768594,-73.803746
Quebec,Fraisière Faucher Inc.,"Pont-Rouge, QC G3H 1L2",23,Primary Agriculture,8431,General farm workers,46.763865,-71.649853
Quebec,Fraisière Lemelin SENC,"Saint-François-de-l'Île-d'Orléans, QC G0A 3S0",8,Primary Agriculture,8431,General farm workers,47.001216,-70.813840
Quebec,Fraisière ROU.G.I. et Fils Inc.,"Sainte-Sabine, QC J0J 2B0",10,Primary Agriculture,8431,General farm workers,45.226356,-73.019467
Quebec,Fruits et Légumes R.G. Inc.,"L'ISLET, QC G0R 1X0",9,Primary Agriculture,8431,General farm workers,47.083705,-70.292884
Quebec,G Locas et frères Inc,"SAINT-ROCH-DE-L'ACHIGAN, QC J0K 3H0",3,Primary Agriculture,8431,General farm workers,45.848711,-73.623247
Quebec,G Ouimet et Fils Inc,"Laval, QC H7E 4P2",9,Primary Agriculture,8431,General farm workers,45.662554,-73.639184
Quebec,Gazon Laurendeau Inc,"Maskinongé, QC J0K 1N0",2,Primary Agriculture,8431,General farm workers,46.265155,-73.002647
Quebec,Gazonnière Bastien & Fils Inc.,"Terrebonne, QC J6X 0B2",5,Primary Agriculture,8431,General farm workers,45.7416214,-73.7206476
Quebec,Gazonnière Lavaltrie Inc.,"Lavaltrie, QC J5T 3P3",5,Primary Agriculture,8431,General farm workers,45.922097,-73.345671
Quebec,Gérard Asselin & Fils Ltée,"Notre-Dame-de-Lourdes, QC J0K 1K0",4,Primary Agriculture,8431,General farm workers,46.06979,-73.420544
Quebec,Gestion G.R.Y.N. Gilbert Inc,"Ste-Clotilde, QC G0N 1C0",16,Primary Agriculture,8431,General farm workers,46.218009,-71.07553
Quebec,GREENASIA enr.,"Ste-Martine, QC J0S 1V0",2,Primary Agriculture,8431,General farm workers,45.260161,-73.792344
Quebec,Groupe Fleurineau inc,"Laval, QC H7X 4A8",1,Primary Agriculture,8431,General farm workers,45.53251,-73.839238
Quebec,Groupe Lieutenant Inc.,"Stoke, QC J0B 3G0",1,Primary Agriculture,8431,General farm workers,45.570049,-71.767395
Quebec,Groupe Rouge et Or SENC,"Sainte-Sophie-d'Halifax, QC G0P 1L0",3,Primary Agriculture,8431,General farm workers,46.153275,-71.707873
Quebec,Guérin & Frères 2000 Inc.,"St-Michel, QC J0L 2J0",8,Primary Agriculture,8431,General farm workers,45.346674,-73.436841
Quebec,Guinois & Frères Ltée,"St-Isidore, QC J0L 2A0",48,Primary Agriculture,8431,General farm workers,45.304769,-73.697619
Quebec,Hydroserre Inc.,"Mirabel, QC J7N 2H4",26,Primary Agriculture,8432,Nursery and greenhouse workers,45.638259,-74.025178
Quebec,Intermiel Inc.,"Mirabel, QC J7N 3M3",1,Primary Agriculture,8431,General farm workers,45.565314,-74.078302
Quebec,Isabelle Inc.,"St-Michel, QC J0L 2J0",14,Primary Agriculture,8431,General farm workers,45.346674,-73.436841
Quebec,Ivanhoé Faille,"Franklin, QC J0S 1E0",2,Primary Agriculture,8431,General farm workers,45.02937,-73.92373
Quebec,J. + L. Faille Senc.,"Franklin, QC J0S 1E0",24,Primary Agriculture,8431,General farm workers,45.02937,-73.92373
Quebec,J.J. Croteau Inc.,"Saint-Fortunat, QC G0P 1G0",5,Primary Agriculture,8432,Nursery and greenhouse workers,46.004598,-71.64606
Quebec,Jacques et Ginette Trépanier et Fils senc.,"Papineauville, QC J0V 1R0",1,Primary Agriculture,8431,General farm workers,45.710868,-74.969281
Quebec,Jardin Dion Inc.,"Ste-Thérèse, QC J7E 2A9",2,Primary Agriculture,8432,Nursery and greenhouse workers,45.6419861,-73.8525729
Quebec,Jardin Hamel Inc.,"L'ancienne-Lorette, QC G2E 2H3",3,Primary Agriculture,8431,General farm workers,46.800565,-71.337059
Quebec,Jardin Jouvence inc.,"Québec, QC G2G 2R2",3,Primary Agriculture,8432,Nursery and greenhouse workers,46.775758,-71.359647
Quebec,Jardinier Huard Inc.,"Saint-Joseph, QC G0S 2V0",6,Primary Agriculture,8431,General farm workers,46.313856,-70.872211
Quebec,Jardinier Rolland Legault & fils Inc.,"Côteau-du-Lac, QC J0P 1B0",10,Primary Agriculture,8431,General farm workers,45.31485,-74.19325
Quebec,Jardins D. Pro inc.,"Sainte-Clotilde, QC J0L 1W0",12,Primary Agriculture,8431,General farm workers,45.1579093933105,-73.6762390136719
Quebec,Jardins Purdélys inc.,"St-Isidore, QC J0L 2A0",61,Primary Agriculture,8431,General farm workers,45.304769,-73.697619
Quebec,Jardissimo inc.,"Prévost, QC J0R 1T0",2,Primary Agriculture,8432,Nursery and greenhouse workers,45.880444,-74.032842
Quebec,JPL Maraîcher inc.,"Saint-Anselme, QC G0R 2N0",2,Primary Agriculture,8431,General farm workers,46.64819,-70.99023
Quebec,JUDE-POMME SENC,"Oka, QC J0N 1E0",2,Primary Agriculture,8431,General farm workers,45.496258,-74.140595
Quebec,Kildare I Inc.,"St-Ambroise-de-Kildare, QC J0K 1C0",1,Primary Agriculture,8431,General farm workers,46.08624,-73.613472
Quebec,La Cannebergière SENC,"Laurierville, QC G0S 1P0",3,Primary Agriculture,8431,General farm workers,46.347413,-71.699516
Quebec,La compagnie d'arbres Patrick F. Downey inc.,"Sherbrooke, QC J1M 1Z3",7,Primary Agriculture,8432,Nursery and greenhouse workers,45.307256,-71.829763
Quebec,La Ferme A & R Turcot Senc,"Saint-Roch-de l'Achigan, QC J0K 3H0",10,Primary Agriculture,8431,General farm workers,45.848711,-73.623247
Quebec,La Ferme Bryhill inc.,"Ormstown, QC J0S 1K0",1,Primary Agriculture,8431,General farm workers,45.122858,-74.018803
Quebec,La Ferme Mar-Jo Senc,"ST-EUSTACHE, QC J7R 0A2",4,Primary Agriculture,8431,General farm workers,45.543968,-73.905692
Quebec,La Ferme Perron,"Saint-Jacques, QC J0K 2R0",6,Primary Agriculture,8431,General farm workers,45.967496,-73.566293
Quebec,La Fruiterie Champêtre Inc.,"Stanbridge-East, QC J0J 2H0",4,Primary Agriculture,8431,General farm workers,45.08633,-72.9008
Quebec,La Légumière Y.C. Inc.,"St-Rémi, QC J0L 2L0",59,Primary Agriculture,8431,General farm workers,45.205117,-73.653262
Quebec,La perle rouge Inc,"Trois-Rivière, QC G8V 2R6",2,Primary Agriculture,8431,General farm workers,46.379713,-72.499318
Quebec,La Plantation du Pinacle inc,"Coaticook, QC J1A 2S8",16,Primary Agriculture,8432,Nursery and greenhouse workers,45.131814,-71.792749
Quebec,La Production Barry inc,"Sherrington, QC J0L 2N0",27,Primary Agriculture,8431,General farm workers,45.156582,-73.508952
Quebec,La Récolte des Cantons,"Bromont, QC J2L 2Z9",1,Primary Agriculture,8431,General farm workers,45.299241,-72.791786
Quebec,La Seigneurie de l'Île d'Orléans inc.,"Saint-François de l'Île d'Orléans, QC G0A 3S0",2,Primary Agriculture,8431,General farm workers,47.001216,-70.813840
Quebec,La Terre Ferme,"Sainte-Julienne, QC J0K 2T0",2,Primary Agriculture,8431,General farm workers,45.956787,-73.706118
Quebec,L'arc-en-ciel du paradis,"CAP-SANTÉ, QC G0A 1L0",1,Primary Agriculture,8431,General farm workers,46.66989,-71.7747
Quebec,Law Pre inc.,"Hinchinbrooke, QC J0S 1E0",2,Primary Agriculture,8431,General farm workers,45.02937,-73.92373
Quebec,Le Jardin des Chefs Inc.,"Les Éboulements, QC G0A 2M0",4,Primary Agriculture,8431,General farm workers,47.465175,-70.337958
Quebec,Le jardinier de la Presqu'ile senc,"Saint-Damase, QC J0H 1J0",4,Primary Agriculture,8431,General farm workers,45.711236,-72.73277
Quebec,Le Maraîcher A. Barbeau & Fils Inc,"St-Michel, QC J0L 2J0",44,Primary Agriculture,8431,General farm workers,45.346674,-73.436841
Quebec,Le Potager Eardley Inc,"Gatineau, QC J9J 2Y9",4,Primary Agriculture,8431,General farm workers,45.4162216,-75.8808382
Quebec,Le Potager Grandmont Inc.,"ST-GÉDÉON, QC G0W 2P0",5,Primary Agriculture,8431,General farm workers,48.481068,-71.788289
Quebec,Le Potager Montréalais Ltée,"Ste-Clotilde, QC J0L 1W0",30,Primary Agriculture,8431,General farm workers,45.1579093933105,-73.6762390136719
Quebec,Le Potager Riendeau Inc.,"St-Rémi, QC J0L 2L0",50,Primary Agriculture,8431,General farm workers,45.205117,-73.653262
