Province,Employer,Address,Positions,Stream,NOC 2011,NOC Name,Incorporated Status,Approved LMIA,Latitude,Longitude
Newfoundland and Labrador,85242 Newfoundland and Labrador Inc.,"Spaniard's Bay, NL A0A 3X0",1,High Wage,7204,"Contractors and supervisors, carpentry trades",Unknown,1,47.61295,-53.376104
Newfoundland and Labrador,85242 Newfoundland and Labrador Inc.,"Spaniard's Bay, NL A0A 3X0",2,High Wage,7251,Plumbers,Unknown,1,47.61295,-53.376104
Newfoundland and Labrador,Blanchard's Heating & Cooling Ltd.,"Corner Brook, NL A2H 4C4",1,High Wage,7313,Refrigeration and air conditioning mechanics,Unknown,1,48.9506934,-57.9539679
Newfoundland and Labrador,Christopher's Trucking,"Forteau, NL A0K 2P0",2,High Wage,7511,Transport truck drivers,Unknown,1,51.480806,-56.954241
Newfoundland and Labrador,Grieg Seafarms NL Ltd.,"St Alban's, NL A0H 2E0",2,High Wage,0823,Managers in aquaculture,Unknown,2,47.85774,-55.83966
Newfoundland and Labrador,PROMINENT TRANSPORTATION INC,"BISHOP'S FALLS, NL A0H 1C0",1,High Wage,0731,Managers in transportation,Unknown,1,49.010570526123,-55.4957237243652
Newfoundland and Labrador,10565 NFLD Inc,"Happy Valley-Goose Bay, NL A0P 1C0",2,Low Wage,6312,Executive housekeepers,Unknown,1,53.308255,-60.378852
Newfoundland and Labrador,10565 NFLD Inc,"Happy Valley-Goose Bay, NL A0P 1C0",2,Low Wage,6711,"Food counter attendants, kitchen helpers and related support occupations",Unknown,1,53.308255,-60.378852
Newfoundland and Labrador,12924692 Canada Inc.,"Cormack, NL A8A 2S3",2,Low Wage,6211,Retail sales supervisors,Unknown,1,49.306262,-57.389198
Newfoundland and Labrador,72764 Newfoundland and Labrador Ltd.,"Springdale, NL A0J 1T0",2,Low Wage,6322,Cooks,Unknown,1,49.5340194702148,-56.191593170166
Newfoundland and Labrador,72764 Newfoundland and Labrador Ltd.,"Springdale, NL A0J 1T0",1,Low Wage,6711,"Food counter attendants, kitchen helpers and related support occupations",Unknown,1,49.5340194702148,-56.191593170166
Newfoundland and Labrador,76361 NL Inc.,"Deer Lake, NL A8A 1E6",3,Low Wage,6311,Food service supervisors,Unknown,1,49.17559,-57.4319
Newfoundland and Labrador,Baba Q's Smoke & Grill Restaurant Ltd,"Labrador City, NL A2V 1G1",6,Low Wage,6513,Food and beverage servers,Unknown,1,52.9409516,-66.9069831
Newfoundland and Labrador,Bishops College General Partner Inc.,"St. John's, NL A1C 2L6",3,Low Wage,4412,"Home support workers, housekeepers and related occupations",Unknown,1,47.561152,-52.723026
Newfoundland and Labrador,Burton's Adventure Ltd,"St John's, NL A1H 1A1",3,Low Wage,6711,"Food counter attendants, kitchen helpers and related support occupations",Unknown,1,47.4933062,-52.8154921
Newfoundland and Labrador,Chadwick Limited,"Corner Brook, NL A2H 4B5",2,Low Wage,6711,"Food counter attendants, kitchen helpers and related support occupations",Unknown,1,48.9521269,-57.9534349
Newfoundland and Labrador,CRB Supermarket & Deli (2020) Ltd.,"North West River, NL A0P 1M0",2,Low Wage,6611,Cashiers,Unknown,1,53.527559,-60.142786
Newfoundland and Labrador,CRB Supermarket & Deli (2020) Ltd.,"North West River, NL A0P 1M0",1,Low Wage,6622,"Store shelf stockers, clerks and order fillers",Unknown,1,53.527559,-60.142786
Newfoundland and Labrador,Gary's Convenience Limited,"Glovertown, NL A0G 2L0",2,Low Wage,6311,Food service supervisors,Unknown,1,48.666843,-54.045243
Newfoundland and Labrador,Gary's Convenience Limited,"Glovertown, NL A0G 2L0",2,Low Wage,6711,"Food counter attendants, kitchen helpers and related support occupations",Unknown,1,48.666843,-54.045243
Newfoundland and Labrador,Golden Shell Fisheries (2014) Limited,"Hickman's Harbour, NL A0C 1P0",20,Low Wage,9463,Fish and seafood plant workers,Unknown,1,48.102681,-53.744284
Newfoundland and Labrador,Height of Land Hotel Inc.,"CHURCHILL FALLS, NL A0R 1A0",2,Low Wage,6322,Cooks,Unknown,1,53.532852,-64.014524
Newfoundland and Labrador,J.Co Holdings Inc.,"St. John's, NL A1B 3R2",2,Low Wage,6322,Cooks,Unknown,1,47.557006,-52.760948
Newfoundland and Labrador,PDLC Enterprises Inc,"Labrador City, NL A2V 2K7",4,Low Wage,6322,Cooks,Unknown,1,52.940932,-66.92406
Newfoundland and Labrador,Quinlan Brothers Ltd.,"Bay de Verde, NL A0A 1E0",125,Low Wage,9463,Fish and seafood plant workers,Unknown,1,48.086656,-52.894291
Newfoundland and Labrador,Quin-Sea Fisheries,"St. John's, NL A1B 4B4",70,Low Wage,9618,Labourers in fish and seafood processing,Unknown,2,47.558051,-52.741126
Newfoundland and Labrador,Sunnyslope Foods Inc,"Torbay, NL A1K 1G3",1,Low Wage,6711,"Food counter attendants, kitchen helpers and related support occupations",Unknown,1,47.646658,-52.770851
Newfoundland and Labrador,TORBAY FUN FOODS LTD,"ST. JOHN'S, NL A1A 5B2",1,Low Wage,6322,Cooks,Unknown,1,47.595159,-52.708363
Newfoundland and Labrador,TORBAY FUN FOODS LTD,"ST. JOHN'S, NL A1A 5B2",2,Low Wage,6711,"Food counter attendants, kitchen helpers and related support occupations",Unknown,1,47.595159,-52.708363
Newfoundland and Labrador,Yellow Belly Brewery Ltd.,"St. John's, NL A1C 5J9",12,Low Wage,6322,Cooks,Unknown,1,47.506573,-52.78193
Newfoundland and Labrador,Kent Fudge,"Grand Falls-Windsor, NL A2A 2J7",1,Primary Agriculture,8431,General farm workers,Unknown,1,48.948016,-55.676478
Newfoundland and Labrador,Lester's Farm Market,"St. John's, NL A1E 6J4",9,Primary Agriculture,8431,General farm workers,Unknown,1,47.5204756,-52.766562
Newfoundland and Labrador,New World Dairy Inc,"St. David's, NL A0N 1X0",10,Primary Agriculture,8431,General farm workers,Unknown,1,48.160518,-58.815081
Newfoundland and Labrador,Ocean View Farm,"Bay Bulls, NL A0A 1C0",2,Primary Agriculture,8252,"Agricultural service contractors, farm supervisors and specialized livestock workers",Unknown,1,47.403988,-52.79987
Newfoundland and Labrador,North Star Payroll,"St. John's, NL A1A 1B3",1,Global Talent Stream,2173,Software engineers and designers,Unknown,1,47.5727766,-52.6937633
Prince Edward Island,Core-life Construction Company Ltd,"Montague, PE C0A 1R0",1,High Wage,7271,Carpenters,Unknown,1,46.1637,-62.64674
Prince Edward Island,Seafood Express (PEI) Limited,"Charlottetown, PE C1E 3M9",14,High Wage,7511,Transport truck drivers,Unknown,1,46.2820365,-63.1476441
Prince Edward Island,101775 PEI Inc.,"Charlottetown, PE C1A 4B1",1,Low Wage,6322,Cooks,Unknown,1,46.233243,-63.12659
Prince Edward Island,101872P.E.I. INC,"Margate, PE C0B 1M0",1,Low Wage,4412,"Home support workers, housekeepers and related occupations",Unknown,1,46.43789,-63.63458
Prince Edward Island,ACADIAN SUPREME INC.,"Wellington, PE C0B 2E0",30,Low Wage,9463,Fish and seafood plant workers,Unknown,1,46.450806,-63.99892
Prince Edward Island,ADEEM Management Inc,"Charlottetown, PE C1A 0C9",1,Low Wage,6311,Food service supervisors,Unknown,1,46.247894,-63.120275
Prince Edward Island,ADEEM Management Inc,"Charlottetown, PE C1A 0C9",1,Low Wage,6322,Cooks,Unknown,1,46.247894,-63.120275
Prince Edward Island,AG Vest Inc,"Kensington, PE C0B 1M0",1,Low Wage,7271,Carpenters,Unknown,1,46.43789,-63.63458
Prince Edward Island,AgraWest Foods Ltd,"SOURIS, PE C0A 2B0",12,Low Wage,9617,"Labourers in food, beverage and associated products processing",Unknown,1,46.354047,-62.25215
Prince Edward Island,BEACH POINT PROCESSING COMPANY,"Beach Point, PE C0A 1V0",130,Low Wage,9463,Fish and seafood plant workers,Unknown,2,46.002798,-62.519557
Prince Edward Island,Belle River Enterprises Ltd,"Belle River, PE C0A 1B0",12,Low Wage,9463,Fish and seafood plant workers,Unknown,1,45.9791603088379,-62.8373565673828
Prince Edward Island,Bombay Cuisine Inc,"Charlottetown, PE C1A 4M8",1,Low Wage,6322,Cooks,Unknown,1,46.2419168,-63.132249
Prince Edward Island,Cedar Foods (2010) Limited Cedar's Eatery,"Charlottetown, PE C1A 4L1",1,Low Wage,6322,Cooks,Unknown,1,46.235994,-63.12763
Prince Edward Island,Charlottetown Fresh Casual Restaurants Inc.,"Charlottetown, PE C1A 4M9",2,Low Wage,0631,Restaurant and food service managers,Unknown,1,46.24286,-63.1328575
Prince Edward Island,D.L. MCQUAID HOLDINGS SUMMERSIDE INC.,"SUMMERSIDE, PE C1N 4P7",1,Low Wage,6611,Cashiers,Unknown,1,46.413383,-63.78163
Prince Edward Island,D.L. MCQUAID HOLDINGS SUMMERSIDE INC.,"SUMMERSIDE, PE C1N 4P7",2,Low Wage,6711,"Food counter attendants, kitchen helpers and related support occupations",Unknown,1,46.413383,-63.78163
Prince Edward Island,North Lake Fisheries (2013) Inc.,"Elmira, PE C0A 1K0",100,Low Wage,9463,Fish and seafood plant workers,Unknown,2,46.449397,-62.123169
Prince Edward Island,Piccottcare Familia Services Inc.,"Charlottetown, PE C1A 0E3",3,Low Wage,6731,Light duty cleaners,Unknown,2,46.2365989685059,-63.1281394958496
Prince Edward Island,"Quality Inn & Suites, Summerside","SUMMERSIDE, PE C1N 4H7",2,Low Wage,6731,Light duty cleaners,Unknown,1,46.40051,-63.75249
Prince Edward Island,Royal Star Foods Ltd,"Tignish, PE C0B 2B0",90,Low Wage,9463,Fish and seafood plant workers,Unknown,1,46.9756355285645,-64.0738525390625
Prince Edward Island,Seafood 2000 Ltd.,"Georgetown, PE C0A 1L0",86,Low Wage,9463,Fish and seafood plant workers,Unknown,1,46.185653,-62.522954
Prince Edward Island,SOURIS THAI FOOD TAKE OUT & RESTAURANT,"SOURIS, PE C0A 2B0",1,Low Wage,6322,Cooks,Unknown,1,46.354047,-62.25215
Prince Edward Island,100556 P.E.I. INC. G W.& R Visser Farms,"Vernon Bridge, PE C0A 2E0",4,Primary Agriculture,8431,General farm workers,Unknown,1,46.179,-62.884
Prince Edward Island,14188977 Canada Inc.,"Murray River, PE C0A  1W",2,Primary Agriculture,8252,"Agricultural service contractors, farm supervisors and specialized livestock workers",Corporation,1,,
Prince Edward Island,14188977 Canada Inc.,"Murray River, PE C0A  1W",16,Primary Agriculture,8431,General farm workers,Corporation,1,,
Prince Edward Island,Atlantic Grown Organics Inc,"Spring Valley, PE C0B 1M0",2,Primary Agriculture,0822,Managers in horticulture,Unknown,1,46.43789,-63.63458
Prince Edward Island,Atlantic Grown Organics Inc,"Spring Valley, PE C0B 1M0",2,Primary Agriculture,8255,"Contractors and supervisors, landscaping, grounds maintenance and horticulture services",Unknown,1,46.43789,-63.63458
Prince Edward Island,Atlantic Grown Organics Inc,"Spring Valley, PE C0B 1M0",8,Primary Agriculture,8432,Nursery and greenhouse workers,Unknown,1,46.43789,-63.63458
Prince Edward Island,Brookfield Gardens Inc,"Brookfield, PE C0A 1Y0",6,Primary Agriculture,8431,General farm workers,Unknown,1,46.203797,-63.266232
Prince Edward Island,Carruthers Farms Ltd,"Hamilton, PE C0B 1M0",3,Primary Agriculture,8431,General farm workers,Unknown,1,46.43789,-63.63458
Prince Edward Island,Eastern Exporters Limited,"SOURIS, PE C0A 2B0",2,Primary Agriculture,8431,General farm workers,Unknown,1,46.354047,-62.25215
Prince Edward Island,FORTUNE BRIDGE FARMS,"SOURIS, PE C0A 2B0",3,Primary Agriculture,8611,Harvesting labourers,Unknown,1,46.354047,-62.25215
Prince Edward Island,Havenlee Farms Inc.,"Summerside, PE C1N 4J9",2,Primary Agriculture,8431,General farm workers,Unknown,1,46.39208,-63.740224
Prince Edward Island,Mackenzie Produce,"Stratford, PE C1B 2R7",10,Primary Agriculture,8431,General farm workers,Unknown,2,46.216002,-63.053993
Prince Edward Island,McCardle Bros,"Kinkora, PE C0B 1N0",7,Primary Agriculture,8431,General farm workers,Unknown,2,46.344061,-63.548072
Prince Edward Island,Morley C. Wood and Sons Inc.,"Albany, PE C0B 1A0",2,Primary Agriculture,8431,General farm workers,Unknown,1,46.318197,-63.558561
Prince Edward Island,Nobra Holsteins Inc.,"Irishtown, PE C0B 1M0",3,Primary Agriculture,8431,General farm workers,Unknown,1,46.43789,-63.63458
Prince Edward Island,Verdant LLC,"Cardigan, PE C0A 1G0",4,Primary Agriculture,8431,General farm workers,Unknown,1,46.23224,-62.6332767
Prince Edward Island,Victoria Potato Farm Inc.,"Crapaud, PE C0A 1J0",5,Primary Agriculture,8431,General farm workers,Unknown,1,46.24001,-63.50021
Prince Edward Island,Iron Fox Games Inc.,"Charlottetown, PE C1C 1R4",1,Global Talent Stream,5131,"Producers, directors, choreographers and related occupations",Corporation,1,46.258585,-63.135649
Prince Edward Island,Tethys Aquaculture Canada Inc.,"SOURIS, PE C0A 2B0",1,Global Talent Stream,2121,Biologists and related scientists,Unknown,1,46.354047,-62.25215
Nova Scotia,3094037 Nova Scotia Limited,"Bedford, NS B4A 3Y4",1,High Wage,6321,Chefs,Unknown,1,44.733105,-63.655979
Nova Scotia,3287666 Nova Scotia Limited,"Halifax, NS B3H 4M2",1,High Wage,6211,Retail sales supervisors,Unknown,1,44.6379296,-63.5739496
Nova Scotia,3287893 Nova Scotia Limited,"HALIFAX, NS B3J 0J1",1,High Wage,1311,Accounting technicians and bookkeepers,Unknown,1,44.6410581,-63.5791516
Nova Scotia,3311051 Nova Scotia Ltd.,"HALIFAX, NS B3J 2G7",1,High Wage,1121,Human resources professionals,Unknown,1,44.649349,-63.578146
Nova Scotia,3316491 Nova Scotia Limited,"Halifax, NS B3J 1Z4",1,High Wage,1221,Administrative officers,Unknown,1,44.644785,-63.572806
Nova Scotia,4344953 NOVA SCOTIA LIMITED,"Hammonds Plains, NS B4B 0A6",1,High Wage,1241,Administrative assistants,Unknown,1,44.734087,-63.800164
Nova Scotia,Adda Indian Eatery INC.,"Halifax, NS B3J 3M7",1,High Wage,0631,Restaurant and food service managers,Unknown,1,44.642749,-63.577974
Nova Scotia,Amherst Pizza & Donair,"Amherst, NS B4X 2H2",2,High Wage,6711,"Food counter attendants, kitchen helpers and related support occupations",Unknown,1,,
Nova Scotia,ATLANTIC GATEWAY NETWORK INC.,"HALIFAX, NS B3M 0P1",2,High Wage,5122,Editors,Unknown,1,44.7038227,-63.70461
Nova Scotia,Axis Specialty Canada Services ULC,"Halifax, NS B3J 0E8",1,High Wage,2173,Software engineers and designers,Corporation,1,44.6459292,-63.5749077
Nova Scotia,Beaver Creek Winnery Limited,"Lawrencetown, NS B0S 1M0",1,High Wage,1311,Accounting technicians and bookkeepers,Unknown,1,44.891613,-65.06213
Nova Scotia,Bluewater Recycling Inc,"Bedford, NS B4B 1G8",1,High Wage,1524,Purchasing and inventory control workers,Unknown,1,44.72527,-63.707878
Nova Scotia,Butterfield Support Services (Halifax) Limited,"Halifax, NS B3J 3M8",1,High Wage,2171,Information systems analysts and consultants,Corporation,1,44.647395,-63.5727
Nova Scotia,Captain Atlantic International Trade Co. Ltd.,"Shag Harbour,, NS B0W 3B0",1,High Wage,7305,"Supervisors, motor transport and other ground transit operators",Unknown,1,43.506114,-65.718791
Nova Scotia,CHAPMAN AUTO BODY LTD.,"HALIFAX, NS B3K 4C2",4,High Wage,7322,Motor vehicle body repairers,Unknown,2,44.6536405,-63.591112
Nova Scotia,Comfort Orthotics & Podiatry Clinic Inc.,"Bedford, NS B4A 3Y4",1,High Wage,3125,Other professional occupations in health diagnosing and treating,Unknown,1,44.733105,-63.655979
Nova Scotia,Darim Masonry LTD,"Bedford, NS B4A 2T6",3,High Wage,7281,Bricklayers,Unknown,1,44.740514,-63.643107
Nova Scotia,DOCMATION CANADA ULC,"Halifax, NS B3M 2L8",1,High Wage,1121,Human resources professionals,Unknown,1,44.693973,-63.660842
Nova Scotia,Elements Metal Roof,"WILLIAMSWOOD, NS B3V 1N9",1,High Wage,7291,Roofers and shinglers,Unknown,1,44.529731,-63.645201
Nova Scotia,Fares & Co. Development Inc.,"Dartmouth, NS B2Y 0B4",1,High Wage,7204,"Contractors and supervisors, carpentry trades",Unknown,1,44.6666959,-63.547167
Nova Scotia,Fares & Co. Development Inc.,"Dartmouth, NS B2Y 0B4",12,High Wage,7271,Carpenters,Unknown,2,44.6666959,-63.547167
Nova Scotia,Fares & Co. Development Inc.,"Dartmouth, NS B2Y 0B4",1,High Wage,7371,Crane operators,Unknown,1,44.6666959,-63.547167
Nova Scotia,Halifax Tower Hotel Ltd.,"Halifax, NS B3S 1A2",2,High Wage,6525,Hotel front desk clerks,Unknown,1,44.645251,-63.667365
Nova Scotia,Hold Settlement Service Ltd.,"Halifax, NS B3N 2C4",1,High Wage,1241,Administrative assistants,Unknown,1,44.658949,-63.632787
Nova Scotia,Independent Fisheries Limited,"Sable River, NS B0T 1V0",1,High Wage,1215,"Supervisors, supply chain, tracking and scheduling co",Unknown,1,43.834296,-65.058189
Nova Scotia,Innovasea Marine Systems Canada Inc.,"Bedford, NS B4B 0L9",1,High Wage,0823,Managers in aquaculture,Unknown,1,44.734231,-63.748855
Nova Scotia,Installed Glazing Ltd,"Elmsdale, NS B2S 1A4",4,High Wage,7292,Glaziers,Unknown,1,44.96518,-63.50864
Nova Scotia,Irving Shipbuilding Inc,"Halifax, NS B3K 5M7",2,High Wage,0911,Manufacturing managers,Unknown,2,44.66274,-63.590281
Nova Scotia,Irving Shipbuilding Inc,"Halifax, NS B3K 5M7",2,High Wage,1122,Professional occupations in business management consulting,Unknown,2,44.66274,-63.590281
Nova Scotia,Irving Shipbuilding Inc,"Halifax, NS B3K 5M7",3,High Wage,7242,Industrial electricians,Unknown,1,44.66274,-63.590281
Nova Scotia,Irving Shipbuilding Inc,"Halifax, NS B3K 5M7",4,High Wage,7294,Painters and decorators (except interior decorators),Unknown,1,44.66274,-63.590281
Nova Scotia,Irving Shipbuilding Inc,"Halifax, NS B3K 5M7",3,High Wage,9536,"Industrial painters, coaters and metal finishing process operators",Unknown,1,44.66274,-63.590281
Nova Scotia,Keltic Motors (1978) Limited,"Antigonish, NS B2G 2N8",1,High Wage,0621,Retail and wholesale trade managers,Unknown,1,45.629034,-61.987118
Nova Scotia,Kind Edu Limited,"BEDFORD, NS B4B 2E6",1,High Wage,1241,Administrative assistants,Unknown,1,44.7078571,-63.704372
Nova Scotia,LA CIE MATÉRIAUX DE CONSTRUCTION BP CANADA,"Halifax, NS B3J  0J",1,High Wage,7311,Construction millwrights and industrial mechanics,Corporation,1,,
Nova Scotia,NORTHSTAR TRANSPORT INC,"Dartmouth, NS B3B 1W2",1,High Wage,0016,Senior managers ,Unknown,1,44.698469,-63.580528
Nova Scotia,NORTHSTAR TRANSPORT INC,"Dartmouth, NS B3B 1W2",2,High Wage,1221,Administrative officers,Unknown,1,44.698469,-63.580528
Nova Scotia,P&R IMMIGRATION & RECRUITMENT (NS) INC.,"Dartmouth, NS B3A 4S5",1,High Wage,1221,Administrative officers,Unknown,1,44.6683859,-63.5747546
Nova Scotia,Quality Blasting & Coating Limited,"Dartmouth, NS B2Y 4W6",10,High Wage,9536,"Industrial painters, coaters and metal finishing process operators",Unknown,1,44.6562,-63.539046
Nova Scotia,Ravina Transport Inc.,"Dartmouth, NS B3B 1L7",1,High Wage,1221,Administrative officers,Unknown,1,44.711038,-63.626674
Nova Scotia,Smile House Lab Inc.,"Truro, NS B2N 5A5",2,High Wage,3223,"Dental technologists, technicians and laboratory assistants",Unknown,2,45.350828,-63.293713
Nova Scotia,Sobeys Capital Incorporée,"Stellarton, NS B0K 1S0",1,High Wage,6222,Retail and wholesale buyers,Unknown,1,45.5583249,-62.6623249
Nova Scotia,Sobeys Capital Incorporée,"Stellarton, NS B0K 1S0",6,High Wage,7511,Transport truck drivers,Unknown,1,45.5583249,-62.6623249
Nova Scotia,SOI Trade Inc.,"Bedford, NS B4A 1Z6",1,High Wage,7271,Carpenters,Unknown,1,44.72977,-63.664366
Nova Scotia,VCAN Invesments Inc.,"BEDFORD, NS B4A 1E6",1,High Wage,1241,Administrative assistants,Unknown,1,44.731599,-63.657959
Nova Scotia,Verschuren Centre,"Sydney, NS B1M 1A2",1,High Wage,2112,Chemists,Non-Profit Organization,1,46.1655609,-60.106085
Nova Scotia,3024965 Nova Scotia Ltd,"Greenfield, NS B0T 1E0",1,Low Wage,6211,Retail sales supervisors,Unknown,1,44.197688,-64.946547
Nova Scotia,3099794 Nova Scotia Ltd.,"Enfield, NS B2T 1C8",2,Low Wage,6731,Light duty cleaners,Unknown,1,44.939685,-63.534989
Nova Scotia,3104568 Nova Scotia Limited,"L'Ardoise, NS B0E 1W0",10,Low Wage,9463,Fish and seafood plant workers,Unknown,1,45.580256,-60.736738
Nova Scotia,3211412 Nova Scotia Limited,"Millbrook, NS B6L 1W1",1,Low Wage,6211,Retail sales supervisors,Unknown,1,45.3343269,-63.3043769
Nova Scotia,3286710 Nova Scotia Limited,"Chester, NS B0J 1J0",1,Low Wage,6311,Food service supervisors,Unknown,1,44.560562,-64.225079
Nova Scotia,3287893 Nova Scotia Limited,"HALIFAX, NS B3J 0J1",1,Low Wage,6322,Cooks,Unknown,1,44.6410581,-63.5791516
Nova Scotia,3296210 NOVA SCOTIA LIMITED,"TIMBERLEA, NS B3T 0J1",1,Low Wage,6322,Cooks,Unknown,1,44.6409757,-63.7179161
Nova Scotia,3317019 Nova Scotia limited,"Bridgewater, NS B4V 3T2",1,Low Wage,0631,Restaurant and food service managers,Unknown,1,44.380319,-64.518248
Nova Scotia,3317386 Nova Scotia Limited,"Truro, NS B2N 5B6",3,Low Wage,6322,Cooks,Unknown,2,45.366338,-63.299163
Nova Scotia,3317386 Nova Scotia Limited,"Truro, NS B2N 5B6",1,Low Wage,6731,Light duty cleaners,Unknown,1,45.366338,-63.299163
Nova Scotia,3319720 Nova Scotia Limited,"Sydney, NS B1S 1C6",1,Low Wage,6711,"Food counter attendants, kitchen helpers and related support occupations",Unknown,1,46.11058,-60.220682
Nova Scotia,3320715NS LTD,"dartmouth, NS B2Y 2N7",1,Low Wage,6322,Cooks,Unknown,1,44.664575,-63.568568
Nova Scotia,3322016 Nova Scotia limited,"Bridgewater, NS B4V 1A9",1,Low Wage,6322,Cooks,Unknown,1,44.374803,-64.514661
Nova Scotia,3323091 Nova Scotia Ltd.,"Truro, NS B2N 4Z6",5,Low Wage,6731,Light duty cleaners,Unknown,1,45.359649,-63.290421
Nova Scotia,3324671 Nova Scotia Limited,"Bedford, NS B4A 0C9",2,Low Wage,6322,Cooks,Unknown,1,44.703998,-63.679207
Nova Scotia,3327191 Nova Scotia Limited,"Upper Tantallon, NS B3Z 1E2",1,Low Wage,6322,Cooks,Unknown,1,44.6879635,-63.8757104
Nova Scotia,3330035 Nova Scotia limited.,"Stellarton, NS B0K 1S0",1,Low Wage,1311,Accounting technicians and bookkeepers,Unknown,1,45.5583249,-62.6623249
Nova Scotia,3330035 Nova Scotia limited.,"Stellarton, NS B0K 1S0",2,Low Wage,6211,Retail sales supervisors,Unknown,1,45.5583249,-62.6623249
Nova Scotia,3331445 Nova Scotia Limited,"Halifax, NS B3M 3W8",1,Low Wage,6311,Food service supervisors,Unknown,1,44.673279,-63.664255
Nova Scotia,3332859 Nova Scotia Limited,"Bridgewater, NS B4V 1V8",1,Low Wage,6311,Food service supervisors,Unknown,1,44.37524,-64.532495
Nova Scotia,3334892 NOVA SCOTIA LIMITED,"BEDFORD, NS B4B 2E6",1,Low Wage,6311,Food service supervisors,Unknown,1,44.7078571,-63.704372
Nova Scotia,3334989 NOVA SCOTIA LIMITED,"Lower Sackville, NS B4C 2S8",1,Low Wage,0631,Restaurant and food service managers,Unknown,1,44.751271,-63.66367
Nova Scotia,3334989 NOVA SCOTIA LIMITED,"Lower Sackville, NS B4C 2S8",2,Low Wage,6322,Cooks,Unknown,1,44.751271,-63.66367
Nova Scotia,3341007 Nova Scotia Limited,"Halifax, NS B3N 2S7",1,Low Wage,6322,Cooks,Unknown,1,44.654115,-63.631677
Nova Scotia,4344953 NOVA SCOTIA LIMITED,"Hammonds Plains, NS B4B 0A6",1,Low Wage,6322,Cooks,Unknown,1,44.734087,-63.800164
Nova Scotia,A and N Pizzeria Incorporated,"New Minas, NS B4N 3E9",1,Low Wage,6322,Cooks,Unknown,1,45.0678192,-64.4444585
Nova Scotia,A. AucoinBakery Ltd,"Cheticamp, NS B0E 1H0",1,Low Wage,6211,Retail sales supervisors,Unknown,1,46.506849,-61.025641
Nova Scotia,Able Infrastructure Inc,"Dartmouth, NS B3B 1N6",1,Low Wage,1215,"Supervisors, supply chain, tracking and scheduling co",Unknown,1,44.708451,-63.60138
Nova Scotia,Adcor Marketing Limited,"yarmouth, NS B5A 2T6",2,Low Wage,6311,Food service supervisors,Unknown,2,43.8441038,-66.1070988
Nova Scotia,ANDO SALON & LASER LTD.,"Halifax, NS B3M 3Y7",1,Low Wage,6316,Other services supervisors,Unknown,1,44.66328,-63.653935
Nova Scotia,ANDO SALON & LASER LTD.,"Halifax, NS B3M 3Y7",1,Low Wage,6341,Hairstylists and barbers,Unknown,1,44.66328,-63.653935
Nova Scotia,Aquashell Holdings Company,"Wallace, NS B0K 1Y0",54,Low Wage,9463,Fish and seafood plant workers,Unknown,2,45.79188,-63.520605
Nova Scotia,Arjenam foods ltd.,"Digby, NS B0V 1A0",4,Low Wage,6311,Food service supervisors,Unknown,3,44.536344,-65.84642
Nova Scotia,Arjenam foods ltd.,"Digby, NS B0V 1A0",8,Low Wage,6711,"Food counter attendants, kitchen helpers and related support occupations",Unknown,2,44.536344,-65.84642
Nova Scotia,Atlantic Oriental Wholesale (AOW) Incorporated.,"Upper Port la Tour, NS B0W 3N0",3,Low Wage,9463,Fish and seafood plant workers,Unknown,1,43.512731,-65.382133
Nova Scotia,ATLANTIC QUALITY PAINTING AND MAINTENANCE SERVICES LTD.,"Halifax, NS B3T 1H1",1,Low Wage,6315,Cleaning supervisors,Unknown,1,44.6573091,-63.736291
Nova Scotia,Birch Street Seafoods Ltd.,"Digby, NS B0V 1A0",2,Low Wage,9463,Fish and seafood plant workers,Unknown,1,44.536344,-65.84642
Nova Scotia,BOMBAY BISTRO PIZZA & RESTAURANT,"HALIFAX, NS B3M 0N7",1,Low Wage,6322,Cooks,Unknown,1,44.6765088,-63.6603502
Nova Scotia,Brass Rail Family Restaurant Limited,"Cole Harbour, NS B2V 1E7",1,Low Wage,6322,Cooks,Unknown,1,44.671402,-63.494685
Nova Scotia,Caissieco Enterprises,"Cole Harbour, NS B2W 6E4",1,Low Wage,6211,Retail sales supervisors,Unknown,1,44.674969,-63.491385
Nova Scotia,Captain Atlantic International Trade Co. Ltd.,"Shag Harbour,, NS B0W 3B0",6,Low Wage,9463,Fish and seafood plant workers,Unknown,1,43.506114,-65.718791
Nova Scotia,Care and Fun Childcare limited,"Halifax, NS B3M 3V3",1,Low Wage,4214,Early childhood educators and assistants,Unknown,1,44.652589,-63.650147
Nova Scotia,D2D Restaurant Inc,"Truro, NS B2N 1G7",1,Low Wage,6311,Food service supervisors,Unknown,1,45.36487,-63.279077
Nova Scotia,Dartmouth Crossing Hotel II Limited Partnership,"Dartmouth, NS B3B 0N4",8,Low Wage,6731,Light duty cleaners,Unknown,1,44.706939,-63.5629342
Nova Scotia,DC Ventures Inc.,"Dartmouth, NS B2W 3E6",5,Low Wage,6311,Food service supervisors,Unknown,3,44.68081,-63.539707
Nova Scotia,Deep Cove Aqua Farms Limited,"Blandford, NS B0J 1T0",6,Low Wage,9618,Labourers in fish and seafood processing,Unknown,1,44.643217,-64.05186
Nova Scotia,Dexter Construction Company Ltd.,"Bedford, NS B4A 3Z2",30,Low Wage,7611,Construction trades helpers and labourers,Unknown,1,44.71004,-63.681667
Nova Scotia,DL McQuaid Holdings Amherst Inc.,"Amherst, NS B4H 4H5",1,Low Wage,6311,Food service supervisors,Unknown,1,45.81989,-64.20616
Nova Scotia,DL McQuaid Holdings Amherst Inc.,"Amherst, NS B4H 4H5",2,Low Wage,6711,"Food counter attendants, kitchen helpers and related support occupations",Unknown,2,45.81989,-64.20616
Nova Scotia,Down East Hospitality Incorporated,"Dartmouth, NS B2Y 1N7",10,Low Wage,6711,"Food counter attendants, kitchen helpers and related support occupations",Unknown,1,44.680926,-63.546841
Nova Scotia,DRIFT RESTAURANT GROUP LIMITED PARTNERSHIP,"Halifax, NS B3J 1S5",8,Low Wage,6322,Cooks,Unknown,1,44.648961,-63.572395
Nova Scotia,Elmer's & Casablanca Restaurant Limited,"Wolfville, NS B4P 2N5",3,Low Wage,6322,Cooks,Unknown,1,45.087664,-64.37296
Nova Scotia,Famolex Integrated Consult Limited,"Halifax, NS B3P 1S9",2,Low Wage,6421,Retail salespersons,Unknown,1,44.617589,-63.610755
Nova Scotia,Fisherman's Market International Incorporated,"Halifax, NS B3M 2L6",5,Low Wage,9618,Labourers in fish and seafood processing,Unknown,1,44.690147,-63.659759
Nova Scotia,Fishermen's Premium Atlantic Lobster Inc.,"North East Point, NS B0W 2P0",3,Low Wage,9618,Labourers in fish and seafood processing,Unknown,1,43.490149,-65.613993
Nova Scotia,G.B.J. FOOD SERVICES LIMITED,"New Glasgow, NS B2H 2J8",1,Low Wage,6711,"Food counter attendants, kitchen helpers and related support occupations",Unknown,1,45.5777654,-62.6664341
Nova Scotia,GOGA ATLANTIC INC,"STEWIACKE, NS B0N 2J0",1,Low Wage,6311,Food service supervisors,Unknown,1,45.1884755,-63.3253614
Nova Scotia,GOGA ATLANTIC INC,"STEWIACKE, NS B0N 2J0",1,Low Wage,6322,Cooks,Unknown,1,45.1884755,-63.3253614
Nova Scotia,Gordon Food Service,"Amherst, NS B4H 4R5",15,Low Wage,7452,Material handlers,Unknown,1,45.81229,-64.203719
Nova Scotia,Grace Murray Inc,"Bridgewater, NS B4V 7P4",1,Low Wage,6322,Cooks,Unknown,1,44.3982443,-64.5359969
Nova Scotia,Halifax Tower Hotel Ltd.,"Halifax, NS B3S 1A2",1,Low Wage,6322,Cooks,Unknown,1,44.645251,-63.667365
Nova Scotia,Hotel N.S. Ownership Limited Partnership,"Halifax, NS B3H 2P6",1,Low Wage,6315,Cleaning supervisors,Unknown,1,44.639525,-63.568835
Nova Scotia,Independent Fisheries Limited,"Sable River, NS B0T 1V0",10,Low Wage,9618,Labourers in fish and seafood processing,Unknown,1,43.834296,-65.058189
Nova Scotia,J.M.P Sayles Holdings Inc.,"Windsor, NS B0N 2T0",8,Low Wage,6311,Food service supervisors,Unknown,2,44.819594,-64.318054
Nova Scotia,J.M.P Sayles Holdings Inc.,"Windsor, NS B0N 2T0",12,Low Wage,6711,"Food counter attendants, kitchen helpers and related support occupations",Unknown,3,44.819594,-64.318054
Nova Scotia,Jamco Hospitality Inc,"Dartmouth, NS B2X 3T9",1,Low Wage,6311,Food service supervisors,Unknown,1,44.724981,-63.545533
Nova Scotia,Jessy'sPizza Original Ltd,"Lower Sackville, NS P4C 2N1",1,Low Wage,6322,Cooks,Unknown,1,,
Nova Scotia,Jessy'sPizza Original Ltd,"Lower Sackville, NS P4C 2N1",1,Low Wage,6711,"Food counter attendants, kitchen helpers and related support occupations",Unknown,1,,
Nova Scotia,JK Crawlers Inc.,"Middle West Pubnico, NS B0W 2M0",2,Low Wage,9618,Labourers in fish and seafood processing,Unknown,1,43.614492,-65.802918
Nova Scotia,JRM 277 Investments Ltd.,"Bible Hill, NS B2N 4G7",5,Low Wage,6311,Food service supervisors,Unknown,3,45.3697766,-63.2712029
Nova Scotia,K & S Builders Limited,"Grafton, NS B0P 1V0",3,Low Wage,7611,Construction trades helpers and labourers,Unknown,1,45.1708349,-64.7669826
Nova Scotia,K-BEAUTY SALON INC,"Halifax, NS B3L 1A4",1,Low Wage,6341,Hairstylists and barbers,Unknown,1,44.645526,-63.596843
Nova Scotia,Kings Ridge Construction Ltd.,"Coldbrook, NS B4R 1A4",1,Low Wage,7611,Construction trades helpers and labourers,Unknown,1,45.0718447,-64.5795104
Nova Scotia,Laurel's Lake Residence Inc.,"Dartmouth, NS B2Y 0C2",6,Low Wage,3413,"Nurse aides, orderlies and patient service associates",Unknown,1,44.6666959,-63.547167
Nova Scotia,Let’s Ko Restaurant Inc,"BEDFORD, NS B4A 0C1",2,Low Wage,6322,Cooks,Unknown,1,44.723968,-63.670679
Nova Scotia,LF Bakery LTD,"Halifax, NS B3K 3B2",1,Low Wage,6332,Bakers,Sole Proprietorship,1,44.651389,-63.582437
Nova Scotia,LIGHTHOUSE RESTAURANT LIMITED,"ANTIGONISH, NS B2G 2L4",1,Low Wage,6322,Cooks,Unknown,1,45.598251,-61.900199
Nova Scotia,LIGHTHOUSE RESTAURANT LIMITED,"ANTIGONISH, NS B2G 2L4",1,Low Wage,6711,"Food counter attendants, kitchen helpers and related support occupations",Unknown,1,45.598251,-61.900199
Nova Scotia,Lismore Seafoods Company,"Lismore, NS B0K 1G0",48,Low Wage,9463,Fish and seafood plant workers,Unknown,2,45.714164,-62.213319
Nova Scotia,Little Moe’s K9 Academy,"Upper BrookSide, NS B6L 2B9",1,Low Wage,6563,Pet groomers and animal care workers,Unknown,1,45.4031044,-63.2085516
Nova Scotia,Liu&meng investment inc.,"Halifax, NS B3J 2H7",1,Low Wage,6322,Cooks,Unknown,1,44.643134,-63.575793
Nova Scotia,Louisbourg Seafoods Limited,"Louisbourg, NS B1C 1B5",42,Low Wage,9463,Fish and seafood plant workers,Unknown,1,45.9190546,-59.9714456
Nova Scotia,M.J.N.J Investments Ltd,"Lunenburg, NS B0J 2C0",1,Low Wage,6311,Food service supervisors,Unknown,1,44.37635,-64.309889
Nova Scotia,MCLEAN'S SERVICE CENTER LIMITED,"Newport, NS B0N 2A0",2,Low Wage,6211,Retail sales supervisors,Unknown,1,45.034087,-63.870954
Nova Scotia,Merex Incorporated,"Halifax, NS B3H 4N4",11,Low Wage,9463,Fish and seafood plant workers,Unknown,2,44.637704,-63.565763
Nova Scotia,Mirchi Tandoor Inc.,"halifax, NS B3J 1J7",1,Low Wage,6322,Cooks,Unknown,1,44.645217,-63.573178
Nova Scotia,Naeco Restaurant Inc,"Halifax, NS B3K 4T9",1,Low Wage,6321,Chefs,Unknown,1,44.650817,-63.593521
Nova Scotia,Nautical Seafoods Ltd,"Annapolis Royal, NS B0S 1K0",12,Low Wage,9618,Labourers in fish and seafood processing,Unknown,1,44.705351,-65.744945
Nova Scotia,New Indian Bazaar Inc,"Halifax, NS B3S 1B3",1,Low Wage,6331,"Butchers, meat cutters and fishmongers ",Unknown,1,44.637971,-63.663711
Nova Scotia,North Nova Seafoods,"Pictou, NS B0K 1H0",112,Low Wage,9463,Fish and seafood plant workers,Unknown,2,45.6460571289063,-62.8005790710449
Nova Scotia,NOVA SCOTIA LIMITED,"LAWRENCE TOWN, NS B2Z 1V6",1,Low Wage,6311,Food service supervisors,Unknown,1,44.646677,-63.337592
Nova Scotia,Oak Island Resort & Conference Centre,"Western Shore, NS B0J 3M0",6,Low Wage,6322,Cooks,Unknown,1,44.523144,-64.31449
Nova Scotia,Oak Island Resort & Conference Centre,"Western Shore, NS B0J 3M0",6,Low Wage,6731,Light duty cleaners,Unknown,1,44.523144,-64.31449
Nova Scotia,OCEANS EDGE SEAFOODS LTD.,"SALMON RIVER, NS B0W 2Y0",2,Low Wage,9463,Fish and seafood plant workers,Unknown,1,44.169749,-65.756352
Nova Scotia,Oxalis Restaurant Ltd.,"Dartmouth, NS B2Y 2S6",1,Low Wage,6321,Chefs,Unknown,1,44.666248,-63.566107
Nova Scotia,Oxen International Ltd,"New Minas, NS B4N 4N4",1,Low Wage,6711,"Food counter attendants, kitchen helpers and related support occupations",Unknown,1,45.0637988,-64.4533117
Nova Scotia,Palis Investments Limited,"Lower Sackville, NS B4C 2S4",5,Low Wage,6322,Cooks,Unknown,1,44.7682989,-63.6857731
Nova Scotia,Pecheries Cheticamp Fisheries Intl. (2016) Ltd,"Cheticamp, NS B0E 1H0",95,Low Wage,9463,Fish and seafood plant workers,Unknown,2,46.506849,-61.025641
Nova Scotia,Petit de Grat Packers Ltd.,"Petit de Grat, NS B0E 2L0",54,Low Wage,9463,Fish and seafood plant workers,Unknown,2,45.446991,-60.939875
Nova Scotia,Premiere Executive Suites/Atlantic Limited,"Halifax, NS B3J 3Z3",1,Low Wage,6312,Executive housekeepers,Unknown,1,44.643696,-63.569504
Nova Scotia,Princesa Gold Jewellers,"Dartmouth, NS B2X 1S1",1,Low Wage,6344,"Jewellers, jewellery and watch repairers and related occupations",Unknown,1,44.682455,-63.53693
Nova Scotia,PROVINCIAL DRYWALL LTD.,"Timberlea, NS B3T 1H1",1,Low Wage,7611,Construction trades helpers and labourers,Unknown,1,44.6573091,-63.736291
Nova Scotia,QUEEN AND CABLE LIMITED PARTNERSHIP,"Halifax, NS B3J 0J2",5,Low Wage,6322,Cooks,Unknown,1,44.6449019,-63.5702096
Nova Scotia,R&G MacDonald Enterprises Ltd.,"Port Hawkesbury, NS B9A 2M4",1,Low Wage,6311,Food service supervisors,Unknown,1,45.624118,-61.347106
Nova Scotia,Randy Roop's Service Centre Ltd.,"Brookfield, NS B0N 1C0",3,Low Wage,6211,Retail sales supervisors,Unknown,2,45.263092,-63.097746
Nova Scotia,Riverside Lobster International Inc,"Meteghan River, NS B0W 2L0",120,Low Wage,9463,Fish and seafood plant workers,Unknown,2,44.221552,-66.119502
Nova Scotia,ROYALE FLOORS AND SURFACES INC.,"Halifax, NS B3S 1B5",2,Low Wage,7295,Floor covering installers,Unknown,1,44.639764,-63.667904
Nova Scotia,RSNS Foods Inc.,"Bedford, NS B4A 0H2",2,Low Wage,6322,Cooks,Unknown,1,44.718207,-63.6507639
Nova Scotia,Schooner Seafoods Limited,"Lower Wedgeport, NS B0W 3P0",2,Low Wage,9618,Labourers in fish and seafood processing,Unknown,1,43.721842,-65.975976
Nova Scotia,Sea Crest Fisheries Ltd,"Comeauville, NS B0W 2Z0",3,Low Wage,2211,Chemical technologists and technicians,Unknown,1,44.2643127441406,-66.1162567138672
Nova Scotia,Shanaka Restaurants Inc.,"Windsor, NS B0N 2T0",2,Low Wage,6322,Cooks,Unknown,1,44.819594,-64.318054
Nova Scotia,Slumber Inn Ltd.,"New Minas, NS B4N 3K8",3,Low Wage,6731,Light duty cleaners,Unknown,1,45.0558316,-64.471488
Nova Scotia,Sobeys Capital Incorporée,"Stellarton, NS B0K 1S0",2,Low Wage,6211,Retail sales supervisors,Unknown,2,45.5583249,-62.6623249
Nova Scotia,Sobeys Capital Incorporée,"Stellarton, NS B0K 1S0",1,Low Wage,6622,"Store shelf stockers, clerks and order fillers",Unknown,1,45.5583249,-62.6623249
Nova Scotia,Sobeys Inc.,"Stellarton, NS B0K 0A2",1,Low Wage,6211,Retail sales supervisors,Unknown,1,45.574316,-62.656599
Nova Scotia,Song's Korean Restaurant,"Halifax, NS B3L 1A4",1,Low Wage,6322,Cooks,Unknown,1,44.645526,-63.596843
Nova Scotia,Springfield Hotels (Halifax) Inc,"Enfield, NS B2T 0C8",5,Low Wage,6731,Light duty cleaners,Unknown,1,44.864069,-63.59006
Nova Scotia,Sydney Fresh Casual Restaurants Inc.,"Sydney, NS B1P 5S8",2,Low Wage,0631,Restaurant and food service managers,Unknown,1,46.160936,-60.110492
Nova Scotia,Talay Thai Dartmouth Restaurant Inc.,"Dartmouth, NS B2V 1E7",1,Low Wage,6322,Cooks,Unknown,1,44.671402,-63.494685
Nova Scotia,Tomcat Holdings Ltd.,"Upper Tantallon, NS B3Z 4R2",6,Low Wage,6311,Food service supervisors,Unknown,4,44.7042178,-63.8558088
Nova Scotia,Tomcat Holdings Ltd.,"Upper Tantallon, NS B3Z 4R2",1,Low Wage,6711,"Food counter attendants, kitchen helpers and related support occupations",Unknown,1,44.7042178,-63.8558088
Nova Scotia,Tran Nails,"Truro, NS B2N 2K3",1,Low Wage,6562,"Estheticians, electrologists and related occupations",Unknown,1,45.362288,-63.278786
Nova Scotia,Westlake Chinese Cuisine and Food Inc.,"Dartmouth, NS B2X 1R5",1,Low Wage,6322,Cooks,Unknown,1,44.681709,-63.540712
Nova Scotia,Whitestone Building and Renovations Ltd.,"Halifax, NS B3T 1A2",1,Low Wage,7611,Construction trades helpers and labourers,Unknown,1,44.636774,-63.690551
Nova Scotia,YOKA RESTAURANT INC.,"TRURO, NS B2N 1H6",1,Low Wage,6711,"Food counter attendants, kitchen helpers and related support occupations",Unknown,1,45.364323,-63.274011
Nova Scotia,Young Guns Fisheries Limited,"Pembroke, NS B5A 5H3",2,Low Wage,8441,Fishing vessel deckhands,Unknown,1,43.838441,-66.114026
Nova Scotia,3115695 Nova Scotia Limited,"Rr#2 Centreville, NS B0P 1J0",6,Primary Agriculture,8431,General farm workers,Unknown,1,45.195976,-64.680474
Nova Scotia,Allen Farms Limited,"Billtown, NS B0P 1J0",53,Primary Agriculture,8431,General farm workers,Unknown,2,45.195976,-64.680474
Nova Scotia,Apple Lane Farm Inc,"Berwick, NS B0P 1E0",12,Primary Agriculture,8431,General farm workers,Unknown,1,45.090922,-64.823309
Nova Scotia,Atlantic Poultry Inc.,"Port Williams, NS B0P 1T0",4,Primary Agriculture,8431,General farm workers,Corporation,1,45.159695,-64.362715
Nova Scotia,Balamore Farm Ltd,"Great Village, NS B0M 1L0",200,Primary Agriculture,8432,Nursery and greenhouse workers,Unknown,1,45.369405,-63.662186
Nova Scotia,Best Farms Ltd,"Woodville, NS B0P 1V0",5,Primary Agriculture,8431,General farm workers,Partnership,1,45.1708349,-64.7669826
Nova Scotia,Bidalosy Farms Limited,"Beaver Brook, NS B6L 1H4",2,Primary Agriculture,8431,General farm workers,Unknown,1,45.3309191,-63.4082395
Nova Scotia,Birchleigh Farms LTD.,"Berwick, NS B0P 1E0",11,Primary Agriculture,8431,General farm workers,Unknown,1,45.090922,-64.823309
Nova Scotia,Bloom Greenhouse and Garden Centre Ltd.,"Hammonds Plains, NS B4B 1P6",3,Primary Agriculture,8432,Nursery and greenhouse workers,Unknown,1,44.731435,-63.756573
Nova Scotia,Blue Ridge Farm,"Grafton, NS B0P 1V0",8,Primary Agriculture,8431,General farm workers,Unknown,1,45.1708349,-64.7669826
Nova Scotia,Charles Keddy Farms Limited,"Lakeville, NS B4N 3V7",14,Primary Agriculture,8431,General farm workers,Unknown,3,45.067163,-64.547804
Nova Scotia,Craig Nichols Farms Limited,"Aylesford, NS B0P 1C0",18,Primary Agriculture,8431,General farm workers,Unknown,1,45.066995,-64.800737
Nova Scotia,Crisp Growers Incorporated,"Berwick, NS B0P 1E0",16,Primary Agriculture,8431,General farm workers,Unknown,1,45.090922,-64.823309
Nova Scotia,Elite Balsam Products Incorporated,"St. Andrew's, NS B0H 1X0",10,Primary Agriculture,8432,Nursery and greenhouse workers,Unknown,1,45.493148,-61.776903
Nova Scotia,Ellslea Farms Limited,"Canning, NS B0P 1H0",5,Primary Agriculture,8431,General farm workers,Unknown,1,45.026806,-64.165254
Nova Scotia,Elmridge Farm Ltd,"RR2 Centreville, NS B0P 1J0",1,Primary Agriculture,8252,"Agricultural service contractors, farm supervisors and specialized livestock workers",Unknown,1,45.195976,-64.680474
Nova Scotia,Elmridge Farm Ltd,"RR2 Centreville, NS B0P 1J0",12,Primary Agriculture,8431,General farm workers,Unknown,2,45.195976,-64.680474
Nova Scotia,Eyking Brothers Farm Ltd,"Millville, NS B1Y 2E2",25,Primary Agriculture,8431,General farm workers,Unknown,3,46.27095,-60.379651
Nova Scotia,Fox Harb'r Development,"Fox Harbour, NS B0K 1Y0",4,Primary Agriculture,8431,General farm workers,Unknown,1,45.79188,-63.520605
Nova Scotia,Fuller Brothers Farms Inc.,"Avonport, NS B0P 1B0",2,Primary Agriculture,8431,General farm workers,Corporation,1,45.095693,-64.227973
Nova Scotia,Harbour Island Ecologics Inc.,"Goldboro, NS B0H 1L0",1,Primary Agriculture,0821,Managers in agriculture,Corporation,1,45.208785,-61.64963
Nova Scotia,Indian Garden Farms,"Hebbville, NS B4V 9E6",4,Primary Agriculture,8431,General farm workers,Unknown,1,44.351018,-64.539282
Nova Scotia,J & B Millen Farms Limited,"Great Village, NS B0M 1L0",51,Primary Agriculture,8431,General farm workers,Unknown,2,45.369405,-63.662186
Nova Scotia,JOST VINEYARDS LIMITED,"Malagash, NS B0K 1E0",8,Primary Agriculture,8431,General farm workers,Unknown,2,45.794472,-63.453043
Nova Scotia,Luckett Farms Ltd.,"Wolfville, NS B4P 2R3",4,Primary Agriculture,8431,General farm workers,Unknown,1,45.068884,-64.348807
Nova Scotia,LUTZ FAMILY FARM LTD,"Berwick, NS B0P 1E0",5,Primary Agriculture,8431,General farm workers,Unknown,1,45.090922,-64.823309
Nova Scotia,MacGregor Dairy Farm Ltd.,"Churchville, NS B0K 1B0",4,Primary Agriculture,8252,"Agricultural service contractors, farm supervisors and specialized livestock workers",Unknown,1,45.430742,-62.606971
Nova Scotia,Mahoney's Evergreens L.P.,"East Dalhousie, NS B0R 1H0",11,Primary Agriculture,8432,Nursery and greenhouse workers,Unknown,1,44.794246,-64.643897
Nova Scotia,McConnell-Gordon Estates Ltd.,"Wolfville, NS B4P 2R1",10,Primary Agriculture,8431,General farm workers,Unknown,3,45.013938,-64.403589
Nova Scotia,Melvin Farms Limited,"Canning, NS B0P 1H0",3,Primary Agriculture,8431,General farm workers,Unknown,1,45.026806,-64.165254
Nova Scotia,Merks Poultry Farm Limited,"Avonport, NS B0P 1B0",4,Primary Agriculture,8431,General farm workers,Corporation,1,45.095693,-64.227973
Nova Scotia,Millen Farms Ltd,"Great Village, NS B0M 1L0",201,Primary Agriculture,8431,General farm workers,Unknown,2,45.369405,-63.662186
Nova Scotia,Nazinga Farms Ltd,"Aylesford, NS B0P 1C0",16,Primary Agriculture,8431,General farm workers,Unknown,1,45.066995,-64.800737
Nova Scotia,Noggins Corner Farm II Ltd.,"Greenwich, NS B4P 2R2",36,Primary Agriculture,8431,General farm workers,Unknown,1,44.997527,-64.451876
Nova Scotia,Northern Lights Christmas Tree Farms Ltd.,"Belmont, NS B0M 1G0",6,Primary Agriculture,8432,Nursery and greenhouse workers,Unknown,1,45.468637,-63.531392
Nova Scotia,Randsland Farms Inc,"Canning, NS B0P 1H0",3,Primary Agriculture,8431,General farm workers,Unknown,1,45.026806,-64.165254
Nova Scotia,Reimer Gardens Inc.,"Waterville, NS B0P 1V0",14,Primary Agriculture,8431,General farm workers,Corporation,1,45.1708349,-64.7669826
Nova Scotia,Spurr Brothers Farms Ltd,"Melvern Square, NS B0P 1R0",16,Primary Agriculture,8431,General farm workers,Unknown,3,45.074551,-64.720682
Nova Scotia,Stirling Fruit Farms (2000) Ltd,"Greenwich, NS B4P 2R2",72,Primary Agriculture,8431,General farm workers,Unknown,5,44.997527,-64.451876
Nova Scotia,T.K. Palmer & Sons Contracting Inc.,"Greenwood, NS B0P 1R0",15,Primary Agriculture,8431,General farm workers,Unknown,3,45.074551,-64.720682
Nova Scotia,Thiessen Farm Ltd.,"Grafton, NS B0P 1V0",8,Primary Agriculture,8431,General farm workers,Unknown,1,45.1708349,-64.7669826
Nova Scotia,Town Plot Orchards Ltd.,"Port Williams, NS B0P 1T0",5,Primary Agriculture,8431,General farm workers,Corporation,2,45.159695,-64.362715
Nova Scotia,Van Meekeren Farms Ltd.,"Lakeville, NS B4N 3V7",7,Primary Agriculture,8431,General farm workers,Unknown,1,45.067163,-64.547804
Nova Scotia,Vital Berry Farms,"Centreville, NS B0P 1J0",80,Primary Agriculture,8431,General farm workers,Unknown,2,45.195976,-64.680474
Nova Scotia,West Ridge Estates Vineyard,"Oxford, NS B0M 1P0",2,Primary Agriculture,8431,General farm workers,Unknown,1,45.810473,-63.849946
Nova Scotia,Wohlgemuth Farms Ltd.,"Aylesford, NS B0P 1C0",25,Primary Agriculture,8431,General farm workers,Unknown,1,45.066995,-64.800737
Nova Scotia,Caleres,"Sydney, NS B1P 6S9",1,Global Talent Stream,2174,Computer programmers and interactive media developers,Unknown,1,46.1478065,-60.1419858
Nova Scotia,CloudKettle Inc.,"Halifax, NS B3J 3J8",1,Global Talent Stream,2173,Software engineers and designers,Unknown,1,44.6509579,-63.5789426
Nova Scotia,Eyeread Inc.,"Halifax, NS B3K 3A9",1,Global Talent Stream,2174,Computer programmers and interactive media developers,Unknown,1,44.650647,-63.581341
Nova Scotia,Maritime Digital Art and Design ltd,"Halifax, NS B3J 1G5",1,Global Talent Stream,5241,Graphic designers and illustrators,Unknown,1,44.642998,-63.577002
Nova Scotia,Nuro Techonology (Canada) Company,"Halifax, NS B3J  2X",1,Global Talent Stream,2173,Software engineers and designers,Corporation,1,,
Nova Scotia,Rayleigh Solar Tech Inc.,"Dartmouth, NS B2Y 4M9",1,Global Talent Stream,2134,Chemical engineers,Corporation,1,44.660305,-63.542698
Nova Scotia,REDspace Inc.,"Bedford, NS B4A 3Y4",1,Global Talent Stream,2171,Information systems analysts and consultants,Corporation,1,44.733105,-63.655979
Nova Scotia,REDspace Inc.,"Bedford, NS B4A 3Y4",1,Global Talent Stream,2174,Computer programmers and interactive media developers,Corporation,1,44.733105,-63.655979
Nova Scotia,Rimot.io Inc.,"Dartmouth, NS B2Y 4M9",1,Global Talent Stream,2147,Computer engineers (except software engineers and designers),Unknown,1,44.660305,-63.542698
Nova Scotia,"Spiri Robotics, Inc.","Halifax, NS B3J 3N2",1,Global Talent Stream,2173,Software engineers and designers,Unknown,1,44.6520116,-63.5760615
Nova Scotia,Verschuren Centre,"Sydney, NS B1M 1A2",1,Global Talent Stream,0212,Architecture and science managers,Non-Profit Organization,1,46.1655609,-60.106085
New Brunswick,12048779 Canada Inc.,"Bubartown, NB E7P 2J7",1,High Wage,0632,Accommodation service managers,Unknown,1,46.370949,-67.44498
New Brunswick,662524 N.B. LTD.,"Aldouane, NB E4W 5J8",1,High Wage,1311,Accounting technicians and bookkeepers,Unknown,1,46.863112,-65.055745
New Brunswick,700827 NB Inc o/a J's Asian Kitchen-Main Street,"Fredericton, NB E3A 1C8",2,High Wage,6322,Cooks,Corporation,2,45.978759,-66.654579
New Brunswick,700827 NB Inc.,"Fredericton, NB E3B 1B2",1,High Wage,6322,Cooks,Unknown,1,45.962829,-66.642999
New Brunswick,707205 N.B. LTD.,"Saint John, NB E2J 3W9",1,High Wage,6211,Retail sales supervisors,Unknown,1,45.310191,-66.015935
New Brunswick,716467 NB LTD.,"Saint John, NB E2L 1M4",1,High Wage,1123,"Professional occupations in advertising, marketing and public relations",Unknown,1,45.272098,-66.052836
New Brunswick,723364 NB Inc.,"Scoudouc, NB E4P 3P7",2,High Wage,1241,Administrative assistants,Unknown,1,46.16853,-64.57196
New Brunswick,AYR Motor Express Inc,"Woodstock, NB E7M 4G2",20,High Wage,7511,Transport truck drivers,Unknown,2,46.123818,-67.616701
New Brunswick,Birch Hill Construction Ltd.,"Moncton, NB E1C 9T2",1,High Wage,1523,Production logistics co,Unknown,1,46.0956837,-64.8116141
New Brunswick,Birch Hill Construction Ltd.,"Moncton, NB E1C 9T2",4,High Wage,7312,Heavy,Unknown,1,46.0956837,-64.8116141
New Brunswick,Birch Hill Construction Ltd.,"Moncton, NB E1C 9T2",10,High Wage,7611,Construction trades helpers and labourers,Unknown,1,46.0956837,-64.8116141
New Brunswick,Brona Transport Ltd,"Dieppe, NB E1A 7E9",3,High Wage,7511,Transport truck drivers,Unknown,1,46.109185,-64.705946
New Brunswick,BWS Manufacturing Ltd,"Centreville, NB E7K 1A4",25,High Wage,7237,Welders and related machine operators,Unknown,2,46.430804,-67.711629
New Brunswick,BYOTA INC,"Moncton, NB E1C 1Y4",1,High Wage,1241,Administrative assistants,Unknown,1,46.089079,-64.79399
New Brunswick,Film Factory New Brunswick Ltd.,"Quispamsis, NB E2E 1E1",1,High Wage,1123,"Professional occupations in advertising, marketing and public relations",Unknown,1,45.422895,-66.002079
New Brunswick,Film Factory New Brunswick Ltd.,"Quispamsis, NB E2E 1E1",1,High Wage,1311,Accounting technicians and bookkeepers,Unknown,1,45.422895,-66.002079
New Brunswick,FMI Atlantic Inc.,"Woodstock, NB E7M 5G5",4,High Wage,6311,Food service supervisors,Unknown,4,46.165002,-67.595162
New Brunswick,FMI National Inc,"Woodstock, NB E7M 5G5",1,High Wage,0631,Restaurant and food service managers,Unknown,1,46.165002,-67.595162
New Brunswick,FMI National Inc,"Woodstock, NB E7M 5G5",4,High Wage,6311,Food service supervisors,Unknown,3,46.165002,-67.595162
New Brunswick,Horizon Health Network,"Miramichi, NB E1V 3G5",5,High Wage,3111,Specialist physicians,Unknown,5,47.00234,-65.546196
New Brunswick,Horizon Health Network,"Miramichi, NB E1V 3G5",1,High Wage,3112,General practitioners and family physicians,Unknown,1,47.00234,-65.546196
New Brunswick,Jayprabhu Hospitality Inc.,"St Andrews, NB E5B 1A3",1,High Wage,6315,Cleaning supervisors,Unknown,1,45.069209,-67.043047
New Brunswick,LOYAL TAXI LTD,"FREDERICTON, NB E3A 6P8",1,High Wage,7305,"Supervisors, motor transport and other ground transit operators",Unknown,1,45.947274,-66.620466
New Brunswick,M.R.Enterprises Ltd.,"Richibucto Road, NB E3A 6X7",1,High Wage,7321,"Automotive service technicians, truck and bus mechanics and mechanical repairers",Unknown,1,45.9512936,-66.5785261
New Brunswick,McConchie Trucking Ltd,"Norton, NB E5T 1E8",2,High Wage,7511,Transport truck drivers,Unknown,1,45.644651,-65.689936
New Brunswick,Miao Yu Sushi,"Rothesay, NB E2E 5R8",1,High Wage,1221,Administrative officers,Unknown,1,45.38954,-65.97507
New Brunswick,Millfield Management Ltd.,"Rothesay, NB E2E 2H3",1,High Wage,1221,Administrative officers,Unknown,1,45.397988,-65.993052
New Brunswick,MO Motors Inc.,"Woodstock, NB E7M 5G5",1,High Wage,7511,Transport truck drivers,Unknown,1,46.165002,-67.595162
New Brunswick,Murray Enterprises Ltd.,"Sussex Corner, NB E4E 2Y5",3,High Wage,7511,Transport truck drivers,Unknown,1,45.7100729,-65.4774611
New Brunswick,Pioneer Transport,"Jacksonville, NB E7M 3R7",10,High Wage,7511,Transport truck drivers,Unknown,1,46.104236,-67.606847
New Brunswick,PRAMUKH96 INC.,"RENOUS, NB E9E 2E4",1,High Wage,0621,Retail and wholesale trade managers,Unknown,1,46.8156471252441,-65.7981719970703
New Brunswick,Quality Transportation services NB ltd,"Jacksonville, NB E7M 3S1",3,High Wage,7511,Transport truck drivers,Unknown,1,46.1887576,-67.6071221
New Brunswick,RAD,"Dieppe, NB E1A 1P3",2,High Wage,3221,Denturists,Unknown,1,46.097896,-64.736368
New Brunswick,Réseau de santé Vitalité (employés sans congé maladies),"Bathurst, NB E3Z 2R9",1,High Wage,3111,Specialist physicians,Unknown,1,47.046889,-67.750385
New Brunswick,STEFANO'S INC.,"Saint John, NB E2L 3N5",2,High Wage,7511,Transport truck drivers,Unknown,1,45.2827099,-66.0551562
New Brunswick,Uncle Mayn's Convenience Ltd,"St. George, NB E5C 3V1",1,High Wage,6211,Retail sales supervisors,Unknown,1,45.06265,-66.7808
New Brunswick,Walton Trucking Ltd,"Somerville, NB E7P 2S4",2,High Wage,7511,Transport truck drivers,Unknown,1,46.2924957275391,-67.5464630126953
New Brunswick,Warren Transportation Ltd,"Rexton, NB E4W 1W8",9,High Wage,7511,Transport truck drivers,Unknown,1,46.63731,-64.86842
New Brunswick,WHITE ROCK FREIGHT SERVICES INC,"Moncton, NB E1C 6L9",2,High Wage,7511,Transport truck drivers,Unknown,1,46.095642,-64.795665
New Brunswick,058249 NB LTD,"Sussex, NB E4E 3E5",11,Low Wage,6311,Food service supervisors,Unknown,2,45.725085,-65.529414
New Brunswick,11399900 CANADA INC.,"Saint John, NB E2J 0A7",1,Low Wage,0631,Restaurant and food service managers,Unknown,1,45.262091,-65.949392
New Brunswick,618479 NB INc,"Bouctouche, NB E4S 3J7",2,Low Wage,6311,Food service supervisors,Unknown,2,46.471501,-64.723335
New Brunswick,638798 NB INC,"Miramichi, NB E1V 6W3",1,Low Wage,0631,Restaurant and food service managers,Unknown,1,47.030942,-65.489272
New Brunswick,661989 NB Limited,"Saint John, NB E2J 2S6",1,Low Wage,6311,Food service supervisors,Unknown,1,45.311857,-66.020505
New Brunswick,662524 N.B. LTD.,"Aldouane, NB E4W 5J8",1,Low Wage,6211,Retail sales supervisors,Unknown,1,46.863112,-65.055745
New Brunswick,669950 N.B LTD,"Fredericton, NB E3B 1B9",1,Low Wage,6322,Cooks,Unknown,1,45.961468,-66.639585
New Brunswick,671348 N.B. INC.,"MONCTON, NB E1C 1E3",3,Low Wage,6322,Cooks,Unknown,1,46.089078,-64.775165
New Brunswick,671743 NB Inc.,"Richibucto Village, NB E4W 1G2",24,Low Wage,9463,Fish and seafood plant workers,Unknown,2,46.649407,-64.884185
New Brunswick,679283 NB INC.,"RIVERVIEW, NB E1B 0J6",1,Low Wage,6322,Cooks,Unknown,1,46.0655,-64.8100599
New Brunswick,684373 NB Inc,"quispamsis, NB E2E 4J8",1,Low Wage,6322,Cooks,Unknown,1,45.4031533,-65.9727138
New Brunswick,684422 NB Inc.,"Moncton, NB E1C 2S3",1,Low Wage,6322,Cooks,Unknown,1,46.101116,-64.811904
New Brunswick,689773 Nb Ltd.,"Oromocto, NB E2V 4R3",2,Low Wage,6311,Food service supervisors,Unknown,2,45.982009,-66.655187
New Brunswick,692059 N.B.Inc.,"Moncton, NB E1C 1C8",3,Low Wage,6322,Cooks,Unknown,2,46.089418,-64.774155
New Brunswick,697139 NB INC.,"St. George, NB E5C 1A8",1,Low Wage,6332,Bakers,Unknown,1,45.129319,-66.84654
New Brunswick,697961 NB Inc,"Cap-Pele, NB E4N 1C9",1,Low Wage,6711,"Food counter attendants, kitchen helpers and related support occupations",Unknown,1,46.215877,-64.289959
New Brunswick,700827 NB Inc.,"Fredericton, NB E3B 1B2",1,Low Wage,6311,Food service supervisors,Unknown,1,45.962829,-66.642999
New Brunswick,721839 NB Inc,"Fredericton, NB E3B 1W1",4,Low Wage,6311,Food service supervisors,Unknown,1,45.958368,-66.656259
New Brunswick,721839 NB Inc,"Fredericton, NB E3B 1W1",3,Low Wage,6332,Bakers,Unknown,1,45.958368,-66.656259
New Brunswick,722137 N.B. LTD.,"Moncton, NB E1C 1X5",2,Low Wage,6322,Cooks,Unknown,1,46.089515,-64.790816
New Brunswick,726571 NB Ltd.,"Moncton, NB E1G 1A8",1,Low Wage,6322,Cooks,Unknown,1,46.121625,-64.847806
New Brunswick,735881 NB Inc.,"Trois-Ruisseaux, NB E4N 2V7",30,Low Wage,9463,Fish and seafood plant workers,Unknown,1,46.223835,-64.538469
New Brunswick,A.R. Rietzel Landscaping Ltd.,"Lutes Mountain, NB E1G 2T5",5,Low Wage,7282,Concrete finishers,Unknown,1,46.1198453,-64.9106755
New Brunswick,A.R. Rietzel Landscaping Ltd.,"Lutes Mountain, NB E1G 2T5",4,Low Wage,7611,Construction trades helpers and labourers,Unknown,1,46.1198453,-64.9106755
New Brunswick,A.R. Rietzel Landscaping Ltd.,"Lutes Mountain, NB E1G 2T5",4,Low Wage,8612,Landscaping and grounds maintenance labourers,Unknown,1,46.1198453,-64.9106755
New Brunswick,A.R. SANTOS CARING HOME LTD,"Saint John City, NB E2K 3A8",1,Low Wage,4412,"Home support workers, housekeepers and related occupations",Unknown,1,45.281651,-66.075907
New Brunswick,Amco Fisheries Ltd,"Cap-Pelé, NB E4N 3B3",1,Low Wage,9618,Labourers in fish and seafood processing,Unknown,1,46.2154693603516,-64.2717361450195
New Brunswick,A-Tech Roofing Ltd,"Dieppe, NB E1A 5M1",4,Low Wage,7611,Construction trades helpers and labourers,Unknown,1,46.104684,-64.724565
New Brunswick,Atlantic Star Uniforms 2009 Inc.,"Edmundston, NB E3V 4K1",3,Low Wage,6342,"Tailors, dressmakers, furriers and milliners",Unknown,1,47.389474,-68.298041
New Brunswick,B.A.Richard Ltée,"Sainte-Anne-de-Kent, NB E4S 1M6",65,Low Wage,9463,Fish and seafood plant workers,Unknown,1,46.574238,-64.728117
New Brunswick,Big Lobster Seafood Incorporated,"GRAND MANAN, NB E5G 1M5",7,Low Wage,9463,Fish and seafood plant workers,Unknown,1,44.660388,-66.759442
New Brunswick,C&A Toner Ltd,"Grand Falls, NB E3Z 2W1",2,Low Wage,6311,Food service supervisors,Unknown,2,47.0454504,-67.7448011
New Brunswick,C&A Toner Ltd,"Grand Falls, NB E3Z 2W1",1,Low Wage,6711,"Food counter attendants, kitchen helpers and related support occupations",Unknown,1,47.0454504,-67.7448011
New Brunswick,Camille Leger Limited,"Cormier-Village, NB E4P 5X2",2,Low Wage,7611,Construction trades helpers and labourers,Unknown,1,46.1710314,-64.3524061
New Brunswick,Cape Bald Packers Ltd,"Cap-Pelé, NB E4N 1E3",238,Low Wage,9463,Fish and seafood plant workers,Unknown,3,46.2167287,-64.283788
New Brunswick,Captain Dan's Inc.,"Richibouctou-Village, NB E4W 1C9",164,Low Wage,9463,Fish and seafood plant workers,Unknown,3,46.660031,-64.709287
New Brunswick,Car-rizma Motorsports Limited,"SAINT JOHN, NB E2H 1X8",2,Low Wage,7535,Other automotive mechanical installers and servicers,Unknown,1,45.315985,-66.023634
New Brunswick,Central Garage Limited,"Atholville, NB E3N 3Z2",1,Low Wage,7322,Motor vehicle body repairers,Unknown,1,47.983828,-66.737883
New Brunswick,Chez Kim Restaurant Inc.,"Campbellton, NB E3N 1A9",1,Low Wage,6322,Cooks,Unknown,1,48.009327,-66.6705
New Brunswick,Chong's place restaurant limited,"Fredericton, NB E3A 8V4",1,Low Wage,0631,Restaurant and food service managers,Unknown,1,45.992339,-66.649999
New Brunswick,Connors Bros. Division of Clover Leaf Seafoods Corp.,"Blacks Harbour, NB E5H 1G6",4,Low Wage,9463,Fish and seafood plant workers,Unknown,1,45.0552584,-66.7934511
New Brunswick,Connors Bros. Division of Clover Leaf Seafoods Corp.,"Blacks Harbour, NB E5H 1G6",12,Low Wage,9618,Labourers in fish and seafood processing,Unknown,1,45.0552584,-66.7934511
New Brunswick,Covered Bridge Potato Chips,"Waterville, NB E7P 0A5",15,Low Wage,9617,"Labourers in food, beverage and associated products processing",Unknown,1,46.346537,-67.346769
New Brunswick,D.L. MCQUAID HOLDINGS SAINT JOHN INC.,"SAINT JOHN, NB E2J 1A7",4,Low Wage,6711,"Food counter attendants, kitchen helpers and related support occupations",Unknown,4,45.280605,-66.036556
New Brunswick,Derrick's Pub Ltd,"New Maryland, NB E3C 1K1",1,Low Wage,6322,Cooks,Unknown,1,45.89501,-66.68213
New Brunswick,DINER 81 INC.,"St. Stephen, NB E3L 2C5",2,Low Wage,6322,Cooks,Unknown,1,45.194673,-67.275389
New Brunswick,Diplomat Restaurant,"Fredericton, NB E3B 2H8",2,Low Wage,6311,Food service supervisors,Unknown,1,45.9641996,-66.6623193
New Brunswick,Diplomat Restaurant,"Fredericton, NB E3B 2H8",4,Low Wage,6322,Cooks,Unknown,1,45.9641996,-66.6623193
New Brunswick,Edmond Gagnon Ltd,"Grand-Barachois, NB E4P 8A4",130,Low Wage,9463,Fish and seafood plant workers,Unknown,2,46.222988,-64.422449
New Brunswick,Fancy Pokket Corporation,"Moncton, NB E1E 4K7",4,Low Wage,6732,Specialized cleaners,Unknown,1,46.080337,-64.833167
New Brunswick,FMI Atlantic Inc.,"Woodstock, NB E7M 5G5",11,Low Wage,6311,Food service supervisors,Unknown,10,46.165002,-67.595162
New Brunswick,FMI National Inc,"Woodstock, NB E7M 5G5",7,Low Wage,6311,Food service supervisors,Unknown,7,46.165002,-67.595162
New Brunswick,Formco concrete Foundations LTD,"GRAND BARACHOIS, NB E4P 8A2",3,Low Wage,7611,Construction trades helpers and labourers,Unknown,1,46.223007,-64.422449
New Brunswick,Fresh Casual Restaurants Inc. Dieppe,"Dieppe, NB E1A 1N3",2,Low Wage,0631,Restaurant and food service managers,Unknown,1,46.09418,-64.755388
New Brunswick,G.L. Sawmill Ltd.,"Haute-Aboujagane, NB E4P 5P4",10,Low Wage,9533,Other wood products assemblers and inspectors,Unknown,2,46.203891,-64.422516
New Brunswick,Gaudet Landscaping (2020) Ltd,"Grand-Barachois, NB E4P 6Z8",4,Low Wage,8612,Landscaping and grounds maintenance labourers,Unknown,1,46.211837,-64.377775
New Brunswick,GJ2 LC1 FOOD SERVICES .INC O/A Little Caesars Pizza,"Fredericton, NB E3B 3C1",1,Low Wage,6711,"Food counter attendants, kitchen helpers and related support occupations",Unknown,1,45.939534,-66.662382
New Brunswick,Global Windows Solution Inc,"Richibucto, NB E4W 4A4",50,Low Wage,9615,Labourers in rubber and plastic products manufacturing,Unknown,2,46.694879,-64.980483
New Brunswick,Groupe Savoie Inc,"St-Quentin, NB, NB E8A 2K9",30,Low Wage,9533,Other wood products assemblers and inspectors,Unknown,1,47.513453,-67.3791063
New Brunswick,Hebert Lumber Mill Ltd.,"Grande-Digue, NB E4R 5H4",5,Low Wage,9614,"Labourers in wood, pulp and paper processing",Unknown,1,46.345953,-64.55059
New Brunswick,HLIM JWT Retail Ltd.,"Moncton, NB E1A 2S5",1,Low Wage,6421,Retail salespersons,Unknown,1,46.106227,-64.758263
New Brunswick,House of Lee  (SCL Enterprises Limited),"bathurst, NB E2A 1B1",2,Low Wage,6711,"Food counter attendants, kitchen helpers and related support occupations",Unknown,1,47.6200971,-65.6499382
New Brunswick,Janda Enterprises Inc,"Tracadie-Sheila, NB E1X 0E1",1,Low Wage,6711,"Food counter attendants, kitchen helpers and related support occupations",Unknown,1,47.484438,-64.9541228
New Brunswick,K-CUPBOP Canada Inc.,"Dieppe, NB E1A 1P4",1,Low Wage,6322,Cooks,Unknown,1,46.098038,-64.73566
New Brunswick,KIM'S MART CORPORATION,"Shediac, NB E4P 2G1",1,Low Wage,6322,Cooks,Unknown,1,46.2193411,-64.5414378
New Brunswick,L&L Concrete Foundation Ltd,"Grand-Barachois, NB E4P 9E4",20,Low Wage,7611,Construction trades helpers and labourers,Unknown,1,46.203998,-64.393056
New Brunswick,L`ASSOCIATION COOPÉRATIVE DES PECHEURS DE L`ILE LTEE - ISLAND FISHERMEN'S COOPERATIVE ASSOCIATION LT,"LAMEQUE, NB E8T 1M8",105,Low Wage,9463,Fish and seafood plant workers,Unknown,1,47.7932426,-64.6524579
New Brunswick,La Scierie Cap-Pelé Sawmill Ltd/Ltée,"Shemogue, NB E4N 2P9",14,Low Wage,9533,Other wood products assemblers and inspectors,Unknown,2,46.217394,-64.561716
New Brunswick,Lancor Concrete Contractors,"Scoudouc, NB E4P 0H7",6,Low Wage,7611,Construction trades helpers and labourers,Unknown,1,46.1655378,-64.4414999
New Brunswick,Les Restaurants F. Perreault Inc.,"Miramichi, NB E1V 6W3",7,Low Wage,6311,Food service supervisors,Unknown,1,47.030942,-65.489272
New Brunswick,LEU'S MARKET INC.,"ST. GEORGE, NB E5C 3H9",1,Low Wage,6332,Bakers,Unknown,1,45.131913,-66.82528
New Brunswick,Linn Chau Restaurant,"Saint John, NB E2J 1A5",2,Low Wage,6322,Cooks,Unknown,1,45.28215,-66.038096
New Brunswick,Long's Variety Ltd.,"Sussex, NB E4E 1R6",4,Low Wage,6311,Food service supervisors,Unknown,1,45.7240296,-65.5225995
New Brunswick,Lu's Convenience Store Ltd.,"Saint John, NB E2M 1L8",1,Low Wage,6211,Retail sales supervisors,Unknown,1,45.252571,-66.069385
New Brunswick,M LeBlanc Lawn Care & Landscaping,"Grand Barachois, NB E4P 8H9",2,Low Wage,8612,Landscaping and grounds maintenance labourers,Unknown,1,46.2194909,-64.3800621
New Brunswick,M&R BEAUTY INC,"Fredericton, NB E3B 6M1",1,Low Wage,1311,Accounting technicians and bookkeepers,Unknown,1,45.924098,-66.623304
New Brunswick,Maple Leaf Homes Inc,"Fredericton, NB E3B 7K3",50,Low Wage,9533,Other wood products assemblers and inspectors,Unknown,1,45.915972,-66.615957
New Brunswick,Marcan Group (2006) Inc,"Moncton, NB E1G 2J2",6,Low Wage,6711,"Food counter attendants, kitchen helpers and related support occupations",Unknown,3,46.11331,-64.861985
New Brunswick,McGraw Seafood (2008) Inc.,"Tracadie, NB E1X 1A2",25,Low Wage,9463,Fish and seafood plant workers,Unknown,1,47.545259,-64.915615
New Brunswick,McSubway Inc,"Saint John, NB E2J 2S6",1,Low Wage,6711,"Food counter attendants, kitchen helpers and related support occupations",Unknown,1,45.311857,-66.020505
New Brunswick,Meca Holdings inc,"Rothesay, NB E2S 1A6",1,Low Wage,6322,Cooks,Unknown,1,45.384935,-65.927891
New Brunswick,Mike's Insulation Ltd.,"Dieppe, NB E1A 5M1",6,Low Wage,7611,Construction trades helpers and labourers,Unknown,1,46.104684,-64.724565
New Brunswick,MJ Construction & Renovation Inc,"St-Thomas-de-Kent, NB E4S 4Z7",1,Low Wage,7611,Construction trades helpers and labourers,Unknown,1,46.3210296630859,-67.6312103271484
New Brunswick,Moncton Fresh Casual Restaurants Inc.,"Moncton, NB E1G 1A8",2,Low Wage,0631,Restaurant and food service managers,Unknown,1,46.121625,-64.847806
New Brunswick,Nam & Rim Inc.,"St. George, NB E5C 1A9",1,Low Wage,6322,Cooks,Unknown,1,45.13017,-66.8409
New Brunswick,Nanak Holdings Ltd.,"Saint John, NB E2M 5H6",1,Low Wage,4412,"Home support workers, housekeepers and related occupations",Unknown,1,45.230401,-66.155863
New Brunswick,O.C. Maillet Transport Ltd.,"Bouctouche, NB E4S 3H8",1,Low Wage,7321,"Automotive service technicians, truck and bus mechanics and mechanical repairers",Unknown,1,46.467589,-64.738107
New Brunswick,O.C. Maillet Transport Ltd.,"Bouctouche, NB E4S 3H8",3,Low Wage,7452,Material handlers,Unknown,1,46.467589,-64.738107
New Brunswick,"OPC Canada, Inc.","Centreville, NB E7K 2M4",12,Low Wage,9617,"Labourers in food, beverage and associated products processing",Unknown,1,46.431546,-67.708827
New Brunswick,PÊCHERIES BELLE-ILE FISHERIES LTEE LTD,"Sainte-Marie-Sainte-Raphael, NB E8T 1T4",36,Low Wage,9463,Fish and seafood plant workers,Unknown,1,47.780396,-64.567294
New Brunswick,Petit-Cap Fisheries Ltd.,"Petit-Cap, NB E4N 2J6",5,Low Wage,9618,Labourers in fish and seafood processing,Unknown,1,46.223792,-64.538469
New Brunswick,Poissonnerie Arseneau Ltée,"Nigadoo, NB E8K 3S8",35,Low Wage,9463,Fish and seafood plant workers,Unknown,1,47.744506,-65.70978
New Brunswick,Poissonnerie Arseneau Ltée,"Nigadoo, NB E8K 3S8",12,Low Wage,9618,Labourers in fish and seafood processing,Unknown,1,47.744506,-65.70978
New Brunswick,R&L CONVENIENCE INC.,"ROTHESAY, NB E2E 5X4",2,Low Wage,6322,Cooks,Unknown,1,45.405834,-66.002734
New Brunswick,Remco Construction Inc,"GRAND-BARACHOIS, NB E4P 8Z7",6,Low Wage,7611,Construction trades helpers and labourers,Unknown,1,46.263172,-64.580832
New Brunswick,Restaurant la Sagouine,"Bouctouche, NB E4S 3E7",3,Low Wage,6322,Cooks,Unknown,1,46.482558,-64.727468
New Brunswick,Restaurant la Sagouine,"Bouctouche, NB E4S 3E7",1,Low Wage,6513,Food and beverage servers,Unknown,1,46.482558,-64.727468
New Brunswick,Ritchies Discount Carpet Ltd,"Moncton, NB E1C 0E8",5,Low Wage,7611,Construction trades helpers and labourers,Unknown,1,46.114059,-64.826007
New Brunswick,Seacoast Fishing Supplies Ltd,"Grand-Barachois, NB E4P 6Z8",6,Low Wage,9533,Other wood products assemblers and inspectors,Unknown,1,46.211837,-64.377775
New Brunswick,Seaside Landscaping Ltd,"Cormier Village, NB E4P 5W1",3,Low Wage,8612,Landscaping and grounds maintenance labourers,Unknown,1,46.170973,-64.352399
New Brunswick,Shediac Lobster Shop Ltd.,"Shediac, NB E4P 2A6",137,Low Wage,9463,Fish and seafood plant workers,Unknown,2,46.21997,-64.53642
New Brunswick,Siman Enterprises Ltd.,"Fredericton, NB E3B 1G1",3,Low Wage,6711,"Food counter attendants, kitchen helpers and related support occupations",Unknown,1,45.960108,-66.639381
New Brunswick,South East Aquaculture Sud-Est inc,"Cocagne, NB E4R 3K7",6,Low Wage,9463,Fish and seafood plant workers,Unknown,1,46.4104787,-64.6211356
New Brunswick,St-Paul Fisheries (1989) Ltd Pêcheries St-Paul (1989) Ltée,"Caraquet, NB E1W 1B7",80,Low Wage,9463,Fish and seafood plant workers,Unknown,2,47.789897,-64.919572
New Brunswick,Sunnymel LP,"Clair, NB E7A 2G6",5,Low Wage,9462,"Industrial butchers and meat cutters, poultry preparers and related workers",Unknown,1,47.2667812,-68.599531
New Brunswick,SUSHI BLOSSOM LTD.,"quispamsis, NB E2E 4J8",1,Low Wage,6322,Cooks,Unknown,1,45.4031533,-65.9727138
New Brunswick,Thankful Too Seafood,"Alma, NB E4H 1K4",2,Low Wage,9618,Labourers in fish and seafood processing,Unknown,1,45.601237,-64.941134
New Brunswick,Tomotachi Sushi Inc,"Fredericton, NB E3B 5H5",1,Low Wage,6322,Cooks,Unknown,1,45.956064,-66.641561
New Brunswick,Trans Place Ltd.,"Moncton, NB E1A 2X1",2,Low Wage,6322,Cooks,Unknown,1,46.117895,-64.772152
New Brunswick,VC Renovation Inc,"Campbellton, NB E3N 1T8",8,Low Wage,7294,Painters and decorators (except interior decorators),Unknown,1,48.00354,-66.63399
New Brunswick,Vintage Textured Wall Systems Inc,"Dieppe, NB E1A 5T8",8,Low Wage,7611,Construction trades helpers and labourers,Unknown,1,46.100979,-64.728592
New Brunswick,W. J. Allen & Sons Inc.,"Aulac, NB E4L 2X2",2,Low Wage,0631,Restaurant and food service managers,Unknown,1,45.882979,-64.296257
New Brunswick,West India Trading. co,"Petit-Cap, NB E4N 2J7",2,Low Wage,9463,Fish and seafood plant workers,Unknown,1,46.223793,-64.538469
New Brunswick,Westmorland Fisheries Ltd.,"Cap-Pele, NB E4N 1V3",235,Low Wage,9463,Fish and seafood plant workers,Unknown,2,46.181127,-64.210248
New Brunswick,York Auto Service 2004 LTD,"Fredericton, NB E3C 1N8",1,Low Wage,7612,Other trades helpers and labourers,Unknown,1,45.945723,-66.689434
New Brunswick,Zoa Mansu B.B.Q Inc,"Dieppe, NB E1A 1G1",1,Low Wage,6322,Cooks,Unknown,1,46.088634,-64.736314
New Brunswick,Hanscome Farms Ltd,"Perth-Andover, NB E7H 4K4",46,Primary Agriculture,8431,General farm workers,Unknown,2,46.741202,-67.705749
New Brunswick,Irishview Apple Management Ltd.,"Moncton, NB E1E  0J",6,Primary Agriculture,8431,General farm workers,Corporation,1,,
New Brunswick,"Jolly Farmer Products, Inc.","Northampton, NB E7N 1R6",50,Primary Agriculture,8432,Nursery and greenhouse workers,Unknown,3,46.053925,-67.549314
New Brunswick,Kent Coates,"Point de Bute, NB E4L 2P1",4,Primary Agriculture,8431,General farm workers,Unknown,1,45.916926,-64.345112
New Brunswick,Les Fermes GAM Michaud Farms,"Saint-André, NB E3Y 2X9",2,Primary Agriculture,8431,General farm workers,Unknown,1,47.101475,-67.71015
New Brunswick,Royal Gardens 2012 Ltd.,"Penobsquis, NB E4G 2C5",30,Primary Agriculture,8432,Nursery and greenhouse workers,Unknown,1,45.77192,-65.39275
New Brunswick,Schenkels Farms Inc,"Whitney, NB E1V 4K4",2,Primary Agriculture,8252,"Agricultural service contractors, farm supervisors and specialized livestock workers",Unknown,1,46.9739276,-65.6983305
New Brunswick,Thomas Kavanaugh & Sons Ltd.,"Grand Falls, NB E3Z 1P8",2,Primary Agriculture,8611,Harvesting labourers,Unknown,1,47.042394,-67.742005
New Brunswick,Verger Belliveau Orchard ltd.,"Memramcook, NB E4K 2S6",3,Primary Agriculture,8431,General farm workers,Unknown,1,45.949971,-64.628396
New Brunswick,681751 NB Ltd,"Fredericton, NB E3B 6B7",1,Global Talent Stream,2174,Computer programmers and interactive media developers,Unknown,1,45.91663,-66.621642
New Brunswick,All In Research & Innovation Inc.,"Fredericton, NB E3A 4J1",1,Global Talent Stream,1122,Professional occupations in business management consulting,Unknown,1,45.976458,-66.588088
New Brunswick,IGT Solutions Canada ULC,"Moncton, NB E1H 2R6",1,Global Talent Stream,2173,Software engineers and designers,Unknown,1,46.131267,-64.744966
Quebec,13930335 Canada Inc.,"montreal, QC H1R 2B7",1,High Wage,6322,Cooks,Unknown,1,45.597654,-73.610666
Quebec,141200 Canada Ltee (P&B Transport),"Saint-Leonard, QC H1P 1Z3",1,High Wage,7321,"Automotive service technicians, truck and bus mechanics and mechanical repairers",Corporation,1,45.603962,-73.592401
Quebec,150276 Canada Inc.,"Montréal, QC H1E 4H8",1,High Wage,4214,Early childhood educators and assistants,Corporation,1,45.629399,-73.58696
Quebec,2314-0346 QUEBEC INC. (Gestion Trans-For),"La Doré, QC G8J 1G4",1,High Wage,7511,Transport truck drivers,Corporation,1,48.701133,-72.633156
Quebec,2413-9636 Québec Inc,"Victoriaville, QC G6P 4B6",1,High Wage,6321,Chefs,Unknown,1,46.062855,-71.942745
Quebec,2624-0085 Québec Inc.,"Saguenay, QC G7H  7Y",2,High Wage,7321,"Automotive service technicians, truck and bus mechanics and mechanical repairers",Corporation,1,,
Quebec,"2742-5701 QC,INC","Ville de  Saint-Georges, QC G5Y 0H4",3,High Wage,6311,Food service supervisors,Unknown,1,46.120557,-70.666185
Quebec,2754-8155 Québec Inc.,"Baie-Saint-Paul, QC G3Z 3B2",1,High Wage,7321,"Automotive service technicians, truck and bus mechanics and mechanical repairers",Unknown,1,47.54626,-70.54052
Quebec,2818876 CANADA INC.,"Longueuil, QC J4K 2X6",3,High Wage,1241,Administrative assistants,Corporation,1,45.513521,-73.502226
Quebec,2857-4077 Québec Inc.,"Shawinigan, QC G9T 2B8",3,High Wage,6322,Cooks,Unknown,1,46.610678,-72.700209
Quebec,2949-6106 QUÉBEC INC.,"MONTRÉAL, QC H2V 1C6",2,High Wage,7295,Floor covering installers,Sole Proprietorship,1,45.532319,-73.606557
Quebec,29558277 quebec inc,"saint-basile-le-grand, QC J3N 1L6",2,High Wage,7322,Motor vehicle body repairers,Unknown,1,45.5252371,-73.2862292
Quebec,3099-9247 Québec Inc,"Boucherville, QC J4B  5L",1,High Wage,6322,Cooks,Partnership,1,,
Quebec,3118193 Canada Inc.,"Longueuil, QC J4H  1E",1,High Wage,6321,Chefs,Corporation,1,,
Quebec,3323552 Canada Inc.,"Rosemère, QC J7A 2H1",1,High Wage,0631,Restaurant and food service managers,Corporation,1,45.62375,-73.802145
Quebec,3579000 canada Inc.,"Laval, QC H7T 2H6",1,High Wage,7322,Motor vehicle body repairers,Unknown,1,45.567934,-73.76388
Quebec,3676111 Canada Inc.,"Melbourne, QC J0B 2B0",1,High Wage,7511,Transport truck drivers,Unknown,1,45.726358,-72.232720
Quebec,4CAD CANADA LOGICIELS INC.,"Montréal, QC H4N 3L4",1,High Wage,1123,"Professional occupations in advertising, marketing and public relations",Corporation,1,45.511234,-73.6717074
Quebec,4CAD CANADA LOGICIELS INC.,"Montréal, QC H4N 3L4",1,High Wage,2171,Information systems analysts and consultants,Corporation,1,45.511234,-73.6717074
Quebec,4Refuel Canada LP,"Montréal, QC H1C 1S9",1,High Wage,7514,Delivery and courier service drivers,Unknown,1,45.653478,-73.534013
Quebec,6173306 Canada Inc.,"Amos, QC J9T 1H3",3,High Wage,0631,Restaurant and food service managers,Corporation,1,48.5716997,-78.1157926
Quebec,6299393 CANADA INC,"Montréal, QC H2N  1Y",1,High Wage,7381,Printing press operators,Corporation,1,,
Quebec,6318703 Canada inc.,"Matane, QC G4W 3M6",1,High Wage,2132,Mechanical engineers,Unknown,1,48.849387,-67.549881
Quebec,6318703 Canada inc.,"Matane, QC G4W 3M6",8,High Wage,7237,Welders and related machine operators,Unknown,2,48.849387,-67.549881
Quebec,7687567 Canada Inc.,"Montréal, QC H4S 1M5",1,High Wage,7333,Electrical mechanics,Unknown,1,45.4888919,-73.7175946
Quebec,7917066 Canada Inc.,"St-Bruno-de-Guigues, QC J0Z 2G0",1,High Wage,7312,Heavy,Unknown,1,47.439748,-79.384781
Quebec,9010033 CANADA INC.,"Montréal, QC H3B 1B7",1,High Wage,6322,Cooks,Corporation,1,45.503728,-73.569264
Quebec,9013-1806 QUÉBEC INC.,"Montréal, QC H3P 2B6",1,High Wage,6321,Chefs,Corporation,1,45.516278,-73.630372
Quebec,9014-8636 Québec Inc.,"Dolbeau-Mistassini, QC G8L 1V3",3,High Wage,7312,Heavy,Corporation,1,48.86837,-72.237435
Quebec,9015-2018 Québec Inc.,"Montréal, QC H4J 2E6",1,High Wage,1222,Executive assistants,Corporation,1,45.529123,-73.711018
Quebec,9015-4394 Québec INC,"Saint-Eustache, QC J7R 5C2",1,High Wage,7322,Motor vehicle body repairers,Corporation,1,45.567363,-73.924455
Quebec,9031-6332 Québec Inc.,"Val d'Or, QC J9P 0J6",1,High Wage,7321,"Automotive service technicians, truck and bus mechanics and mechanical repairers",Corporation,1,48.100912,-77.788694
Quebec,9034-2841 Québec Inc.,"St-Jean-sur-Richelieu, QC J2X  1H",2,High Wage,7322,Motor vehicle body repairers,Partnership,2,,
Quebec,9043-3046 Inc. (Les Entreprises Richard Mercier),"Rouyn-Noranda, QC J9X 2J3",1,High Wage,7521,Heavy equipment operators (except crane),Corporation,1,48.2453725,-79.0300024
Quebec,9048-9493 Québec Inc.,"St-BENOIT LABRE, QC G0M 1P0",6,High Wage,7511,Transport truck drivers,Unknown,6,45.843699,-70.570819
Quebec,9049-3636 quebec inc,"Québec, QC G1R 3Z2",1,High Wage,1241,Administrative assistants,Unknown,1,46.811711,-71.207191
Quebec,9056-6696 Québec inc,"Québec, QC G1P 3T6",6,High Wage,7322,Motor vehicle body repairers,Unknown,1,46.787054,-71.305794
Quebec,9056-6696 Québec inc,"Québec, QC G1P 3T6",2,High Wage,9536,"Industrial painters, coaters and metal finishing process operators",Unknown,1,46.787054,-71.305794
Quebec,9056-7702QUEBECINC,"Québec, QC G1W 4S6",2,High Wage,6322,Cooks,Unknown,1,46.769992,-71.316833
Quebec,9072-0939 QUEBEC INC.,"Saint-Leonard, QC H1P 1P1",3,High Wage,7322,Motor vehicle body repairers,Unknown,1,45.598445,-73.585145
Quebec,9090-5092 Québec inc,"Lavaltrie, QC J5T 2H1",30,High Wage,7611,Construction trades helpers and labourers,Unknown,1,45.889737,-73.287586
Quebec,9105-9345 Quebec Inc,"MONTREAL, QC H2X 3P9",1,High Wage,0124,"Advertising, marketing and public relations managers",Unknown,1,45.510287,-73.575074
Quebec,9108-9219 QUEBEC INC,"MONTRÉAL, QC H2H  2S",1,High Wage,5225,Audio and video recording technicians,Sole Proprietorship,1,,
Quebec,9109-3583 QUEBEC INC (Estaminet),"Rivière-du-Loup, QC G5R 3A9",4,High Wage,6322,Cooks,Unknown,1,47.833315,-69.536763
Quebec,9115-7883 Québec inc.,"Laval, QC H7S 1G3",4,High Wage,7312,Heavy,Unknown,1,45.579789,-73.722724
Quebec,9122-4790 Quebec inc.,"Laval, QC H7S 2E7",1,High Wage,2174,Computer programmers and interactive media developers,Unknown,1,45.580997,-73.742822
Quebec,9129-2862 QUÉBEC INC.,"Kuujjuarapik, QC J0M 1G0",1,High Wage,6711,"Food counter attendants, kitchen helpers and related support occupations",Unknown,1,55.296484,-77.743319
Quebec,9129-2862 QUÉBEC INC.,"Kuujjuarapik, QC J0M 1G0",2,High Wage,7321,"Automotive service technicians, truck and bus mechanics and mechanical repairers",Unknown,1,55.296484,-77.743319
Quebec,9135-8838 QUEBEC INC.,"SEPT-ILES, QC G4R 1W8",1,High Wage,7321,"Automotive service technicians, truck and bus mechanics and mechanical repairers",Unknown,1,50.205003,-66.365688
Quebec,9137-0619 QUÉBEC INC.,"SAINT-LAMBERT-DE-LAUZON, QC G0S 2W0",1,High Wage,7231,Machinists and machining and tooling inspectors,Unknown,1,46.554609,-71.234934
Quebec,9137-0619 QUÉBEC INC.,"SAINT-LAMBERT-DE-LAUZON, QC G0S 2W0",1,High Wage,7237,Welders and related machine operators,Unknown,1,46.554609,-71.234934
Quebec,9138-9148 QUÉBEC INC.,"Val-d'Or, QC J9P 0A5",1,High Wage,7511,Transport truck drivers,Unknown,1,48.106869,-77.794709
Quebec,9152-2458 Quebec Inc,"Paspebiac, QC G0C 2K0",1,High Wage,2281,Computer network technicians,Unknown,1,48.060360,-65.250412
Quebec,9155-3073 Québec Inc.,"Bécancour, QC G9H 1X6",1,High Wage,7511,Transport truck drivers,Sole Proprietorship,1,46.294881,-72.544604
Quebec,9158-9325 Québec Inc.,"Saint-Jean-Chrysostome, QC G6Z 3K4",1,High Wage,6331,"Butchers, meat cutters and fishmongers ",Corporation,1,46.727471,-71.205288
Quebec,9166-4649 Québec inc.,"Chambly, QC J3L 1X5",2,High Wage,7321,"Automotive service technicians, truck and bus mechanics and mechanical repairers",Partnership,1,45.45455,-73.299997
Quebec,9167-3772 Québec Inc.,"Drummondville, QC J2B 1R6",1,High Wage,2281,Computer network technicians,Unknown,1,45.876321,-72.485003
Quebec,9170-4429 Qc Inc,"Howick, QC J0S 1G0",1,High Wage,7333,Electrical mechanics,Unknown,1,45.175263,-73.861134
Quebec,9170-5921 Québec inc,"L'Assomption, QC J5W 4P5",1,High Wage,6221,Technical sales specialists ,Unknown,1,45.885173,-73.420056
Quebec,9171-9690 Québec Inc.,"St-Laurent, QC H4T 1A2",1,High Wage,1123,"Professional occupations in advertising, marketing and public relations",Corporation,1,45.490528,-73.702541
Quebec,9172-2264 Québec Inc.,"Eastman, QC J0E 1P0",3,High Wage,2171,Information systems analysts and consultants,Corporation,3,45.377068,-72.345176
Quebec,9175-5298 QUÉBEC INC.,"Montréal, QC H2S 3J5",1,High Wage,1123,"Professional occupations in advertising, marketing and public relations",Unknown,1,45.531735,-73.618773
Quebec,9176-4886 Québec Inc.,"Baie-Comeau, QC G4Z 1T7",2,High Wage,7231,Machinists and machining and tooling inspectors,Corporation,1,49.21733,-68.181869
Quebec,9176-4886 Québec Inc.,"Baie-Comeau, QC G4Z 1T7",1,High Wage,7237,Welders and related machine operators,Corporation,1,49.21733,-68.181869
Quebec,9183-8920 QUÉBEC INC.,"Magog, QC J1X 5R6",1,High Wage,7322,Motor vehicle body repairers,Unknown,1,45.295723,-72.105033
Quebec,9186-0999 Québec Inc.,"Maniwaki, QC J9E 2B3",1,High Wage,6322,Cooks,Partnership,1,46.3781144,-75.9825234
Quebec,9186-1906 QUÉBEC INC,"SALABERRY-DE-VALLEYFIELD, QC J6T 1M4",3,High Wage,7237,Welders and related machine operators,Corporation,1,45.253635,-74.13748
Quebec,9187-4230 Québec Inc. / Pro-Jet Irrigation,"Sainte-Adèle, QC J8B 3M9",2,High Wage,8612,Landscaping and grounds maintenance labourers,Corporation,1,45.931667,-74.149721
Quebec,9188-5608 Québec inc.,"Granby, QC J2G 2W8",1,High Wage,6322,Cooks,Unknown,1,45.403727,-72.734779
Quebec,9191-0869 Québec Inc.,"Bassin, QC G4T 0J8",1,High Wage,6321,Chefs,Corporation,1,47.2180882,-61.9827512
Quebec,9199-5753 Québec Inc,"Longueuil, QC J4T  2G",1,High Wage,7321,"Automotive service technicians, truck and bus mechanics and mechanical repairers",Corporation,1,,
Quebec,9204-3124 QUÉBEC INC.,"Rimouski, QC G5L 1A2",2,High Wage,6322,Cooks,Unknown,1,48.451842,-68.526194
Quebec,9206-1985 Quebec Inc,"Montreal, QC H2L 1H9",1,High Wage,1223,Human resources and recruitment officers,Unknown,1,45.521482,-73.566831
Quebec,9209-3277 Quebec Inc,"Dorval, QC H9P 1H3",1,High Wage,7322,Motor vehicle body repairers,Unknown,1,45.462198,-73.725766
Quebec,9209-7948 Québec inc.,"SAINT-HONORÉ-DE-SHENLEY, QC G0M 1V0",1,High Wage,7284,"Plasterers, drywall installers and finishers and lathers",Unknown,1,45.8217,-70.98566
Quebec,9213-9286 quebec inc,"Rouyn-Noranda, QC J9X 6M6",1,High Wage,7321,"Automotive service technicians, truck and bus mechanics and mechanical repairers",Unknown,1,48.2241791,-78.9952004
Quebec,9219-6815 QUÉBEC INC,"Québec, QC G1N 4K8",1,High Wage,6322,Cooks,Unknown,1,46.796097,-71.268125
Quebec,9225-1040 Québec inc.,"Québec, QC G1W 1R6",1,High Wage,6321,Chefs,Unknown,1,46.757395,-71.290045
Quebec,9229-5807 Quebec Inc,"Montreal, QC H2J 1H5",1,High Wage,7271,Carpenters,Unknown,1,45.533495,-73.58374
Quebec,9229-7639 Québec Inc. (S.X.B. Environnement),"Beauharnois, QC J6N 1K3",1,High Wage,6732,Specialized cleaners,Corporation,1,45.31856,-73.8414
Quebec,9231-9508 Québec Inc.,"Saint-Eustache, QC J7P  5N",1,High Wage,7321,"Automotive service technicians, truck and bus mechanics and mechanical repairers",Corporation,1,,
Quebec,9232-3294 Québec Inc,"Albanel, QC G8M 3P2",2,High Wage,7334,"Motorcycle, all",Unknown,1,48.9151382,-72.3396173
Quebec,9242-4308 Quebec Inc,"Laval, QC H7P 0B3",4,High Wage,7246,Telecommunications installation and repair workers,Unknown,4,45.5733319,-73.7831457
Quebec,9243-6112 Québec Inc.,"St-Félicien, QC G8K  1X",2,High Wage,7312,Heavy,Corporation,1,,
Quebec,9255-3304 Québec Inc.,"Terrebonne, QC J7M 1W1",1,High Wage,6611,Cashiers,Unknown,1,45.754002,-73.709691
Quebec,9258-0414 QUÉBEC INC,"Terrebonne, QC J6W 2H5",2,High Wage,7322,Motor vehicle body repairers,Unknown,1,45.704066,-73.630207
Quebec,9266-4242 Québec Inc,"Québec, QC G1C 7E1",1,High Wage,0631,Restaurant and food service managers,Unknown,1,46.858467,-71.217501
Quebec,9266-6551 Québec Inc.,"Montréal, QC H4N  3B",1,High Wage,4214,Early childhood educators and assistants,Corporation,1,,
Quebec,9268-6484 Québec Inc.,"Québec, QC G1P  4G",1,High Wage,2281,Computer network technicians,Corporation,1,,
Quebec,9269-2045 Québec Inc.,"Candiac, QC J5R 6X4",1,High Wage,1123,"Professional occupations in advertising, marketing and public relations",Corporation,1,45.385763,-73.457443
Quebec,9269-2045 Québec Inc.,"Candiac, QC J5R 6X4",1,High Wage,1222,Executive assistants,Corporation,1,45.385763,-73.457443
Quebec,9269-2284 Québec Inc.,"Montréal, QC H3M 1Y2",1,High Wage,7321,"Automotive service technicians, truck and bus mechanics and mechanical repairers",Corporation,1,45.53196,-73.683166
Quebec,9269-2979 Québec Inc.,"Laval, QC H7T 2P1",1,High Wage,0631,Restaurant and food service managers,Corporation,1,45.556339,-73.784921
Quebec,9273-0530 QUEBEC INC,"Chicoutimi, QC G5J 1B3",1,High Wage,2131,Civil engineers,Unknown,1,48.4784113,-67.4399267
Quebec,9277 6517 Québec inc,"Côte-Saint-Luc, QC H4W 2R6",1,High Wage,4214,Early childhood educators and assistants,Corporation,1,45.4604559,-73.6766413
Quebec,9277-5576 Québec inc.,"Longeuil, QC J4G 2M1",1,High Wage,1215,"Supervisors, supply chain, tracking and scheduling co",Unknown,1,45.568796,-73.449968
Quebec,9279 1466 Quebec Inc,"Rosemere, QC J7A 2H7",1,High Wage,5254,"Program leaders and instructors in recreation, sport and fitness",Unknown,1,45.629929,-73.811851
Quebec,9280-3055 Québec Inc.,"Montréal, QC H1M 1A9",1,High Wage,7284,"Plasterers, drywall installers and finishers and lathers",Partnership,1,45.587704,-73.560806
Quebec,9284-8779 Québec Inc.,"Ste-Julie, QC J3E 0C3",1,High Wage,7322,Motor vehicle body repairers,Unknown,1,45.5828684,-73.3364663
Quebec,9286-9643 Québec inc,"Québec, QC G2K 1S9",1,High Wage,7312,Heavy,Unknown,1,46.849493,-71.295184
Quebec,9289-9707 Québec inc.,"Montréal, QC H1A 1L4",1,High Wage,6311,Food service supervisors,Partnership,1,45.673369,-73.497978
Quebec,9290-4283 Québec inc.,"Brossard, QC J4Y 2P4",1,High Wage,7322,Motor vehicle body repairers,Unknown,1,45.434411,-73.475164
Quebec,9296-2364 Québec Inc,"MONTREAL, QC H1C 1G5",1,High Wage,7201,"Contractors and supervisors, machining, metal forming, shaping and erecting trades and related occupations",Unknown,1,45.644436,-73.552484
Quebec,9301-7275 Québec inc.,"saint-hubert, QC J3Y 7Y8",1,High Wage,1225,Purchasing agents and officers,Unknown,1,45.495342,-73.428446
Quebec,9309-0421 Quebec Inc,"Montreal, QC H4E 1C7",2,High Wage,2225,Landscape and horticulture technicians and specialists,Unknown,1,45.466143,-73.586324
Quebec,9309-4928 Québec inc.,"Laval, QC H7H 1P4",1,High Wage,7237,Welders and related machine operators,Corporation,1,45.630422,-73.752446
Quebec,9309-8283 Québec Inc.,"Pierrefonds, QC H9H  4K",1,High Wage,0631,Restaurant and food service managers,Corporation,1,,
Quebec,9310-6375 Quebec inc.,"Ange-Gardien, QC J0E 1E0",1,High Wage,6321,Chefs,Unknown,1,45.358702,-72.922095
Quebec,9311-5327 Québec inc.,"SHERBROOKE, QC J1C 0W2",1,High Wage,7237,Welders and related machine operators,Corporation,1,45.467054,-71.940986
Quebec,9316-3228 QUÉBEC INC,"Longueuil, QC J4J 4L3",1,High Wage,4214,Early childhood educators and assistants,Unknown,1,45.540461,-73.487239
Quebec,9324-7260 Québec Inc.,"Rivière-du-Loup, QC G5R  5Z",2,High Wage,7321,"Automotive service technicians, truck and bus mechanics and mechanical repairers",Corporation,1,,
Quebec,9325-5685 QUEBEC INC,"Montreal, QC H2X 2S8",1,High Wage,6322,Cooks,Unknown,1,45.510334,-73.564481
Quebec,9327-7358 Québec Inc.,"Verdun, QC H4H 1K1",1,High Wage,1221,Administrative officers,Partnership,1,45.453944,-73.572183
Quebec,9336-7472 Québec Inc.,"Montréal, QC H2Z 1N2",1,High Wage,6321,Chefs,Corporation,1,45.50479,-73.563634
Quebec,9338-0186 Québec inc,"Rouyn-Noranda, QC J9X 6P9",4,High Wage,6311,Food service supervisors,Unknown,1,48.244933,-79.02581
Quebec,9342-7490 Quebec Inc.,"Laval, QC H7E 1A1",26,High Wage,7511,Transport truck drivers,Unknown,3,45.61416,-73.668973
Quebec,9344-3174 Quebec Inc,"Terrebonne, QC J6W 2Z6",1,High Wage,3125,Other professional occupations in health diagnosing and treating,Unknown,1,45.698166,-73.634689
Quebec,9344-7654 Québec Inc. - Ebenisterie JA Design,"Laval, QC H7T 2L2",1,High Wage,1241,Administrative assistants,Partnership,1,45.568343,-73.757735
Quebec,9347 6596 QUEBEC INC,"Longueuil, QC J4G 1T5",1,High Wage,7237,Welders and related machine operators,Unknown,1,45.563734,-73.463893
Quebec,9348-8104 Québec Inc.,"Montreal, QC H4C 2C7",1,High Wage,2171,Information systems analysts and consultants,Corporation,1,45.471077,-73.585455
Quebec,9355-9045 Québec Inc.,"MONTRÉAL, QC H3N 1R8",3,High Wage,6332,Bakers,Corporation,1,45.526843,-73.624323
Quebec,9359-8076 Quebec Inc.,"Montreal, QC H3G 2B1",2,High Wage,6321,Chefs,Unknown,1,45.497108,-73.575519
Quebec,9359-8126 Quebec inc.,"Laval, QC H7M 1B2",1,High Wage,7272,Cabinetmakers,Unknown,1,45.608022,-73.722776
Quebec,9360-1813 QC INC,"Montréal, QC H4L 5B3",1,High Wage,1311,Accounting technicians and bookkeepers,Unknown,1,45.519646,-73.670192
Quebec,9361-8940 QUEBEC INC.,"Laval, QC H7R  0E",1,High Wage,7333,Electrical mechanics,Corporation,1,,
Quebec,9364-4748 Quebec inc.,"Dorval, QC H4Y 1H1",1,High Wage,6322,Cooks,Unknown,1,45.457494,-73.747312
Quebec,9367-8019 Quebec inc,"SAINT-HUBERT, QC J3Z 0G7",1,High Wage,2171,Information systems analysts and consultants,Unknown,1,45.4739173,-73.4023694
Quebec,9369-2895 QUEBEC INC,"Montreal, QC H2V 2K3",1,High Wage,6321,Chefs,Unknown,1,45.526713,-73.58968
Quebec,9370-6794 Quebec Inc.,"Montreal, QC H3N 1G3",2,High Wage,6321,Chefs,Unknown,1,45.544674,-73.627903
Quebec,9371-2222 Québec Inc.,"Québec, QC G1N 4R9",1,High Wage,2281,Computer network technicians,Corporation,1,46.797853,-71.268348
Quebec,9371-4350 Québec Inc. (Carlyle Construction),"Montréal, QC H3K  1R",1,High Wage,0712,Home building and renovation managers,Corporation,1,,
Quebec,9371-4350 Québec Inc. (Carlyle Construction),"Montréal, QC H3K  1R",1,High Wage,7271,Carpenters,Corporation,1,,
Quebec,9371-8690 Québec Inc.,"Québec, QC G1N  2E",1,High Wage,6322,Cooks,Corporation,1,,
Quebec,9375-5619 Québec inc.,"Québec, QC G1L  3N",1,High Wage,6322,Cooks,Corporation,1,,
Quebec,9378-7497 QUÉBEC INC.,"Montréal, QC H2R 2V4",1,High Wage,6221,Technical sales specialists ,Corporation,1,45.547805,-73.619336
Quebec,9383-0792 Québec inc,"Lévis, QC G6W 0R8",1,High Wage,6421,Retail salespersons,Unknown,1,46.733308,-71.266868
Quebec,9383-2863 Québec inc,"St-laurent, QC H4L 5B3",2,High Wage,0631,Restaurant and food service managers,Unknown,1,45.519646,-73.670192
Quebec,9383-2863 Québec inc,"St-laurent, QC H4L 5B3",1,High Wage,2281,Computer network technicians,Unknown,1,45.519646,-73.670192
Quebec,9386-6374 QUEBEC INC,"Québec, QC G3E 1K3",1,High Wage,1222,Executive assistants,Unknown,1,46.890712,-71.152962
Quebec,9387-4832 québec inc,"Longueuil, QC J4J 3Y5",1,High Wage,7321,"Automotive service technicians, truck and bus mechanics and mechanical repairers",Unknown,1,45.528367,-73.478963
Quebec,9390-7475 Québec Inc - Accès Comptabilité,"Montréal, QC H4L 3M3",1,High Wage,1311,Accounting technicians and bookkeepers,Corporation,1,45.513225,-73.680961
Quebec,9394-6440 Québec Inc.,"Laval, QC H7R 2A6",1,High Wage,0113,Purchasing managers,Corporation,1,45.558548,-73.863602
Quebec,9395-0681 Québec inc.,"Val-D'or, QC J9P 6C5",1,High Wage,7511,Transport truck drivers,Unknown,1,48.149046,-77.746076
Quebec,9396-1209 QUEBEC INC,"Repentigny, QC J7Z 4G2",1,High Wage,1241,Administrative assistants,Partnership,1,45.7825714,-73.9942104
Quebec,9396-1209 QUEBEC INC,"Repentigny, QC J7Z 4G2",6,High Wage,6731,Light duty cleaners,Partnership,2,45.7825714,-73.9942104
Quebec,9396-2652 Québec Inc.,"Trois-Rivières, QC G8V 1J8",1,High Wage,2174,Computer programmers and interactive media developers,Sole Proprietorship,1,46.389894,-72.539619
Quebec,9397-3535 Québec Inc.,"Laval, QC H7T 2J2",1,High Wage,1241,Administrative assistants,Corporation,1,45.602959,-73.678916
Quebec,9397-3535 Québec Inc.,"Laval, QC H7T 2J2",4,High Wage,6322,Cooks,Corporation,1,45.602959,-73.678916
Quebec,9398-9499 Québec inc. (SOS Hub Canada),"Montréal, QC H1T 1B8",1,High Wage,0124,"Advertising, marketing and public relations managers",Corporation,1,45.570134,-73.582794
Quebec,9400-9487 QUÉBEC INC,"Longueuil, QC J4H 1L7",1,High Wage,1215,"Supervisors, supply chain, tracking and scheduling co",Unknown,1,45.538375,-73.505933
Quebec,9401-7605 QUEBEC INC,"Montréal, QC H3C 1P1",1,High Wage,6513,Food and beverage servers,Unknown,1,45.497942,-73.558112
Quebec,9404-9616 QUEBEC INC.,"Montréal, QC H1M 1A9",1,High Wage,6211,Retail sales supervisors,Unknown,1,45.587704,-73.560806
Quebec,9405-9268 Québec Inc.,"Mont-Tremblant, QC J8E 3J8",1,High Wage,0631,Restaurant and food service managers,Corporation,1,46.119006,-74.5853283
Quebec,9407-8797 Québec inc.,"Montréal, QC H2B 2X5",1,High Wage,6411,Sales and account representatives ,Corporation,1,45.574627,-73.638938
Quebec,9411-3883 Québec Inc.,"Montréal, QC H3C  3B",1,High Wage,0631,Restaurant and food service managers,Co-operative,1,,
Quebec,9411-5607 Quebec Inc,"Val-d’Or, QC J9P 7A9",1,High Wage,2281,Computer network technicians,Unknown,1,48.098135,-77.824986
Quebec,9413-0986 Québec Inc.,"Montréal, QC H3S 1M7",1,High Wage,1223,Human resources and recruitment officers,Corporation,1,45.508265,-73.627374
Quebec,9413-2925 Québec inc.,"Montréal, QC H1R 2S6",1,High Wage,7251,Plumbers,Unknown,1,45.581061,-73.600904
Quebec,9420-8121 Qc Inc,"MOntreal, QC H1C 1S9",1,High Wage,6211,Retail sales supervisors,Unknown,1,45.653478,-73.534013
Quebec,9421-09.86 Québec Inc.,"Laval, QC H7V  2N",2,High Wage,6331,"Butchers, meat cutters and fishmongers ",Corporation,1,,
Quebec,9428-1227 Quebec Inc.,"Montréal, QC H3K 2X3",1,High Wage,5131,"Producers, directors, choreographers and related occupations",Unknown,1,45.481584,-73.569342
Quebec,9429-9195 Québec inc.,"MONTREAL, QC H3B 3G1",1,High Wage,6344,"Jewellers, jewellery and watch repairers and related occupations",Unknown,1,45.504111,-73.568634
Quebec,9432-7376 Québec inc,"Montréal, QC H4L 5B1",1,High Wage,6732,Specialized cleaners,Unknown,1,45.520045,-73.671495
Quebec,9433-2855 Québec inc,"Marieville, QC J3M 1P1",1,High Wage,7333,Electrical mechanics,Unknown,1,45.432306,-73.112963
Quebec,9439-1539 Quebec Inc,"Brossard, QC J4Y 0L1",1,High Wage,6322,Cooks,Unknown,1,45.444623,-73.460029
Quebec,9439-3048 Quebec inc.,"Magog, QC J1X 3K9",1,High Wage,6321,Chefs,Unknown,1,45.2656515,-72.1556099
Quebec,9444-6614 Québec inc.,"Saint-Eustache, QC J7P  3C",1,High Wage,7322,Motor vehicle body repairers,Corporation,1,,
Quebec,9449-7435 Québec inc.,"Québec, QC G2B 3J9",1,High Wage,1311,Accounting technicians and bookkeepers,Unknown,1,46.840896,-71.360969
Quebec,9451-7331 Québec Inc.,"Montréal, QC H1G 3S5",1,High Wage,1241,Administrative assistants,Corporation,1,45.61037,-73.612292
Quebec,9453-6828 Québec inc.,"Saint-Ubalde, QC G0A 4L0",1,High Wage,7321,"Automotive service technicians, truck and bus mechanics and mechanical repairers",Corporation,1,46.781573,-72.354831
Quebec,9454-8377 Québec Inc.,"Québec, QC G1G 6P5",1,High Wage,3413,"Nurse aides, orderlies and patient service associates",Corporation,1,46.815814,-71.206337
Quebec,9868950 Canada Inc.,"Laval, QC H7V  2T",1,High Wage,1224,Property administrators,Partnership,1,,
Quebec,À CHACUN SON PAIN INC.,"Baie-Saint-Paul, QC G3Z  2J",2,High Wage,6332,Bakers,Corporation,1,,
Quebec,AAA Canada,"Montreal, QC H3C 1L9",1,High Wage,1523,Production logistics co,Unknown,1,45.49939,-73.557986
Quebec,AAR Aircraft Services – Trois-Rivières ULC,"Trois-Rivières, QC G9B 2N8",1,High Wage,7315,Aircraft mechanics and aircraft inspectors,Unknown,1,46.331557,-72.615277
Quebec,ABIPA CANADA INC.,"BOISBRIAND, QC J7H  0A",2,High Wage,7231,Machinists and machining and tooling inspectors,Corporation,1,,
Quebec,ABITIBI-GEOPHYSIQUE INC,"Val-d'Or, QC J9P 4N7",2,High Wage,2212,Geological and mineral technologists and technicians,Partnership,1,48.08671,-77.88538
Quebec,Academie de Pilotage Internationale Inc.,"Gatineau, QC J8R 2Z9",1,High Wage,0112,Human resources managers,Co-operative,1,45.5160179,-75.5513989
Quebec,ACADÉMIE INTERNATIONALE ZIG ZAG,"VICTORIAVILLE, QC G6P 6P4",1,High Wage,4032,Elementary school and kindergarten teachers,Unknown,1,46.038069,-71.915228
Quebec,Académie Marie-Claire,"Kirkland, QC H9J 3Y4",1,High Wage,4032,Elementary school and kindergarten teachers,Unknown,1,45.445219,-73.880729
Quebec,Accès consultants management Canada inc.,"Montréal, QC H3B 4W5",1,High Wage,4021,College and other vocational instructors,Corporation,1,45.515392,-73.553859
Quebec,Acces Industriel Minier inc.,"ROUYN-NORANDA, QC J9X 7A5",3,High Wage,7312,Heavy,Unknown,2,48.225578,-79.009804
Quebec,Acces Industriel Minier inc.,"ROUYN-NORANDA, QC J9X 7A5",4,High Wage,7321,"Automotive service technicians, truck and bus mechanics and mechanical repairers",Unknown,2,48.225578,-79.009804
Quebec,Acces Industriel Minier inc.,"ROUYN-NORANDA, QC J9X 7A5",2,High Wage,9522,"Motor vehicle assemblers, inspectors and testers",Unknown,1,48.225578,-79.009804
Quebec,Accotax Accountancy Services Inc.,"Montréal, QC H4M 2L4",1,High Wage,1311,Accounting technicians and bookkeepers,Corporation,1,45.504776,-73.679156
Quebec,Accuray,"Saint-Laurent, QC H4R 1S3",1,High Wage,2242,Electronic service technicians (household and business equipment),Unknown,1,45.508178,-73.693876
Quebec,Acier Fastech Inc.,"Lac-Drolet, QC G0Y 1C0",2,High Wage,7237,Welders and related machine operators,Unknown,1,45.724929,-70.86205
Quebec,Acier Fati inc,"Varennes, QC J3X 1P7",2,High Wage,7371,Crane operators,Unknown,1,45.665405,-73.38258
Quebec,Acier Picard,"Lévis, QC G6W 7X6",1,High Wage,1215,"Supervisors, supply chain, tracking and scheduling co",Unknown,1,46.7540326,-71.1814208
Quebec,Acier Québec Martimes inc.,"Rivière-du-loup, QC G5R 3Z5",3,High Wage,7452,Material handlers,Unknown,1,47.840677,-69.55428
Quebec,Acier Victoria ltée,"Victoriaville, QC G6T 1V1",1,High Wage,7321,"Automotive service technicians, truck and bus mechanics and mechanical repairers",Unknown,1,46.07856,-71.94269
Quebec,Acoustik produits audiometriques,"Ste-Clodilde de Beauce, QC G0N 1C0",1,High Wage,9533,Other wood products assemblers and inspectors,Unknown,1,46.218009,-71.07553
Quebec,Actoran Conseils,"Montréal, QC H3B 2E3",1,High Wage,1225,Purchasing agents and officers,Corporation,1,45.502497,-73.568814
Quebec,Acumatica Labs Canada Inc.,"Montréal, QC H3B 5L1",2,High Wage,0213,Computer and information systems managers,Corporation,2,45.517235,-73.557274
Quebec,ADA CONSULTANTS INC.,"Québec, QC G1K 6A7",1,High Wage,2161,"Mathematicians, statisticians and actuaries",Unknown,1,46.813758,-71.226767
Quebec,AddÉnergie Technologies Inc.,"Québec, QC G1P 0A4",2,High Wage,2232,Mechanical engineering technologists and technicians,Corporation,2,46.824279,-71.338779
Quebec,AddÉnergie Technologies Inc.,"Québec, QC G1P 0A4",1,High Wage,2241,Electrical and electronics engineering technologists and technicians,Corporation,1,46.824279,-71.338779
Quebec,Adfast Fasteners Inc,"Saint-Laurent, QC H4S 1E7",1,High Wage,7232,Tool and die makers,Corporation,1,45.494346,-73.746874
Quebec,Aéroclub de Montréal Inc.,"Longueuil, QC J3Y  8Y",1,High Wage,0421,Administrators ,Corporation,1,,
Quebec,Agena3000 inc.,"Montréal, QC H2Y 0A8",1,High Wage,2171,Information systems analysts and consultants,Corporation,1,45.504494,-73.559265
Quebec,Agence Créative Leeroy Inc,"Motréal, QC H2T  2A",1,High Wage,1123,"Professional occupations in advertising, marketing and public relations",Corporation,1,,
Quebec,Agence Créative Leeroy Inc,"Motréal, QC H2T  2A",1,High Wage,5241,Graphic designers and illustrators,Corporation,1,,
Quebec,Agence de placement Grace Inc.,"Montreal, QC H4P 2B7",4,High Wage,1223,Human resources and recruitment officers,Corporation,1,45.50008,-73.657644
Quebec,Agora Communication Inc.,"Québec, QC G1V 0B9",1,High Wage,1226,Conference and event planners,Corporation,1,46.7752004,-71.2913585
Quebec,Agri-Marché Inc.,"S-Isidore, QC G0S 2S0",1,High Wage,7452,Material handlers,Unknown,1,46.294643,-70.873676
Quebec,Agropur,"ST-HUBERT, QC J3Z 1G5",1,High Wage,9461,"Process control and machine operators, food, beverage and associated products processing",Unknown,1,45.457557,-73.4137
Quebec,Air Canada,"SAINT-LAURENT, QC H4S 1Z3",1,High Wage,2252,Industrial designers,Unknown,1,45.48171,-73.723753
Quebec,Air Data Inc,"Mont-Royal, QC H4T 1C9",1,High Wage,2241,Electrical and electronics engineering technologists and technicians,Unknown,1,45.49115,-73.681401
Quebec,Airbus Canada Limited Partnership,"MONTRÉAL, QC H3B 1Y8",1,High Wage,1215,"Supervisors, supply chain, tracking and scheduling co",Unknown,1,45.514464,-73.556599
Quebec,Airbus Canada Limited Partnership,"MONTRÉAL, QC H3B 1Y8",1,High Wage,1225,Purchasing agents and officers,Unknown,1,45.514464,-73.556599
Quebec,AirMP inc.,"Rouyn-Noranda, QC J9Y 0A8",2,High Wage,7237,Welders and related machine operators,Unknown,1,48.162446,-79.076365
Quebec,Alarme La-Sar inc.,"La Sarre, QC J9Z  1N",1,High Wage,2281,Computer network technicians,Corporation,1,,
Quebec,Aldo Group,"Saint-Laurent, QC H4N 2B3",1,High Wage,5243,"Theatre, fashion, exhibit and other creative designers",Unknown,1,45.51489,-73.6641228
Quebec,Alex Coulombe Ltée,"QUEBEC, QC G1N 2G5",2,High Wage,9617,"Labourers in food, beverage and associated products processing",Unknown,2,46.792411,-71.285537
Quebec,Alfa Mega inc.,"Saint-Laurent, QC H4T 1P5",1,High Wage,7333,Electrical mechanics,Corporation,1,45.481279,-73.70976
Quebec,Alignement Le Gardeur Inc.,"Repentigny, QC J5Z 4N8",1,High Wage,7321,"Automotive service technicians, truck and bus mechanics and mechanical repairers",Corporation,1,45.75915,-73.487909
Quebec,Alimentation Raymond Inc,"Quebec City, QC G1S 1G6",2,High Wage,6211,Retail sales supervisors,Unknown,2,46.78718,-71.247168
Quebec,ALIMENTS NATURELS SYLVAIN LEFORT INC.,"MONTREAL, QC H2C 1R5",2,High Wage,0601,Corporate sales managers,Unknown,1,45.561008,-73.657434
Quebec,Aliments Nortera Inc.,"Brossard, QC J4Z 0R4",1,High Wage,7311,Construction millwrights and industrial mechanics,Unknown,1,45.4478496,-73.4289966
Quebec,Aliments Nortera Inc.,"Brossard, QC J4Z 0R4",2,High Wage,7333,Electrical mechanics,Unknown,1,45.4478496,-73.4289966
Quebec,Alimplus inc.,"Montréal, QC H1J 1Z9",3,High Wage,7511,Transport truck drivers,Unknown,1,45.612865,-73.579503
Quebec,Alithya Canada Inc.,"Montréal, QC H3B 3A5",1,High Wage,1122,Professional occupations in business management consulting,Unknown,1,45.501565,-73.566745
Quebec,Alithya Canada Inc.,"Montréal, QC H3B 3A5",1,High Wage,1223,Human resources and recruitment officers,Unknown,1,45.501565,-73.566745
Quebec,Alithya Canada Inc.,"Montréal, QC H3B 3A5",4,High Wage,2171,Information systems analysts and consultants,Unknown,4,45.501565,-73.566745
Quebec,Alithya Canada Inc.,"Montréal, QC H3B 3A5",1,High Wage,2175,Web designers and developers,Unknown,1,45.501565,-73.566745
