Province,Employer,Address,Positions,Stream,NOC 2011,NOC Name,Incorporated Status,Approved LMIA,Latitude,Longitude
Newfoundland and Labrador,AB Complex Inc.,"Gander, NL A1V 1X3",1,High Wage,1221,Administrative officers,Unknown,1,48.951546,-54.606189
Newfoundland and Labrador,AB Complex Inc.,"Gander, NL A1V 1X3",1,High Wage,7271,Carpenters,Unknown,1,48.951546,-54.606189
Newfoundland and Labrador,Central Health,"Grand Falls-Windsor, NL A2A 1Y4",1,High Wage,3111,Specialist physicians,Unknown,1,48.9296771,-55.6621051
Newfoundland and Labrador,Corner Brook Baseball Association,"Corner Brook, NL A2H 6E6",1,High Wage,5252,Coaches,Unknown,1,48.965329,-58.030775
Newfoundland and Labrador,Just Rent Property Management Inc,"PETTY HARBOUR, NL A0A 3H0",1,High Wage,1224,Property administrators,Unknown,1,47.476427,-52.707683
Newfoundland and Labrador,Osauhing TS Shipping,"St. John's, NL A1E 2E3",4,High Wage,2273,"Deck officers, water transport",Unknown,2,47.5252149,-52.7695777
Newfoundland and Labrador,Osauhing TS Shipping,"St. John's, NL A1E 2E3",4,High Wage,2274,"Engineer officers, water transport",Unknown,2,47.5252149,-52.7695777
Newfoundland and Labrador,PROMINENT TRANSPORTATION INC,"BISHOP'S FALLS, NL A0H 1C0",1,High Wage,0601,Corporate sales managers,Unknown,1,49.010570526123,-55.4957237243652
Newfoundland and Labrador,Western Regional Health Authority,"Corner Brook, NL A2H 6J7",3,High Wage,3111,Specialist physicians,Unknown,2,48.965333,-58.030775
Newfoundland and Labrador,YH Holdings Inc,"St John's, NL A1B 1W3",1,High Wage,1311,Accounting technicians and bookkeepers,Unknown,1,47.5586,-52.755482
Newfoundland and Labrador,#1Nails,"St. John’s, NL A1B 1W3",2,Low Wage,6562,"Estheticians, electrologists and related occupations",Unknown,1,47.5586,-52.755482
Newfoundland and Labrador,10565 NFLD Incxs,"Happy Valley-Goose Bay, NL A0P 1C0",1,Low Wage,6312,Executive housekeepers,Unknown,1,53.308255,-60.378852
Newfoundland and Labrador,13199657 Canada Inc.,"Fermeuse, NL A0A 2G0",1,Low Wage,6211,Retail sales supervisors,Unknown,1,46.983293,-52.912336
Newfoundland and Labrador,86280 Newfoundland & Labrador Corp,"Paradise, NL A1L 1V1",1,Low Wage,6322,Cooks,Unknown,1,47.531853,-52.832624
Newfoundland and Labrador,87666 NEWFOUNDLAND AND LABRADOR INC.,"Torbay, NL A1K 1A3",1,Low Wage,6711,"Food counter attendants, kitchen helpers and related support occupations",Unknown,1,47.656088,-52.728365
Newfoundland and Labrador,B & F ENTERPRISES LTD.,"BAIE VERTE, NL A0K 1B0",1,Low Wage,6322,Cooks,Unknown,1,49.934577,-56.201564
Newfoundland and Labrador,Baba Q's Smoke & Grill Restaurant Ltd,"Labrador City, NL A2V 2B6",1,Low Wage,6311,Food service supervisors,Unknown,1,52.9459114,-66.9058657
Newfoundland and Labrador,Baba Q's Smoke & Grill Restaurant Ltd,"Labrador City, NL A2V 2B6",1,Low Wage,6332,Bakers,Unknown,1,52.9459114,-66.9058657
Newfoundland and Labrador,Dr Chandrasegaram Labrador Prof Dental Corp,"Happy Valley Goose Bay, NL A0P 1C0",1,Low Wage,1414,Receptionists,Unknown,1,53.308255,-60.378852
Newfoundland and Labrador,Good fortune Food Industry Inc.,"St. John’s, NL A1B 1W2",2,Low Wage,6322,Cooks,Unknown,1,47.559305,-52.75189
Newfoundland and Labrador,K&P Cafe Ltd.,"Carbonear, NL A1Y 1B1",2,Low Wage,6322,Cooks,Unknown,1,47.7408249,-53.2076685
Newfoundland and Labrador,Nor-Lab Ltd,"Happy Valley-Goose Bay, NL A0P 1E0",1,Low Wage,6322,Cooks,Unknown,1,53.312758,-60.38015
Newfoundland and Labrador,Nutri-Lawn Newfoundland and Labrador Lawn Care Limited,"Torbay, NL A1K 1A4",5,Low Wage,8612,Landscaping and grounds maintenance labourers,Unknown,1,47.656088,-52.728365
Newfoundland and Labrador,Osauhing TS Shipping,"St. John's, NL A1E 2E3",2,Low Wage,2273,"Deck officers, water transport",Unknown,1,47.5252149,-52.7695777
Newfoundland and Labrador,Osauhing TS Shipping,"St. John's, NL A1E 2E3",2,Low Wage,6322,Cooks,Unknown,1,47.5252149,-52.7695777
Newfoundland and Labrador,Osauhing TS Shipping,"St. John's, NL A1E 2E3",7,Low Wage,7532,Water transport deck and engine room crew,Unknown,3,47.5252149,-52.7695777
Newfoundland and Labrador,Quinlan Brothers Ltd.,"Bay de Verde, NL A0A 1E0",20,Low Wage,9463,Fish and seafood plant workers,Unknown,1,48.086656,-52.894291
Newfoundland and Labrador,Sunrise Ventures Inc,"Mt.Pearl, NL A1N 4K3",12,Low Wage,6711,"Food counter attendants, kitchen helpers and related support occupations",Unknown,1,47.502401,-52.815394
Newfoundland and Labrador,T.J. Foods Enterprise Ltd,"Deer Lake, NL A8A 1A9",1,Low Wage,6711,"Food counter attendants, kitchen helpers and related support occupations",Unknown,1,49.183603,-57.413494
Newfoundland and Labrador,Witless Bay Coffee Inc,"Witless Bay, NL A0A 4K0",6,Low Wage,6711,"Food counter attendants, kitchen helpers and related support occupations",Unknown,1,47.280092,-52.827119
Newfoundland and Labrador,WLB Services Limited,"Mount Pearl, NL A1N 4M1",4,Low Wage,6341,Hairstylists and barbers,Unknown,1,47.514062,-52.825316
Newfoundland and Labrador,J & C Sod Farm Ltd.,"Bay Bulls, NL A0A 1C0",1,Primary Agriculture,8432,Nursery and greenhouse workers,Unknown,1,47.403988,-52.79987
Newfoundland and Labrador,Lester's Dairy Farm,"St. John's, NL A1E 6B8",2,Primary Agriculture,8252,"Agricultural service contractors, farm supervisors and specialized livestock workers",Unknown,1,47.5185159,-52.7695083
Newfoundland and Labrador,Miao's Holding Inc.,"St. John's, NL A1H 0M1",4,Primary Agriculture,8431,General farm workers,Unknown,2,47.491725,-52.818672
Newfoundland and Labrador,nemori farms ltd,"Deer Lake, NL A8A 3H9",4,Primary Agriculture,8431,General farm workers,Unknown,1,49.1905838,-57.4548404
Newfoundland and Labrador,Triple E farms ltd.,"Comfort Cove, NL A0G 3K0",4,Primary Agriculture,8431,General farm workers,Unknown,1,49.331694,-54.862511
Newfoundland and Labrador,Grieg NL Nurseries Ltd,"Marystown, NL A0E 2M0",1,Global Talent Stream,0213,Computer and information systems managers,Unknown,1,47.15491,-55.265069
Prince Edward Island,Business Porters Inc.,"Charlottetown, PE C1E 0E4",1,High Wage,1215,"Supervisors, supply chain, tracking and scheduling co",Unknown,1,46.2830841,-63.1398476
Prince Edward Island,Business Porters Inc.,"Charlottetown, PE C1E 0E4",5,High Wage,7511,Transport truck drivers,Unknown,1,46.2830841,-63.1398476
Prince Edward Island,Coach Atlantic Transportation Group Inc.,"Charlottetown, PE C1A 5R7",3,High Wage,7321,"Automotive service technicians, truck and bus mechanics and mechanical repairers",Unknown,1,46.246324,-63.123881
Prince Edward Island,Great Wisdom Buddhist Institute Inc.,"Vernon Bridge, PE C0A 2E0",1,High Wage,3232,Practitioners of natural healing,Unknown,1,46.179,-62.884
Prince Edward Island,Linkletter's Welding Ltd.,"Summerside, PE C1N 4J9",4,High Wage,7237,Welders and related machine operators,Unknown,2,46.39208,-63.740224
Prince Edward Island,Punjabi Bites Restaurant,"Charlottetown, PE C1A 4L1",1,High Wage,6322,Cooks,Unknown,1,46.235994,-63.12763
Prince Edward Island,Rodd Management Ltd.,"Charlottetown, PE C1A 1M9",1,High Wage,6321,Chefs,Unknown,1,46.234281,-63.130521
Prince Edward Island,Seafood Express (PEI) Limited,"Charlottetown, PE C1E 3M9",14,High Wage,7511,Transport truck drivers,Unknown,1,46.2820365,-63.1476441
Prince Edward Island,Shergill Developments Inc.,"Cornwall, PE C0A 1H8",1,High Wage,7294,Painters and decorators (except interior decorators),Unknown,1,46.251492,-63.189521
Prince Edward Island,Slipstream Fabrication Inc.,"Sturgeon, PE C0A 1R0",1,High Wage,1311,Accounting technicians and bookkeepers,Unknown,1,46.1637,-62.64674
Prince Edward Island,XPY Union Ltd.,"Stratford, PE C1B 1R1",1,High Wage,0631,Restaurant and food service managers,Unknown,1,46.204175,-63.0876
Prince Edward Island,101719 P.E.I. Inc.,"Montague, PE C0A 1R0",1,Low Wage,6513,Food and beverage servers,Unknown,1,46.1637,-62.64674
Prince Edward Island,Arsenault Bros. Construction Ltd.,"Cornwall, PE C0A 1H5",5,Low Wage,7205,"Contractors and supervisors, other construction trades, installers, repairers and servicers",Unknown,1,46.262182,-63.193038
Prince Edward Island,Bill and Stanley Oyster Company Inc.,"Orwell Cove, PE C0A 2E0",10,Low Wage,9618,Labourers in fish and seafood processing,Unknown,1,46.179,-62.884
Prince Edward Island,Chapman Bros. Construction Ltd.,"Souris, PE C0A 2B0",2,Low Wage,7611,Construction trades helpers and labourers,Unknown,1,46.354047,-62.25215
Prince Edward Island,Charlottetown Fresh Casual Restaurants Inc.,"Charlottetown, PE C1A 4M9",2,Low Wage,6322,Cooks,Unknown,1,46.24286,-63.1328575
Prince Edward Island,Earthform Corporation,"Stratford, PE C1B 2B4",6,Low Wage,8612,Landscaping and grounds maintenance labourers,Unknown,1,46.227999,-63.10083
Prince Edward Island,Good neighbor Trading Inc.,"Charlottetown, PE C1A 2Z1",1,Low Wage,6611,Cashiers,Unknown,1,46.2551868,-63.1308712
Prince Edward Island,GPS Foods Inc,"Charlottetown, PE C1A 6Y9",1,Low Wage,6322,Cooks,Unknown,1,46.2712714,-63.1283754
Prince Edward Island,KILDARE FISHERIES LTD,"Alberton, PE C0B 1B0",20,Low Wage,9463,Fish and seafood plant workers,Unknown,1,46.837425,-64.113384
Prince Edward Island,McInnis Group (1993) Ltd,"Summerside, PE C1N 5C6",1,Low Wage,7611,Construction trades helpers and labourers,Unknown,1,46.412984,-63.803441
Prince Edward Island,Rodd Management Ltd.,"Charlottetown, PE C1A 1M9",10,Low Wage,6322,Cooks,Unknown,2,46.234281,-63.130521
Prince Edward Island,Brookfield Gardens Inc,"Brookfield, PE C0A 1Y0",7,Primary Agriculture,8431,General farm workers,Unknown,1,46.203797,-63.266232
Prince Edward Island,BUNNY BURROW VEGETABLE CO. LTD,"Kinkora, PE C0B 1N0",6,Primary Agriculture,8431,General farm workers,Unknown,1,46.344061,-63.548072
Prince Edward Island,Cedar Grove Farms,"RichmondRR1, PE C0B 1Y0",2,Primary Agriculture,8431,General farm workers,Unknown,1,46.5138130187988,-63.9548187255859
Prince Edward Island,Eastern Exporters Limited,"Souris, PE C0A 2B0",1,Primary Agriculture,8611,Harvesting labourers,Unknown,1,46.354047,-62.25215
Prince Edward Island,Eastern Farms Ltd,"Pownal, PE C1B 3S5",4,Primary Agriculture,8431,General farm workers,Unknown,1,46.2083523,-63.0759984
Prince Edward Island,G Visser & Sons Inc.,"Vernon Bridge, PE C0A 2E0",8,Primary Agriculture,8431,General farm workers,Unknown,3,46.179,-62.884
Prince Edward Island,Hakkers Produce Inc,"BELFAST, PE C0A 1A0",5,Primary Agriculture,8431,General farm workers,Unknown,2,46.049674,-62.810501
Prince Edward Island,Havenlee Farms Inc.,"Summerside, PE C1N 4J9",2,Primary Agriculture,8431,General farm workers,Unknown,1,46.39208,-63.740224
Prince Edward Island,Hy-Croft Farms Inc.,"Summerside, PE C1N 4V4",2,Primary Agriculture,8431,General farm workers,Unknown,1,46.423011,-63.800596
Prince Edward Island,McCardle Bros,"Kinkora, PE C0B 1N0",1,Primary Agriculture,8431,General farm workers,Unknown,1,46.344061,-63.548072
Prince Edward Island,MGS Holdings & Distribution Ltd.,"Alberton, PE C0B 1B0",15,Primary Agriculture,8431,General farm workers,Unknown,1,46.837425,-64.113384
Prince Edward Island,Mol Farms Inc.,"Kinkora, PE C0B 1N0",1,Primary Agriculture,8431,General farm workers,Unknown,1,46.344061,-63.548072
Prince Edward Island,Nabuurs Gardens Ltd,"Montague, PE C0A 1R0",6,Primary Agriculture,8431,General farm workers,Unknown,1,46.1637,-62.64674
Prince Edward Island,Oliver Farms Ltd,"Alberton, PE C0B 1B0",1,Primary Agriculture,8431,General farm workers,Unknown,1,46.837425,-64.113384
Prince Edward Island,Pure Pork Farms Ltd.,"Mount Albion, PE C1B 4B3",7,Primary Agriculture,8431,General farm workers,Unknown,1,46.410062,-63.814357
Prince Edward Island,Steijn Potato Farms,"York, PE C0A 1P0",2,Primary Agriculture,8431,General farm workers,Unknown,1,46.416154,-63.074183
Prince Edward Island,Verander Farms Inc.,"North Wiltshire, PE C0A 1Y0",1,Primary Agriculture,8252,"Agricultural service contractors, farm supervisors and specialized livestock workers",Unknown,1,46.203797,-63.266232
Prince Edward Island,W.P.  Griffin Inc.,"Elmsdale, PE C0B 1K0",6,Primary Agriculture,8431,General farm workers,Unknown,1,46.837426,-64.113384
Prince Edward Island,Pivot Drive Inc.,"Charlottetown, PE C1A 0C9",1,Global Talent Stream,0213,Computer and information systems managers,Unknown,1,46.247894,-63.120275
Prince Edward Island,Tethys Aquaculture Canada Inc.,"Souris, PE C0A 2B0",1,Global Talent Stream,2121,Biologists and related scientists,Unknown,1,46.354047,-62.25215
Nova Scotia,11174444 CANADA INC.,"Halifax, NS B3M 2K7",4,High Wage,8422,Silviculture and forestry workers,Unknown,1,44.677953,-63.649769
Nova Scotia,3287893 Nova Scotia Limited,"HALIFAX, NS B3J 0J1",1,High Wage,1123,"Professional occupations in advertising, marketing and public relations",Unknown,1,44.6410581,-63.5791516
Nova Scotia,4 J Logistics Inc.,"Halifax, NS B3J 3N2",1,High Wage,1241,Administrative assistants,Unknown,1,44.6520116,-63.5760615
Nova Scotia,ADVANCE TRAVEL INC.,"bedford, NS B4B 2E6",1,High Wage,6313,"Accommodation, travel, tourism and related services supervisors",Unknown,1,44.7078571,-63.704372
Nova Scotia,ALPHA MERIDIAN CONSTRUCTION GROUP INC,"Timberlea, NS B3T 1J5",1,High Wage,7441,Residential and commercial installers and servicers,Unknown,1,44.658892,-63.7454
Nova Scotia,Anytime Freight Services Inc.,"bedford, NS B4B 1J7",1,High Wage,1311,Accounting technicians and bookkeepers,Unknown,1,44.714923,-63.716171
Nova Scotia,Associated Imaging Consultants Incorporated,"Halifax, NS B3H 2Y9",1,High Wage,3111,Specialist physicians,Unknown,1,44.6378,-63.578959
Nova Scotia,Bajwa Hauling Inc,"Halifax, NS B3K 1H6",5,High Wage,7511,Transport truck drivers,Unknown,1,44.653753,-63.589217
Nova Scotia,Beaver Creek Winnery Limited,"Lawrencetown, NS B0S 1M0",1,High Wage,0601,Corporate sales managers,Unknown,1,44.891613,-65.06213
Nova Scotia,BTTC (Canada) Incorporated,"Halifax, NS B3J 3R7",2,High Wage,1122,Professional occupations in business management consulting,Unknown,2,44.6520889,-63.5761473
Nova Scotia,Cape Smokey Holding Limited,"Ingonish Beach, NS B0C 1L0",1,High Wage,0632,Accommodation service managers,Unknown,1,46.613127,-60.507454
Nova Scotia,CASTONE CONSTRUCTION LIMITED,"Dartmouth, NS B3B 1B3",7,High Wage,7291,Roofers and shinglers,Unknown,1,44.6876,-63.599126
Nova Scotia,Cha Baa Thai Restaurant Ltd.,"Halifax, NS B3J 2J6",15,High Wage,6322,Cooks,Unknown,2,44.643134,-63.576928
Nova Scotia,CKF Inc.,"Hantsport, NS B0P  1P",15,High Wage,9619,"Other labourers in processing, manufacturing and utilities",Corporation,1,,
Nova Scotia,Dischan Media Inc.,"Stellarton, NS B0K 1S0",1,High Wage,5241,Graphic designers and illustrators,Unknown,1,45.5583249,-62.6623249
Nova Scotia,DXB Logistics Inc,"Sydney, NS B1P 1C4",5,High Wage,7511,Transport truck drivers,Unknown,1,46.1405539,-60.1954856
Nova Scotia,East Coast Wild Blueberry Limited,"Great Village, NS B0M 1L0",2,High Wage,9213,"Supervisors, food, beverage and associated products processing",Unknown,1,45.369405,-63.662186
Nova Scotia,Harvest-Bedford Incorporated,"Bedford, NS B4A 3P1",2,High Wage,6322,Cooks,Unknown,1,44.714768,-63.678037
Nova Scotia,Horne Interior Drywall Contracting Limited,"Mineville, NS B2Z 1J9",3,High Wage,7271,Carpenters,Unknown,1,44.70099,-63.383049
Nova Scotia,Indo Food Service Ltd.,"Halifax, NS B3J 3T1",1,High Wage,1311,Accounting technicians and bookkeepers,Unknown,1,44.6435521,-63.5782305
Nova Scotia,International Language Institute Limited,"Halifax,, NS B3J 3N8",1,High Wage,1123,"Professional occupations in advertising, marketing and public relations",Unknown,1,44.6481,-63.575348
Nova Scotia,Irving Shipbuilding Inc,"Halifax, NS B3K 5M7",2,High Wage,0113,Purchasing managers,Unknown,2,44.66274,-63.590281
Nova Scotia,Irving Shipbuilding Inc,"Halifax, NS B3K 5M7",2,High Wage,1122,Professional occupations in business management consulting,Unknown,2,44.66274,-63.590281
Nova Scotia,Legacy Developments Ltd.,"Halifax, NS B3M 0A4",1,High Wage,6733,"Janitors, caretakers and building superintendents",Unknown,1,44.674451,-63.646652
Nova Scotia,Matters of Data Inc.,"Bedford, NS B4A 1L2",1,High Wage,2171,Information systems analysts and consultants,Unknown,1,44.720537,-63.676166
Nova Scotia,My Recipe Indian Multi Cuisine Ltd.,"Dartmouth, NS B3A 3G7",1,High Wage,6322,Cooks,Unknown,1,44.673202,-63.580173
Nova Scotia,Nova Scotia Health Authority,"Truro, NS B2N  5A",1,High Wage,3111,Specialist physicians,Non-Profit Organization,1,,
Nova Scotia,Omega Formwork Inc.,"Mount Uniacke, NS B0N 1Z0",3,High Wage,7271,Carpenters,Unknown,1,45.034086,-63.870954
Nova Scotia,Schooner Seafoods Limited,"Lower Wedgeport, NS B0W 3P0",1,High Wage,9213,"Supervisors, food, beverage and associated products processing",Unknown,1,43.721842,-65.975976
Nova Scotia,Sobeys Capital Incorporée,"Stellarton, NS B0K 1S0",1,High Wage,1215,"Supervisors, supply chain, tracking and scheduling co",Unknown,1,45.5583249,-62.6623249
Nova Scotia,Sobeys Capital Incorporée,"Stellarton, NS B0K 1S0",1,High Wage,6211,Retail sales supervisors,Unknown,1,45.5583249,-62.6623249
Nova Scotia,TC Nails & Spa Inc.,"Halifax, NS B3M 3Y7",1,High Wage,6316,Other services supervisors,Unknown,1,44.66328,-63.653935
Nova Scotia,The Arbor Stone Manor LTD,"Halifax, NS B3S 0B8",2,High Wage,7271,Carpenters,Unknown,1,44.6555573,-63.6703307
Nova Scotia,Tribune Seafood Limited,"Halifax, NS B3V 1L5",1,High Wage,0621,Retail and wholesale trade managers,Unknown,1,44.482335,-63.598276
Nova Scotia,Valley Flaxflour Limited,"Middleton,, NS B0S 1P0",2,High Wage,9213,"Supervisors, food, beverage and associated products processing",Unknown,1,45.0103912353516,-65.089225769043
Nova Scotia,Yahsi Food Services Inc.,"Halifax, NS B3H 1Y7",2,High Wage,6322,Cooks,Unknown,1,44.640826,-63.585165
Nova Scotia,YST COLLISION,"MIDDLE SACKVILLE, NS B4E 3A9",1,High Wage,0601,Corporate sales managers,Unknown,1,44.7964826,-63.7282477
Nova Scotia,1000243676 Ontario Inc,"Halifax, NS B3J 2B2",2,Low Wage,6322,Cooks,Unknown,1,44.64533,-63.573882
Nova Scotia,12020378 Canada Incorporated,"Halifax, NS B3K 0G2",2,Low Wage,6322,Cooks,Corporation,1,44.660991,-63.6005667
Nova Scotia,1431136 NOVA SCOTIA LIMITED,"Dartmouth, NS B3A 4N3",1,Low Wage,6711,"Food counter attendants, kitchen helpers and related support occupations",Unknown,1,44.684296,-63.558822
Nova Scotia,3026236 nova scotia ltd,"Halifax, NS B3K 4C4",2,Low Wage,9617,"Labourers in food, beverage and associated products processing",Unknown,1,44.654497,-63.592367
Nova Scotia,3099794 Nova Scotia Ltd.,"Enfield, NS B2T 1C8",3,Low Wage,6322,Cooks,Unknown,1,44.939685,-63.534989
Nova Scotia,3233408 Nova Scotia Limited,"Halifax, NS B3K 3B2",2,Low Wage,6322,Cooks,Unknown,1,44.651389,-63.582437
Nova Scotia,3265654 Nova Scotia Ltd.,"Wolfville, NS B4P 1E3",1,Low Wage,6311,Food service supervisors,Unknown,1,45.091732,-64.359871
Nova Scotia,3287893 Nova Scotia Limited,"HALIFAX, NS B3J 0J1",1,Low Wage,6311,Food service supervisors,Unknown,1,44.6410581,-63.5791516
Nova Scotia,3287893 Nova Scotia Limited,"HALIFAX, NS B3J 0J1",5,Low Wage,6322,Cooks,Unknown,3,44.6410581,-63.5791516
Nova Scotia,3296264 nova Scotia limited,"Vaughan, NS B0N 2T0",2,Low Wage,6711,"Food counter attendants, kitchen helpers and related support occupations",Unknown,1,44.819594,-64.318054
Nova Scotia,3310175 Nova Scotia Ltd.,"Louisbourg, NS B1C 1H5",1,Low Wage,6322,Cooks,Unknown,1,45.9222055,-59.9689289
Nova Scotia,3317386 Nova Scotia Limited,"Truro, NS B2N 5B6",2,Low Wage,6322,Cooks,Unknown,1,45.366338,-63.299163
Nova Scotia,3317386 Nova Scotia Limited,"Truro, NS B2N 5B6",1,Low Wage,6731,Light duty cleaners,Unknown,1,45.366338,-63.299163
Nova Scotia,3323091 Nova Scotia Ltd.,"Truro, NS B2N 4Z6",2,Low Wage,0631,Restaurant and food service managers,Unknown,1,45.359649,-63.290421
Nova Scotia,3337422 NOVA SCOTIA LIMITED,"Halifax, NS B3J 2B2",1,Low Wage,6711,"Food counter attendants, kitchen helpers and related support occupations",Unknown,1,44.64533,-63.573882
Nova Scotia,4328469 Nova Scotia Limited,"Halifax, NS B3K 5G9",1,Low Wage,6311,Food service supervisors,Unknown,1,44.660229,-63.618792
Nova Scotia,4347646 Nova Scotia Limited,"Dartmouth, NS B3A 1J7",1,Low Wage,6313,"Accommodation, travel, tourism and related services supervisors",Unknown,1,44.6823,-63.596969
Nova Scotia,4361757 NOVA SCOTIA LIMITED,"AMHERST, NS B4H 2V7",1,Low Wage,6322,Cooks,Unknown,1,45.8230611,-64.2073612
Nova Scotia,4361757 NOVA SCOTIA LIMITED,"AMHERST, NS B4H 2V7",1,Low Wage,6611,Cashiers,Unknown,1,45.8230611,-64.2073612
Nova Scotia,4377001 Nova Scotia Limited,"Currys Corner, NS B0N 2T0",4,Low Wage,6211,Retail sales supervisors,Unknown,1,44.819594,-64.318054
Nova Scotia,4377001 Nova Scotia Limited,"Currys Corner, NS B0N 2T0",3,Low Wage,6421,Retail salespersons,Unknown,1,44.819594,-64.318054
Nova Scotia,723967 NB Inc,"Amherst, NS B4H 4R7",1,Low Wage,6322,Cooks,Unknown,1,45.813747,-64.200861
Nova Scotia,A & D Services Ltd.,"New Minas, NS B4N 3K9",2,Low Wage,6322,Cooks,Unknown,1,45.0562729,-64.4704345
Nova Scotia,Adam SG Enterprises Limited,"Lunenburg, NS B0J 2C0",3,Low Wage,6322,Cooks,Unknown,1,44.37635,-64.309889
Nova Scotia,Adcor Marketing Limited,"yarmouth, NS B5A 2T6",1,Low Wage,6311,Food service supervisors,Unknown,1,43.8441038,-66.1070988
Nova Scotia,Adcor Marketing Limited,"yarmouth, NS B5A 2T6",10,Low Wage,6711,"Food counter attendants, kitchen helpers and related support occupations",Unknown,2,43.8441038,-66.1070988
Nova Scotia,ADDA INDIAN EATERY INC.,"Halifax, NS B3J 3M7",1,Low Wage,1311,Accounting technicians and bookkeepers,Unknown,1,44.642749,-63.577974
Nova Scotia,ADDA INDIAN EATERY INC.,"Halifax, NS B3J 3M7",1,Low Wage,6322,Cooks,Unknown,1,44.642749,-63.577974
Nova Scotia,Arjenam foods ltd.,"Digby, NS B0V 1A0",5,Low Wage,6711,"Food counter attendants, kitchen helpers and related support occupations",Unknown,1,44.536344,-65.84642
Nova Scotia,Arolik Catering Limited,"Garlands Crossing, NS B0N 2T0",1,Low Wage,6322,Cooks,Unknown,1,44.819594,-64.318054
Nova Scotia,Asante Logistic Group Inc.,"Truro, NS B2N 1B5",1,Low Wage,7452,Material handlers,Unknown,1,45.356732,-63.293727
Nova Scotia,ATLANTIC QUALITY PAINTING AND MAINTENANCE SERVICES LTD.,"Halifax, NS B3T 1H1",1,Low Wage,7294,Painters and decorators (except interior decorators),Unknown,1,44.6573091,-63.736291
Nova Scotia,B&D Vienneau LTD,"Porters Lake, NS B3E 1J7",7,Low Wage,6711,"Food counter attendants, kitchen helpers and related support occupations",Unknown,1,44.7380253,-63.2903366
Nova Scotia,Baby Panda Asian Cuisine,"Windsor, NS B0N 2T0",1,Low Wage,6513,Food and beverage servers,Unknown,1,44.819594,-64.318054
Nova Scotia,Brothers Indian Grocery Store INC,"Halifax, NS B3N 0G1",1,Low Wage,6322,Cooks,Unknown,1,44.658074,-63.633085
Nova Scotia,Cabot Links,"Inverness, NS B0E 1N0",6,Low Wage,6322,Cooks,Unknown,1,46.207819,-61.185472
Nova Scotia,Cabot Links,"Inverness, NS B0E 1N0",6,Low Wage,6711,"Food counter attendants, kitchen helpers and related support occupations",Unknown,1,46.207819,-61.185472
Nova Scotia,Cabot Links,"Inverness, NS B0E 1N0",18,Low Wage,6731,Light duty cleaners,Unknown,1,46.207819,-61.185472
Nova Scotia,Celine Nails,"New Glasgow, NS B2H 2J6",1,Low Wage,6562,"Estheticians, electrologists and related occupations",Unknown,1,45.5787421,-62.6641196
Nova Scotia,China King Family Restaurant Ltd.,"Port Hawkesbury, NS B9A 2S4",1,Low Wage,6711,"Food counter attendants, kitchen helpers and related support occupations",Unknown,1,45.6140657,-61.3495797
Nova Scotia,Clarks Harbour Seafood Ltd,"Clarks Harbour, NS B0W 1P0",60,Low Wage,9463,Fish and seafood plant workers,Unknown,1,43.462969,-65.650454
Nova Scotia,D & D Catering Limited,"Debert, NS B0M 1G0",1,Low Wage,6711,"Food counter attendants, kitchen helpers and related support occupations",Unknown,1,45.468637,-63.531392
Nova Scotia,d`Eon Boatbuilding Ltd,"Yarmouth, NS B0W 2M0",2,Low Wage,7271,Carpenters,Unknown,1,43.614492,-65.802918
Nova Scotia,DJAJ Property Ltd.,"Halifax, NS B3L 1L2",3,Low Wage,6322,Cooks,Unknown,1,44.648722,-63.602523
Nova Scotia,Dundee Resort & Golf Club ULC,"West Bay, NS B0E 3K0",8,Low Wage,6731,Light duty cleaners,Unknown,1,45.616866,-61.215996
Nova Scotia,Dundee Resort & Golf Club ULC,"West Bay, NS B0E 3K0",2,Low Wage,8612,Landscaping and grounds maintenance labourers,Unknown,1,45.616866,-61.215996
Nova Scotia,Elgebeily Restaurant Ltd,"Sydney, NS B1P 5K6",1,Low Wage,6321,Chefs,Unknown,1,46.1393341,-60.1866014
Nova Scotia,Farnell Packaging Limited,"Dartmouth, NS B3B 1L3",10,Low Wage,9619,"Other labourers in processing, manufacturing and utilities",Unknown,1,44.704755,-63.595664
Nova Scotia,HABANEROS MODERN TACO BAR LTD.,"Dartmouth, NS B3B 1B5",1,Low Wage,6311,Food service supervisors,Unknown,1,44.693737,-63.600588
Nova Scotia,HABANEROS MODERN TACO BAR LTD.,"Dartmouth, NS B3B 1B5",3,Low Wage,6321,Chefs,Unknown,1,44.693737,-63.600588
Nova Scotia,Hotel N.S. Ownership Limited Partnership,"Halifax, NS B3H 2P6",1,Low Wage,6321,Chefs,Unknown,1,44.639525,-63.568835
Nova Scotia,J.M.P Sayles Holdings Inc.,"Windsor, NS B0N 2T0",6,Low Wage,6311,Food service supervisors,Unknown,3,44.819594,-64.318054
Nova Scotia,J.M.P Sayles Holdings Inc.,"Windsor, NS B0N 2T0",20,Low Wage,6711,"Food counter attendants, kitchen helpers and related support occupations",Unknown,4,44.819594,-64.318054
Nova Scotia,J.T Transcore Inc,"Bedford, NS B4B 1G7",1,Low Wage,1311,Accounting technicians and bookkeepers,Unknown,1,44.725286,-63.707864
Nova Scotia,Kelley & Oickle Enterprises Ltd,"Bridgewater, NS B4V 4H5",2,Low Wage,6322,Cooks,Unknown,1,44.3983062,-64.532328
Nova Scotia,Liu&meng investment inc.,"Halifax, NS B3J 2H7",1,Low Wage,6711,"Food counter attendants, kitchen helpers and related support occupations",Unknown,1,44.643134,-63.575793
Nova Scotia,Lobsterboys SH Ltd,"Shag Harbour, NS B0W 3B0",12,Low Wage,9618,Labourers in fish and seafood processing,Unknown,1,43.506114,-65.718791
Nova Scotia,M.J.N.J Investments Ltd,"Lunenburg, NS B0J 2C0",1,Low Wage,6311,Food service supervisors,Unknown,1,44.37635,-64.309889
Nova Scotia,MAKHANI INDIAN RESTAURANT INC.,"BEDFORD, NS B4A 3Y4",1,Low Wage,6322,Cooks,Unknown,1,44.733105,-63.655979
Nova Scotia,MAV HALIFAX HAIR INC.,"Halifax, NS B3L 2H8",2,Low Wage,6341,Hairstylists and barbers,Unknown,1,44.648547,-63.621514
Nova Scotia,MCLEAN'S SERVICE CENTER LIMITED,"Newport, NS B0N 2A0",2,Low Wage,6322,Cooks,Unknown,1,45.034087,-63.870954
Nova Scotia,MCLEAN'S SERVICE CENTER LIMITED,"Newport, NS B0N 2A0",3,Low Wage,6421,Retail salespersons,Unknown,1,45.034087,-63.870954
Nova Scotia,Melvin tan sushi company,"Antigonish, NS B2G 2V2",1,Low Wage,6322,Cooks,Unknown,1,,
Nova Scotia,naan n curry Restaurant LTD,"Halifax, NS B3L 4N2",1,Low Wage,6322,Cooks,Unknown,1,44.644616,-63.599995
Nova Scotia,Naru Japanese Restaurant (NS) Ltd.,"Sydney, NS B1P 1G8",2,Low Wage,6322,Cooks,Unknown,1,46.135026,-60.192725
Nova Scotia,NS KT Foods Inc.,"Halifax, NS B3L 2H8",1,Low Wage,6711,"Food counter attendants, kitchen helpers and related support occupations",Unknown,1,44.648547,-63.621514
Nova Scotia,ORSO LTD,"HALIFAX, NS B3J 2G8",1,Low Wage,6322,Cooks,Unknown,1,44.648691,-63.5778
Nova Scotia,Palis Investments Limited,"Lower Sackville, NS B4C 2S4",5,Low Wage,6322,Cooks,Unknown,1,44.7682989,-63.6857731
Nova Scotia,Peter Green Hall Childrens Centre,"Halifax, NS B3H 2Z9",1,Low Wage,4214,Early childhood educators and assistants,Unknown,1,44.6354226,-63.5798305
Nova Scotia,R&G MacDonald Enterprises Ltd.,"Port Hawkesbury, NS B9A 2M4",2,Low Wage,6711,"Food counter attendants, kitchen helpers and related support occupations",Unknown,1,45.624118,-61.347106
Nova Scotia,R.I.N. Hospitality Investments Limited,"Fall River, NS B2T 1J5",1,Low Wage,0631,Restaurant and food service managers,Unknown,1,44.808796,-63.605941
Nova Scotia,R.I.N. Hospitality Investments Limited,"Fall River, NS B2T 1J5",2,Low Wage,6731,Light duty cleaners,Unknown,1,44.808796,-63.605941
Nova Scotia,R.L. Dunlap (2019) Limited,"East Mountain, NS B6L 2N6",1,Low Wage,6731,Light duty cleaners,Unknown,1,45.397503,-63.206023
Nova Scotia,Rachel's Cleaning Services,"Catalone, NS B1C 2G7",2,Low Wage,6731,Light duty cleaners,Unknown,1,45.984721,-59.9874013
Nova Scotia,Randy Roop's Service Centre Ltd.,"Brookfield, NS B0N 1C0",5,Low Wage,6711,"Food counter attendants, kitchen helpers and related support occupations",Unknown,1,45.263092,-63.097746
Nova Scotia,ROYALE FLOORS AND SURFACES INC.,"Halifax, NS B3S 1B5",5,Low Wage,7611,Construction trades helpers and labourers,Unknown,1,44.639764,-63.667904
Nova Scotia,Ruide International LTD.,"Halifax, NS B3J 1H6",1,Low Wage,6322,Cooks,Unknown,1,44.642498,-63.578937
Nova Scotia,Salt Shaker Deli Ltd,"Lunenburg, NS B0J 2C0",2,Low Wage,6711,"Food counter attendants, kitchen helpers and related support occupations",Unknown,1,44.37635,-64.309889
Nova Scotia,Slumber Inn Ltd.,"New Minas, NS B4N 3K8",2,Low Wage,6313,"Accommodation, travel, tourism and related services supervisors",Unknown,1,45.0558316,-64.471488
Nova Scotia,Slumber Inn Ltd.,"New Minas, NS B4N 3K8",3,Low Wage,6731,Light duty cleaners,Unknown,1,45.0558316,-64.471488
Nova Scotia,Sobeys Capital Incorporée,"Stellarton, NS B0K 1S0",2,Low Wage,6211,Retail sales supervisors,Unknown,2,45.5583249,-62.6623249
Nova Scotia,Sobeys Inc.,"Stellarton, NS B0K 0A2",1,Low Wage,6211,Retail sales supervisors,Unknown,1,45.574316,-62.656599
Nova Scotia,Sobeys Inc.,"Stellarton, NS B0K 0A2",1,Low Wage,6331,"Butchers, meat cutters and fishmongers ",Unknown,1,45.574316,-62.656599
Nova Scotia,Spice Hub Indian Kitchen inc,"Dartmouth, NS B2W 3V4",1,Low Wage,6322,Cooks,Unknown,1,44.694354,-63.501807
Nova Scotia,Springfield Hotels (Halifax) Inc,"Enfield, NS B2T 0C8",1,Low Wage,6312,Executive housekeepers,Unknown,1,44.864069,-63.59006
Nova Scotia,Sydney Fresh Casual Restaurants Inc.,"Sydney, NS B1P 5S8",2,Low Wage,6322,Cooks,Unknown,1,46.160936,-60.110492
Nova Scotia,TC Nails & Spa Inc.,"Halifax, NS B3M 3Y7",2,Low Wage,6562,"Estheticians, electrologists and related occupations",Unknown,1,44.66328,-63.653935
Nova Scotia,THE MILLSTONE PUBLIC HOUSE INC,"DARTMOUTH, NS B2W 6L4",4,Low Wage,6322,Cooks,Unknown,1,44.670365,-63.532147
Nova Scotia,The Shaw Group Limited,"Lantz, NS B2S 1M9",8,Low Wage,9619,"Other labourers in processing, manufacturing and utilities",Unknown,1,44.9873937,-63.482615
Nova Scotia,Treeline Project Management Ltd.,"Bridgetown, NS B0S 1C0",4,Low Wage,7611,Construction trades helpers and labourers,Unknown,1,44.764216,-65.44272
Nova Scotia,WEARWELL GARMENTS LIMITED,"Stellarton, NS B0K 1S0",1,Low Wage,9619,"Other labourers in processing, manufacturing and utilities",Unknown,1,45.5583249,-62.6623249
Nova Scotia,Westlake Chinese Cuisine and Food Inc.,"Dartmouth, NS B2X 1R5",1,Low Wage,6711,"Food counter attendants, kitchen helpers and related support occupations",Unknown,1,44.681709,-63.540712
Nova Scotia,Wheaton's Woodworking Ltd.,"Berwick, NS B0P 1E0",3,Low Wage,9534,Furniture finishers and refinishers,Unknown,1,45.090922,-64.823309
Nova Scotia,Young Guns Fisheries Limited,"Pembroke, NS B5A 5H3",1,Low Wage,8441,Fishing vessel deckhands,Unknown,1,43.838441,-66.114026
Nova Scotia,Balamore Farm Ltd,"Great Village, NS B0M 1L0",1,Primary Agriculture,8431,General farm workers,Unknown,1,45.369405,-63.662186
Nova Scotia,Bayview Poultry Farms Ltd,"Masstown, NS B0M 1G0",6,Primary Agriculture,8431,General farm workers,Unknown,1,45.468637,-63.531392
Nova Scotia,Bragg Lumber Company,"Collingwood, NS B0M 1P0",9,Primary Agriculture,8431,General farm workers,Unknown,2,45.810473,-63.849946
Nova Scotia,Cape Breton Orchard & Winery,"Glace Bay, NS B1A 2Y9",1,Primary Agriculture,8611,Harvesting labourers,Unknown,1,46.1859905,-59.9982371
Nova Scotia,Craig Nichols Farms Limited,"Aylesford, NS B0P 1C0",42,Primary Agriculture,8431,General farm workers,Unknown,3,45.066995,-64.800737
Nova Scotia,Crisp Growers Incorporated,"Berwick, NS B0P 1E0",64,Primary Agriculture,8431,General farm workers,Unknown,3,45.090922,-64.823309
Nova Scotia,Dempsey Corner Orchards,"AYLESFORD  NS, NS B0P 1C0",2,Primary Agriculture,8431,General farm workers,Unknown,1,45.066995,-64.800737
Nova Scotia,Eisses Farms Ltd,"Northville, NS B0P 1J0",6,Primary Agriculture,8431,General farm workers,Unknown,1,45.195976,-64.680474
Nova Scotia,Elmridge Farm Ltd,"RR2 Centreville, NS B0P 1J0",2,Primary Agriculture,8431,General farm workers,Unknown,1,45.195976,-64.680474
Nova Scotia,Evangeline Orchards Limited,"Port Williams, NS B0P 1T0",6,Primary Agriculture,8431,General farm workers,Unknown,1,45.159695,-64.362715
Nova Scotia,Fuller Brothers Farms Inc.,"Avonport, NS B0P 1B0",10,Primary Agriculture,8431,General farm workers,Corporation,1,45.095693,-64.227973
Nova Scotia,G & C Hughes Enterprises Limited,"New Ross, NS B0J 2M0",10,Primary Agriculture,8432,Nursery and greenhouse workers,Unknown,1,44.7657928466797,-64.4158172607422
Nova Scotia,G.A.R. Tree Farms Ltd,"Barss Corner, NS B0R 1A0",21,Primary Agriculture,8432,Nursery and greenhouse workers,Unknown,2,44.6241188049316,-64.6746444702148
Nova Scotia,Gouchers Farm And Market Limited,"Kingston, NS B0P 1R0",1,Primary Agriculture,8431,General farm workers,Unknown,1,45.074551,-64.720682
Nova Scotia,H&J Penner Farm,"Berwick, NS B0P 1E0",5,Primary Agriculture,8431,General farm workers,Unknown,1,45.090922,-64.823309
Nova Scotia,High Point Orchards LTD.,"Kentville, NS B4N 3V7",18,Primary Agriculture,8431,General farm workers,Unknown,1,45.067163,-64.547804
Nova Scotia,Hilly Acres Farm Ltd.,"Millville, NS B1Y 2E1",1,Primary Agriculture,8431,General farm workers,Unknown,1,46.27095,-60.379651
Nova Scotia,J & M Reeves Christmas Greens Limited,"New Ross, NS B0J 2M0",3,Primary Agriculture,8432,Nursery and greenhouse workers,Unknown,1,44.7657928466797,-64.4158172607422
Nova Scotia,John A McLarty Lisa Law,"Port Williams, NS B0P 1T0",1,Primary Agriculture,8252,"Agricultural service contractors, farm supervisors and specialized livestock workers",Unknown,1,45.159695,-64.362715
Nova Scotia,LUTZ FAMILY FARM LTD,"Berwick, NS B0P 1E0",14,Primary Agriculture,8431,General farm workers,Unknown,3,45.090922,-64.823309
Nova Scotia,MacGregor Dairy Farm Ltd.,"Churchville, NS B0K 1B0",2,Primary Agriculture,8252,"Agricultural service contractors, farm supervisors and specialized livestock workers",Unknown,1,45.430742,-62.606971
Nova Scotia,Mahoney's Evergreens L.P.,"East Dalhousie, NS B0R 1H0",6,Primary Agriculture,8432,Nursery and greenhouse workers,Unknown,1,44.794246,-64.643897
Nova Scotia,Merks Poultry Farm Limited,"Avonport, NS B0P 1B0",6,Primary Agriculture,8431,General farm workers,Corporation,1,45.095693,-64.227973
Nova Scotia,Northern Lights Christmas Tree Farms Ltd.,"Belmont, NS B0M 1G0",3,Primary Agriculture,8431,General farm workers,Unknown,1,45.468637,-63.531392
Nova Scotia,Perfect Berries Ltd.,"Berwick, NS B0P 1E0",23,Primary Agriculture,8431,General farm workers,Unknown,3,45.090922,-64.823309
Nova Scotia,Power Farms Inc.,"Canning, NS B0P 1H0",2,Primary Agriculture,8431,General farm workers,Unknown,1,45.026806,-64.165254
Nova Scotia,Reimer Gardens Inc.,"Waterville, NS B0P 1V0",6,Primary Agriculture,8431,General farm workers,Corporation,1,45.1708349,-64.7669826
Nova Scotia,Sarsfield Farms Incorporated,"Kentville, NS B4N 3V7",18,Primary Agriculture,8431,General farm workers,Unknown,1,45.067163,-64.547804
Nova Scotia,Sawler Gardens Ltd.,"Somerset, NS B0P 1E0",6,Primary Agriculture,8611,Harvesting labourers,Unknown,1,45.090922,-64.823309
Nova Scotia,Scothorn Farms Limited,"Hardwood Lands, NS B0N 1Y0",3,Primary Agriculture,8252,"Agricultural service contractors, farm supervisors and specialized livestock workers",Unknown,1,44.9946916,-63.3453807
Nova Scotia,Spurr Brothers Farms Ltd,"Melvern Square, NS B0P 1R0",16,Primary Agriculture,8431,General farm workers,Unknown,2,45.074551,-64.720682
Nova Scotia,Stirling Fruit Farms (2000) Ltd,"Greenwich, NS B4P 2R2",15,Primary Agriculture,8431,General farm workers,Unknown,1,44.997527,-64.451876
Nova Scotia,Stirlings Mountainside Farms 2017 Ltd,"Centreville, NS B0P 1J0",10,Primary Agriculture,8431,General farm workers,Unknown,1,45.195976,-64.680474
Nova Scotia,T.K. Palmer & Sons Contracting Inc.,"Greenwood, NS B0P 1R0",5,Primary Agriculture,8431,General farm workers,Unknown,1,45.074551,-64.720682
Nova Scotia,Town Plot Orchards Ltd.,"Port Williams, NS B0P 1T0",16,Primary Agriculture,8431,General farm workers,Corporation,2,45.159695,-64.362715
Nova Scotia,Traditional Evergreen Tree Farms Ltd.,"Wileville, NS B4V 5J3",3,Primary Agriculture,8432,Nursery and greenhouse workers,Unknown,1,44.3663776,-64.5399008
Nova Scotia,Vital Berry Farms,"Sheffield Mills, NS B0P 1J0",44,Primary Agriculture,8431,General farm workers,Unknown,4,45.195976,-64.680474
Nova Scotia,Vital Berry Farms,"Sheffield Mills, NS B0P 1J0",1,Primary Agriculture,8611,Harvesting labourers,Unknown,1,45.195976,-64.680474
Nova Scotia,Walsh Farms Inc.,"Rockland, NS B0P 1E0",14,Primary Agriculture,8431,General farm workers,Corporation,3,45.090922,-64.823309
Nova Scotia,Webster Farms Limited,"Cambridge, NS B0P 1G0",10,Primary Agriculture,8431,General farm workers,Unknown,1,45.0180485,-64.6008165
Nova Scotia,M & J Total Transport & Rigging Inc,"Goodwood, NS B3T 1P3",1,Global Talent Stream,0013,Senior managers ,Unknown,1,44.612411,-63.669799
Nova Scotia,Marinus Services ULC,"Halifax, NS B3L  2C",1,Global Talent Stream,0213,Computer and information systems managers,Corporation,1,,
Nova Scotia,Paraza Technologies Inc.,"Halifax, NS B3J 3K8",1,Global Talent Stream,4165,"Health policy researchers, consultants and program officers",Unknown,1,44.648408,-63.57472
Nova Scotia,Puzzle Finch Games Atlantic Ltd.,"Halifax, NS B3J 3M8",1,Global Talent Stream,5131,"Producers, directors, choreographers and related occupations",Co-operative,1,44.647395,-63.5727
Nova Scotia,QRA Consulting Inc,"Halifax, NS B3K 5L2",4,Global Talent Stream,2173,Software engineers and designers,Unknown,3,44.659309,-63.602819
Nova Scotia,SJ SAP CONSULTING INC.,"Bedford, NS B4A 3Y6",1,Global Talent Stream,2172,Database analysts and data administrators,Unknown,1,44.71275,-63.679655
New Brunswick,Bellastate Construction Inc.,"Fredericton, NB E3B 1V1",1,High Wage,7241,Electricians (except industrial and power system),Unknown,1,45.957366,-66.650952
New Brunswick,Bellastate Construction Inc.,"Fredericton, NB E3B 1V1",1,High Wage,7611,Construction trades helpers and labourers,Unknown,1,45.957366,-66.650952
New Brunswick,685612 NB LTD.,"Fredericton, NB E3B 5Y4",1,High Wage,6211,Retail sales supervisors,Unknown,1,45.949626,-66.686082
New Brunswick,729136 NB Inc,"Fredericton, NB E3B 1E6",2,High Wage,6322,Cooks,Unknown,1,45.960744,-66.640883
New Brunswick,A.R. Rietzel Landscaping Ltd.,"Lutes Mountain, NB E1G 2T5",1,High Wage,7312,Heavy,Unknown,1,46.1198453,-64.9106755
New Brunswick,Acadia Bricklayers Ltd.,"Moncton, NB E1H 2R4",8,High Wage,7611,Construction trades helpers and labourers,Unknown,1,46.13123,-64.74509
New Brunswick,AmSpec Services Canada Limited,"St-John, NB E2L 4V1",1,High Wage,2262,Engineering inspectors and regulatory officers,Unknown,1,45.274309,-66.060989
New Brunswick,ASB GREENWORLD LTD,"Pointe Sapin, NB E4X 2L5",6,High Wage,7521,Heavy equipment operators (except crane),Unknown,1,46.7865245,-65.0534949
New Brunswick,ASB GREENWORLD LTD,"Pointe Sapin, NB E4X 2L5",2,High Wage,7612,Other trades helpers and labourers,Unknown,1,46.7865245,-65.0534949
New Brunswick,AYR Motor Express Inc,"Woodstock, NB E7M 4G2",20,High Wage,7511,Transport truck drivers,Unknown,2,46.123818,-67.616701
New Brunswick,BOSH CONSUMER DISTRIBUTION NETWORKS LIMITED,"Memramcook, NB E4K 2A3",1,High Wage,7445,Other repairers and servicers,Unknown,1,46.014948,-64.601644
New Brunswick,BWS Manufacturing Ltd,"Centreville, NB E7K 1A4",2,High Wage,9536,"Industrial painters, coaters and metal finishing process operators",Unknown,1,46.430804,-67.711629
New Brunswick,Horizon Health Network,"Miramichi, NB E1V 3G5",1,High Wage,3111,Specialist physicians,Unknown,1,47.00234,-65.546196
New Brunswick,Jayprabhu Hospitality Inc.,"St Andrews, NB E5B 1A3",2,High Wage,6315,Cleaning supervisors,Unknown,1,45.069209,-67.043047
New Brunswick,LA BONNE ROUTE (1993) INC.,"Lavillette, NB E9G 2R4",1,High Wage,1241,Administrative assistants,Unknown,1,47.379562,-64.982314
New Brunswick,Lucky House Restaurant Ltd,"Fredericton, NB E3B 3E3",2,High Wage,6322,Cooks,Unknown,1,45.961142,-66.654119
New Brunswick,Ming and Bo Brothers Company Ltd,"Saint John, NB E2K 3E2",1,High Wage,6322,Cooks,Unknown,1,45.285287,-66.078495
New Brunswick,Murray Enterprises Ltd.,"Sussex Corner, NB E4E 2Y5",3,High Wage,7511,Transport truck drivers,Unknown,1,45.7100729,-65.4774611
New Brunswick,Northeast Machine Works Inc,"Miramichi, NB E1N 6K8",1,High Wage,9417,Machining tool operators,Unknown,1,47.013972,-65.446639
New Brunswick,Oak Haven Auto Renewal Limited,"St Stephen, NB E3L 2C7",4,High Wage,7322,Motor vehicle body repairers,Unknown,1,45.197851,-67.2743452
New Brunswick,Raymond Chabot Grant Thornton,"Edmundston, NB E3V 2K9",1,High Wage,1311,Accounting technicians and bookkeepers,Unknown,1,47.380938,-68.335702
New Brunswick,Red Emerald R&D Ltd.,"Moncton, NB E1G 5W7",1,High Wage,0124,"Advertising, marketing and public relations managers",Unknown,1,46.116278,-64.845696
New Brunswick,Réseau de santé Vitalité (employés sans congé maladies),"Bathurst, NB E3Z 2R9",1,High Wage,3111,Specialist physicians,Unknown,1,47.046889,-67.750385
New Brunswick,RITE-LINE TRANSPORTATION INC.,"FLORENCEVILLE-BRISTOL, NB E7L 3K6",3,High Wage,7511,Transport truck drivers,Unknown,1,46.443363,-67.645001
New Brunswick,10350052 Canada Inc,"pennfield, NB E5H 0B4",3,Low Wage,6211,Retail sales supervisors,Unknown,1,45.1144412,-66.7047313
New Brunswick,11399900 CANADA INC.,"Saint John, NB E2J 0A7",1,Low Wage,6311,Food service supervisors,Unknown,1,45.262091,-65.949392
New Brunswick,11656520 Canada Inc.,"Pointe Sapin, NB E9A 1V1",40,Low Wage,9463,Fish and seafood plant workers,Unknown,1,47.0270462036133,-65.0327301025391
New Brunswick,11656520 Canada Inc.,"Pointe Sapin, NB E9A 1V1",10,Low Wage,9618,Labourers in fish and seafood processing,Unknown,1,47.0270462036133,-65.0327301025391
New Brunswick,12th avenue restaurant inc.,"Bathurst, NB E2A 6X2",3,Low Wage,6322,Cooks,Unknown,1,47.62801,-65.667081
New Brunswick,508307 NB LTD,"Dieppe, NB E1A 1N4",2,Low Wage,6322,Cooks,Unknown,1,46.094179,-64.755391
New Brunswick,513726 NB Ltd.,"Hanwell, NB E3C 2L6",5,Low Wage,7611,Construction trades helpers and labourers,Unknown,1,45.813408,-66.932027
New Brunswick,645527 NB Inc.,"Edmundston, NB E3V 2S7",1,Low Wage,6322,Cooks,Unknown,1,47.374235,-68.315512
New Brunswick,647277 NB Ltd,"Moncton, NB E1C 7W8",2,Low Wage,6322,Cooks,Unknown,1,46.1088746,-64.8230621
New Brunswick,697735 NB Inc.,"Dieppe, NB E1A 7K6",2,Low Wage,6211,Retail sales supervisors,Unknown,1,46.0533913,-64.6788316
New Brunswick,700827 NB Inc o/a J's Asian Kitchen-Main Street,"Fredericton, NB E3A 1C8",1,Low Wage,6322,Cooks,Corporation,1,45.978759,-66.654579
New Brunswick,708077nb inc / pizza boy,"Grand falls, NB E3Y 1B9",1,Low Wage,6711,"Food counter attendants, kitchen helpers and related support occupations",Unknown,1,47.051861,-67.732323
New Brunswick,712170 NB Inc,"Moncton, NB E1C 2S2",2,Low Wage,7612,Other trades helpers and labourers,Unknown,1,46.10101,-64.811546
New Brunswick,723018 NB INC.,"Dieppe, NB E1A 9G5",1,Low Wage,6322,Cooks,Unknown,1,46.079715,-64.7217899
New Brunswick,728700 NB LTD,"fredericton, NB E3B 3N4",1,Low Wage,6322,Cooks,Unknown,1,45.962985,-66.643143
New Brunswick,736075 NB LTD,"Sackville, NB E4L 4B4",1,Low Wage,6322,Cooks,Unknown,1,45.9022398,-64.3735628
New Brunswick,AVL Construction Group Inc,"Drummond, NB E3Y 1W1",10,Low Wage,7611,Construction trades helpers and labourers,Unknown,1,47.072249,-67.64554
New Brunswick,Baie Ste Anne Seafoods (2014) Inc.,"Escuminac, NB E9A 1V6",30,Low Wage,9463,Fish and seafood plant workers,Unknown,1,47.0689468383789,-64.9073638916016
New Brunswick,BALAJI HOSPITALITY MANAGEMENT INC.,"Miramichi, NB E1V 1L2",2,Low Wage,6731,Light duty cleaners,Unknown,1,46.988581,-65.576067
New Brunswick,Beausejour Peat Moss Inc.,"Grand-Barachois, NB E4P 8V1",7,Low Wage,9619,"Other labourers in processing, manufacturing and utilities",Unknown,1,46.075293,-64.80488
New Brunswick,Benson Lobster Co. Ltd,"Grand Manan, NB E5G 2J5",6,Low Wage,9463,Fish and seafood plant workers,Unknown,1,44.655305,-66.84044
New Brunswick,Big Lobster Seafood Incorporated,"GRAND MANAN, NB E5G 1M5",1,Low Wage,6211,Retail sales supervisors,Unknown,1,44.660388,-66.759442
New Brunswick,Bouctouche Bay Inn Inc.,"Lincoln, NB E3B 9J1",1,Low Wage,6322,Cooks,Unknown,1,45.879402,-66.681903
New Brunswick,Cameron-Rose Consulting Ltd,"Saint John, NB E2M 3M4",1,Low Wage,1241,Administrative assistants,Unknown,1,45.251195,-66.097767
New Brunswick,Central Garage Limited,"Atholville, NB E3N 3Z2",1,Low Wage,1524,Purchasing and inventory control workers,Unknown,1,47.983828,-66.737883
New Brunswick,Chipman Hill Suites Limited,"Saint John, NB E2L 1A1",1,Low Wage,6525,Hotel front desk clerks,Unknown,1,45.274086,-66.06466
New Brunswick,Classic Burger Group Inc.,"Moncton, NB E1C 1E9",1,Low Wage,6322,Cooks,Unknown,1,46.088394,-64.778097
New Brunswick,Cochrans Country Market Ltd,"Rothesay, NB E2E 2P8",1,Low Wage,6211,Retail sales supervisors,Unknown,1,45.3970215,-65.9820568
New Brunswick,Connors Bros. Division of Clover Leaf Seafoods Corp.,"Blacks Harbour, NB E5H 1G6",10,Low Wage,9618,Labourers in fish and seafood processing,Unknown,1,45.0552584,-66.7934511
New Brunswick,DINER 81 INC.,"St. Stephen, NB E3L 2C5",1,Low Wage,6322,Cooks,Unknown,1,45.194673,-67.275389
New Brunswick,Donut Creek Company Inc.,"Woodstock, New Brunswick, NB E7M 2E8",6,Low Wage,6711,"Food counter attendants, kitchen helpers and related support occupations",Unknown,4,46.14867,-67.57455
New Brunswick,Fen's Market Inc.,"Woodstock, NB E7M 4L9",4,Low Wage,6322,Cooks,Unknown,1,46.1473518,-67.5913338
New Brunswick,FMI Atlantic Inc.,"Woodstock, NB E7M 5G5",3,Low Wage,0631,Restaurant and food service managers,Unknown,3,46.165002,-67.595162
New Brunswick,FMI Atlantic Inc.,"Woodstock, NB E7M 5G5",3,Low Wage,6311,Food service supervisors,Unknown,3,46.165002,-67.595162
New Brunswick,FMI Atlantic Inc.,"Woodstock, NB E7M 5G5",2,Low Wage,6322,Cooks,Unknown,2,46.165002,-67.595162
New Brunswick,FMI National Inc,"Woodstock, NB E7M 5G5",1,Low Wage,0631,Restaurant and food service managers,Unknown,1,46.165002,-67.595162
New Brunswick,FMI National Inc,"Woodstock, NB E7M 5G5",3,Low Wage,6311,Food service supervisors,Unknown,2,46.165002,-67.595162
New Brunswick,Fresh Casual Restaurants Inc. Dieppe,"Dieppe, NB E1A 1N3",2,Low Wage,6322,Cooks,Unknown,1,46.09418,-64.755388
New Brunswick,GJLC2 FOOD SERVICES INC,"FREDERICTON, NB E3A 1C9",1,Low Wage,6311,Food service supervisors,Unknown,1,45.977015,-66.650578
New Brunswick,Hampton Inn & Suites by Hilton Saint John,"Saint John, NB E2J 0A7",3,Low Wage,6731,Light duty cleaners,Unknown,1,45.262091,-65.949392
New Brunswick,Hotel Shediac,"Shediac, NB E4P 0M2",1,Low Wage,6525,Hotel front desk clerks,Unknown,1,46.1655378,-64.4414999
New Brunswick,Hotel Shediac,"Shediac, NB E4P 0M2",2,Low Wage,6731,Light duty cleaners,Unknown,1,46.1655378,-64.4414999
New Brunswick,J & S Atlanko Ltd,"Woodstock, NB E7M 4M7",2,Low Wage,6731,Light duty cleaners,Unknown,1,46.239382,-67.673102
New Brunswick,Jack's Pizza & Donair,"Fredericton, NB E3B 1E4",3,Low Wage,6322,Cooks,Unknown,2,45.962936,-66.646021
New Brunswick,Jaden Enterprises Ltd.,"Miramichi, NB E1V 6W3",10,Low Wage,6711,"Food counter attendants, kitchen helpers and related support occupations",Unknown,4,47.030942,-65.489272
New Brunswick,JNB RESTAURANTS INC.,"OAK BAY, NB E3L 3W7",1,Low Wage,6211,Retail sales supervisors,Unknown,1,45.209705,-67.238317
New Brunswick,KTH RESTAURANT CONSULTING AND SERVICES INC,"Moncton, NB E1G 1A8",1,Low Wage,6711,"Food counter attendants, kitchen helpers and related support occupations",Unknown,1,46.121625,-64.847806
New Brunswick,Kwiksnax ltd,"Miramichi, NB E1V 4A1",2,Low Wage,6322,Cooks,Unknown,1,47.00169,-65.564932
New Brunswick,LA BONNE ROUTE (1993) INC.,"Lavillette, NB E9G 2R4",1,Low Wage,6322,Cooks,Unknown,1,47.379562,-64.982314
New Brunswick,LA BONNE ROUTE (1993) INC.,"Lavillette, NB E9G 2R4",1,Low Wage,6711,"Food counter attendants, kitchen helpers and related support occupations",Unknown,1,47.379562,-64.982314
New Brunswick,Leo Bakery Cafe Inc.,"Riverview, NB E1B 3Y8",1,Low Wage,6322,Cooks,Unknown,1,46.062969,-64.8179
New Brunswick,Linn Chau Restaurant,"Saint John, NB E2J 1A5",2,Low Wage,6322,Cooks,Unknown,1,45.28215,-66.038096
New Brunswick,Lucky House Restaurant Ltd,"Fredericton, NB E3B 3E3",1,Low Wage,6711,"Food counter attendants, kitchen helpers and related support occupations",Unknown,1,45.961142,-66.654119
New Brunswick,Maple Leaf Queen's Buffet Moncton Inc,"Moncton, NB E1C 2S4",5,Low Wage,6322,Cooks,Unknown,1,46.101672,-64.813553
New Brunswick,Moncton Fresh Casual Restaurants Inc.,"Moncton, NB E1G 1A8",2,Low Wage,6322,Cooks,Unknown,1,46.121625,-64.847806
New Brunswick,Murphy QSR Ltd.,"Saint John, NB E2L 1G4",6,Low Wage,6711,"Food counter attendants, kitchen helpers and related support occupations",Unknown,1,45.273168,-66.060486
New Brunswick,Pêcheries Lebreton &Fils Ltee,"Grande-Anse, NB E8N 1G4",85,Low Wage,9463,Fish and seafood plant workers,Unknown,2,47.824221,-65.131234
New Brunswick,Provincial Bandag Tires Ltée,"Edmundston, NB E3V 1G6",1,Low Wage,9619,"Other labourers in processing, manufacturing and utilities",Unknown,1,47.359573,-68.347167
New Brunswick,Richibucto Food Services Inc,"Shediac, NB E4P 2G9",2,Low Wage,6311,Food service supervisors,Unknown,1,46.2212234,-64.5292891
New Brunswick,Richibucto Food Services Inc,"Shediac, NB E4P 2G9",1,Low Wage,6322,Cooks,Unknown,1,46.2212234,-64.5292891
New Brunswick,Richibucto Food Services Inc,"Shediac, NB E4P 2G9",2,Low Wage,6611,Cashiers,Unknown,1,46.2212234,-64.5292891
New Brunswick,Rona inc.,"Edmundston, NB E3V 4H4",2,Low Wage,7452,Material handlers,Unknown,1,47.394565,-68.334853
New Brunswick,S & P Foods Inc,"Fredericton, NB E3A 2S4",3,Low Wage,6322,Cooks,Unknown,1,45.9764135,-66.634308
New Brunswick,SERENA PROPERTIES INC,"Fredericton, NB E3A 8C2",4,Low Wage,6731,Light duty cleaners,Unknown,1,45.935285,-66.607319
New Brunswick,Shire Foods Inc,"Alma, NB E4H 1N6",1,Low Wage,6321,Chefs,Unknown,1,45.601095,-64.943401
New Brunswick,Shire Foods Inc,"Alma, NB E4H 1N6",2,Low Wage,6322,Cooks,Unknown,1,45.601095,-64.943401
New Brunswick,Thai Express,"Fredericton, NB E3C 1A2",2,Low Wage,6322,Cooks,Unknown,1,45.9332836,-66.6627318
New Brunswick,The Golden Years Estate Ltd,"Moncton, NB E1E 0B4",8,Low Wage,4412,"Home support workers, housekeepers and related occupations",Corporation,2,46.07887,-64.863444
New Brunswick,Uncle Mayn's Convenience Ltd,"St. George, NB E5C 3V1",2,Low Wage,6611,Cashiers,Unknown,1,45.06265,-66.7808
New Brunswick,Villa Providence Shediac Inc.,"shediac, NB E4P 2B9",1,Low Wage,3413,"Nurse aides, orderlies and patient service associates",Unknown,1,46.2196575,-64.5382366
New Brunswick,West-Wood Industries Ltd.,"Scoudouc, NB E4P 3P8",4,Low Wage,9437,Woodworking machine operators,Unknown,1,46.16853,-64.57196
New Brunswick,West-Wood Industries Ltd.,"Scoudouc, NB E4P 3P8",15,Low Wage,9533,Other wood products assemblers and inspectors,Unknown,1,46.16853,-64.57196
New Brunswick,Yuzu Sushi Bathurst,"Bathurst, NB E2A 2Z4",1,Low Wage,6711,"Food counter attendants, kitchen helpers and related support occupations",Unknown,1,47.634628,-65.672929
New Brunswick,Zhang's Restaurant Inc.,"Oromocto, NB E2V 2H5",1,Low Wage,6322,Cooks,Unknown,1,45.843188,-66.5046915
New Brunswick,Zoa Mansu B.B.Q Inc,"Dieppe, NB E1A 1G1",1,Low Wage,6711,"Food counter attendants, kitchen helpers and related support occupations",Unknown,1,46.088634,-64.736314
New Brunswick,624899 N.-B. ltée,"St-Quentin, NB E8A 1N9",1,Primary Agriculture,8431,General farm workers,Unknown,1,47.512945,-67.393641
New Brunswick,Canadian Organic Maple Co. Ltd.,"Florenceville- Bristol, NB E7L 2H3",30,Primary Agriculture,8431,General farm workers,Unknown,1,46.467676,-67.574325
New Brunswick,Cavendish Farms Corporation,"Dieppe, NB E1A 6X4",4,Primary Agriculture,8431,General farm workers,Unknown,1,46.103269,-64.710436
New Brunswick,Ferme Canneberges Oli-Eve Cranberry Farm Inc.,"Miramichi, NB E1N 3A6",3,Primary Agriculture,8431,General farm workers,Corporation,1,47.0374275,-65.461532
New Brunswick,Lonsview Farm Ltd.,"New Line, NB E4E  4S",2,Primary Agriculture,8252,"Agricultural service contractors, farm supervisors and specialized livestock workers",Corporation,1,,
New Brunswick,M&S Wild Blueberry Farms Ltd.,"Kouchibouguac, NB E4X 1L7",10,Primary Agriculture,8431,General farm workers,Unknown,2,46.7804571,-65.0902361
New Brunswick,Roelridge Dairy Farm Ltd,"Mapledale, NB E7M 4T7",1,Primary Agriculture,8252,"Agricultural service contractors, farm supervisors and specialized livestock workers",Unknown,1,46.098483,-67.6742794
New Brunswick,Roy Pope & Sons Ltd.,"Belleisle Creek, NB E5P 1G3",4,Primary Agriculture,8431,General farm workers,Unknown,1,45.748439,-65.570466
New Brunswick,"Sussex Valley Vegetable Farms, Inc.","New Line, NB E4E 4T1",4,Primary Agriculture,8431,General farm workers,Unknown,1,45.726839,-65.236243
New Brunswick,ARC Clean Energy Canada Inc.,"Saint John, NB E2L  4V",1,Global Talent Stream,0013,Senior managers ,Corporation,1,,
New Brunswick,Computer Generated Solutions Canada Ltd.,"Saint John, NB E2L 5E8",1,Global Talent Stream,0213,Computer and information systems managers,Unknown,1,45.265608,-66.05629
New Brunswick,IndoCan Digital Inc,"Fredericton, NB E3C 0J1",2,Global Talent Stream,2174,Computer programmers and interactive media developers,Unknown,1,45.871681,-66.7269229
New Brunswick,IndoCan Digital Inc,"Fredericton, NB E3C 0J1",2,Global Talent Stream,2175,Web designers and developers,Unknown,1,45.871681,-66.7269229
New Brunswick,Mariner Partners Inc.,"Saint John, NB E2L 4V1",1,Global Talent Stream,2173,Software engineers and designers,Unknown,1,45.274309,-66.060989
New Brunswick,Teledyne Digital Imaging Inc.,"Fredericton, NB E3B 2L4",1,Global Talent Stream,2173,Software engineers and designers,Unknown,1,45.958742,-66.662403
Quebec,Leyton Canada Inc,"Montréal, QC H3B 3B9",2,High Wage,1114,Other financial officers,Corporation,2,45.503208,-73.569472
Quebec,10036099 Canada Inc.,"Montreal, QC H2L 1K2",2,High Wage,2173,Software engineers and designers,Unknown,2,45.518684,-73.566679
Quebec,10079952 CANADA INC.,"St-Laurent, QC H4R  2E",1,High Wage,7333,Electrical mechanics,Corporation,1,,
Quebec,10251054,"Sainte-Julie, QC J3E 0C6",1,High Wage,6322,Cooks,Unknown,1,45.5828684,-73.3364663
Quebec,10271292 Canada Inc.,"Québec, QC G1K 7R1",1,High Wage,2232,Mechanical engineering technologists and technicians,Unknown,1,46.816727,-71.213123
Quebec,121352 Canada inc,"Rouyn-Noranda, QC J9X 4K8",6,High Wage,7231,Machinists and machining and tooling inspectors,Unknown,1,48.224481,-78.996691
Quebec,135494 Canada Inc.,"Gatineau, QC J8Z 1S9",1,High Wage,7322,Motor vehicle body repairers,Co-operative,1,45.467155,-75.738243
Quebec,136817 CANADA INC.,"MONTREAL, QC H4S 1H3",1,High Wage,7313,Refrigeration and air conditioning mechanics,Corporation,1,45.499384,-73.750223
Quebec,137377 Canada Inc.,"Boucherville, QC J4B 7M4",1,High Wage,6315,Cleaning supervisors,Unknown,1,45.558147,-73.435086
Quebec,150276 Canada Inc.,"Montréal, QC H1E 4H8",1,High Wage,4214,Early childhood educators and assistants,Corporation,1,45.629399,-73.58696
Quebec,165368 CANADA INC,"Sainte Catherine, QC J5C 1G5",1,High Wage,1215,"Supervisors, supply chain, tracking and scheduling co",Corporation,1,45.393115,-73.580178
Quebec,174762 Canada inc,"Gatineau, QC J8T 8K2",2,High Wage,7321,"Automotive service technicians, truck and bus mechanics and mechanical repairers",Corporation,1,45.487975,-75.710412
Quebec,2635-8762 QUEBEC INC./Express Mondor,"LANORAIE, QC J0K 1E0",1,High Wage,7321,"Automotive service technicians, truck and bus mechanics and mechanical repairers",Unknown,1,45.956657,-73.221825
Quebec,2639-1862 Québec INC (Planchers de bois franc Wickham),"WICKHAM, QC J0C 1S0",1,High Wage,7311,Construction millwrights and industrial mechanics,Unknown,1,45.75997,-72.4986
Quebec,2639-1862 Québec INC (Planchers de bois franc Wickham),"WICKHAM, QC J0C 1S0",2,High Wage,7333,Electrical mechanics,Unknown,1,45.75997,-72.4986
Quebec,2701545 CANADA INC,"Lachine, QC H8R 1H3",3,High Wage,7321,"Automotive service technicians, truck and bus mechanics and mechanical repairers",Unknown,2,45.4474297,-73.6353617
Quebec,2701545 CANADA INC,"Lachine, QC H8R 1H3",29,High Wage,7511,Transport truck drivers,Unknown,4,45.4474297,-73.6353617
Quebec,2818876 CANADA INC.,"Longueuil, QC J4K 2X6",6,High Wage,7321,"Automotive service technicians, truck and bus mechanics and mechanical repairers",Corporation,3,45.513521,-73.502226
Quebec,28639839 Quebec Inc CHSLD MANOIR HARWOOD,"Vaudreuil-Dorion, QC J7V 8A3",8,High Wage,3012,Registered nurses and registered psychiatric nurses,Corporation,5,45.402657,-74.041968
Quebec,2946-2256 Quebec Inc,"Montréal, QC H2Y 1H1",1,High Wage,6321,Chefs,Corporation,1,45.508645,-73.552123
Quebec,2950-0519 Québec inc.,"Rouyn-Noranda, QC J9X 6T3",1,High Wage,2232,Mechanical engineering technologists and technicians,Unknown,1,48.220763,-79.01197
Quebec,2963-9556 Québec Inc.,"Saint-Hubert, QC J3Y 8Y7",1,High Wage,7311,Construction millwrights and industrial mechanics,Unknown,1,45.477437,-73.388005
Quebec,2970244 Canada Inc.,"Montreal, QC H3W 1X3",1,High Wage,1311,Accounting technicians and bookkeepers,Unknown,1,45.486657,-73.626569
Quebec,3180751 CANADA INC,"LÉVIS, QC G6Y 0C2",1,High Wage,2253,Drafting technologists and technicians,Unknown,1,,
Quebec,3248224 CANADA INC,"Gatineau, QC J8T 8K2",4,High Wage,7321,"Automotive service technicians, truck and bus mechanics and mechanical repairers",Corporation,1,45.487975,-75.710412
Quebec,3579000 canada Inc.,"Laval, QC H7T 2H6",1,High Wage,7322,Motor vehicle body repairers,Unknown,1,45.567934,-73.76388
Quebec,3853454 canada inc,"saint eustache, QC J7P 0A9",2,High Wage,7511,Transport truck drivers,Unknown,1,45.577578,-73.889164
Quebec,3888061 CANADA inc.,"Chicoutimi, QC G7J 0K5",1,High Wage,7311,Construction millwrights and industrial mechanics,Unknown,1,48.3993684,-71.1062935
Quebec,3903214 Canada Inc,"Montréal, QC H1C 2A2",1,High Wage,7312,Heavy,Unknown,1,45.652952,-73.557529
Quebec,3903214 Canada Inc,"Montréal, QC H1C 2A2",1,High Wage,7321,"Automotive service technicians, truck and bus mechanics and mechanical repairers",Unknown,1,45.652952,-73.557529
Quebec,4042077 Canada Inc. (De Sousa Inc.),"Laval, QC H7E 1A1",4,High Wage,7511,Transport truck drivers,Corporation,1,45.61416,-73.668973
Quebec,4093640 Canada inc.,"Laval, QC H7T  2W",1,High Wage,7321,"Automotive service technicians, truck and bus mechanics and mechanical repairers",Partnership,1,,
Quebec,4262051 Canada inc.,"Montréal, QC H2W 2M4",1,High Wage,2281,Computer network technicians,Corporation,1,45.519228,-73.572744
Quebec,4502175 CANADA INC,"ST-JEAN-SUR-RICHELIEU, QC J3B 1T4",1,High Wage,7511,Transport truck drivers,Unknown,1,45.315195,-73.272572
Quebec,6005438 CANADA INC.,"Piedmont, QC J0R 1R3",1,High Wage,1241,Administrative assistants,Corporation,1,45.888382,-74.146724
Quebec,6354980 Canada Inc,"Montréal, QC H4R 2E9",1,High Wage,5244,Artisans and craftspersons,Unknown,1,45.498708,-73.726007
Quebec,6368425 CANADA LIMITED,"Gatineau, QC J8T 4C3",1,High Wage,0711,Construction managers,Corporation,1,45.483181,-75.71384
Quebec,6386083 Canada inc,"Boisbriand, QC J7G 1C3",1,High Wage,6411,Sales and account representatives ,Unknown,1,45.588746,-73.848161
Quebec,6482066 Canada Inc.,"Labaie, QC G7B 3N8",1,High Wage,2233,Industrial engineering and manufacturing technologists and technicians,Corporation,1,48.329076,-70.909989
Quebec,6570712 CANADA INC.,"Montreal, QC H3R 2J8",1,High Wage,1211,"Supervisors, general office and administrative support workers",Unknown,1,45.5072691,-73.6607739
Quebec,6672469 Canada inc,"MONTREAL, QC H4R 2E9",1,High Wage,7271,Carpenters,Unknown,1,45.498708,-73.726007
Quebec,6954481 CANADA INC.,"Gatineau, QC J8P 8A5",1,High Wage,0621,Retail and wholesale trade managers,Unknown,1,45.49313,-75.639495
Quebec,7011296 Canada Inc.,"Montréal, QC H4T 1G5",1,High Wage,1241,Administrative assistants,Corporation,1,45.473268,-73.708372
Quebec,7853807 Canada Inc.,"St-Mathieu-de-Beloeil, QC J3G 4S5",1,High Wage,7321,"Automotive service technicians, truck and bus mechanics and mechanical repairers",Corporation,1,45.595081,-73.202681
Quebec,7898410 CANADA INC,"Montréal, QC H3M 3E3",1,High Wage,3223,"Dental technologists, technicians and laboratory assistants",Corporation,1,45.537016,-73.678675
Quebec,8161216 Canada Inc.,"St-Hubert, QC J3Y 0P3",1,High Wage,2234,Construction estimators,Unknown,1,45.489161,-73.4204
Quebec,8344795 CANADA INC,"Vaudreuil-Dorion, QC J7V 8P2",5,High Wage,7321,"Automotive service technicians, truck and bus mechanics and mechanical repairers",Unknown,1,45.370432,-74.031042
Quebec,8493545 canada inc.,"Blainville, QC J7C 4Y4",1,High Wage,1123,"Professional occupations in advertising, marketing and public relations",Unknown,1,45.713684,-73.88018
Quebec,8878064 CANADA INC.,"Gatineau, QC J8T 2S4",1,High Wage,7511,Transport truck drivers,Corporation,1,45.471385,-75.679551
Quebec,9005-1319 Québec inc.,"Berthierville, QC J0K 1A0",1,High Wage,7322,Motor vehicle body repairers,Unknown,1,46.066779,-73.187236
Quebec,9042-2585 Québec Inc,"Québec, QC G1X 3V4",1,High Wage,7321,"Automotive service technicians, truck and bus mechanics and mechanical repairers",Corporation,1,46.787526,-71.319025
Quebec,9045406 Canada Inc,"Saint-Laurent, QC H4T 1W1",1,High Wage,7313,Refrigeration and air conditioning mechanics,Unknown,1,45.4931031,-73.6849696
Quebec,9046-4942 Quebec inc.,"Québec, QC G1B 1B6",1,High Wage,7441,Residential and commercial installers and servicers,Corporation,1,46.907866,-71.19561
Quebec,9048-9493 Québec Inc.,"St-BENOIT LABRE, QC G0M 1P0",2,High Wage,7511,Transport truck drivers,Unknown,2,45.843699,-70.570819
Quebec,9052-9470 Québec Inc,"St-Lazare,QC, QC J7T 2B8",1,High Wage,7231,Machinists and machining and tooling inspectors,Unknown,1,45.3760368,-74.127809
Quebec,9056-6696 Québec inc,"Québec, QC G1P 3T6",3,High Wage,7322,Motor vehicle body repairers,Unknown,1,46.787054,-71.305794
Quebec,9060-1766 Québec inc.,"Roberval, QC G8H 2M9",3,High Wage,7333,Electrical mechanics,Corporation,1,48.468701,-72.344992
Quebec,9061-9628 QUÉBEC INC,"Val-d'or, QC J9P 7A9",2,High Wage,8612,Landscaping and grounds maintenance labourers,Unknown,1,48.098135,-77.824986
Quebec,90742230 QUÉBEC INC.,"Verdun, QC H4G 1T5",2,High Wage,7322,Motor vehicle body repairers,Unknown,2,45.469484,-73.564911
Quebec,9087-0932 Québec INC.,"Montréal, QC H1K 3A3",1,High Wage,7321,"Automotive service technicians, truck and bus mechanics and mechanical repairers",Corporation,1,45.613403,-73.554308
Quebec,9097-0377 Québec Inc.,"Québec, QC G1E  3L",1,High Wage,6313,"Accommodation, travel, tourism and related services supervisors",Sole Proprietorship,1,,
Quebec,9099-7768 QUÉBEC INC.,"Saint-Augustin-de-Demaures, QC G3A 1V9",1,High Wage,7237,Welders and related machine operators,Unknown,1,46.72022,-71.496501
Quebec,9101-6675 QUEBEC INC,"RIVIÈRE-DU-LOUP, QC G5R 5X9",2,High Wage,7511,Transport truck drivers,Unknown,1,47.836229,-69.501916
Quebec,9111-8711 QUÉBEC INC.,"Montréal, QC H2R 2N5",1,High Wage,7321,"Automotive service technicians, truck and bus mechanics and mechanical repairers",Corporation,1,45.543029,-73.617975
Quebec,9114-7413 QC INC,"Granby, QC J2J 2M8",1,High Wage,7231,Machinists and machining and tooling inspectors,Unknown,1,45.411243,-72.763895
Quebec,9129-2201 QUÉBEC INC.,"LAVAL, QC H7C 0K7",4,High Wage,8612,Landscaping and grounds maintenance labourers,Unknown,1,45.6317956,-73.6617205
Quebec,9134-1651 quebec inc.,"Berthierville, QC J0K 1A0",4,High Wage,7511,Transport truck drivers,Unknown,1,46.066779,-73.187236
Quebec,9138-7480 Quebec Inc,"Coteau-Du-Lac, QC J0P 1B0",1,High Wage,1223,Human resources and recruitment officers,Unknown,1,45.31485,-74.19325
Quebec,9146-9981 Quebec Inc.,"Anjou, QC H1J 1M6",1,High Wage,7311,Construction millwrights and industrial mechanics,Unknown,1,45.623882,-73.578717
Quebec,9146-9981 Quebec Inc.,"Anjou, QC H1J 1M6",2,High Wage,9417,Machining tool operators,Unknown,1,45.623882,-73.578717
Quebec,9151-5973 QUÉBEC INC.,"Laval, QC H7M 1R1",1,High Wage,7322,Motor vehicle body repairers,Unknown,1,45.58977,-73.715995
Quebec,9152-2458 Quebec Inc,"Paspebiac, QC G0C 2K0",2,High Wage,2282,User support technicians,Unknown,2,48.060360,-65.250412
Quebec,9166-6156 Québec inc.,"Drummondville, QC J2B 6V4",9,High Wage,7334,"Motorcycle, all",Unknown,8,45.906614,-72.523836
Quebec,9169-0362 Quebec Inc,"Thetford Mines, QC G6G 8B2",1,High Wage,9536,"Industrial painters, coaters and metal finishing process operators",Unknown,1,46.1131,-71.288536
Quebec,9174-7337 QUEBEC INC,"Dorval, QC H9P 1A3",1,High Wage,7272,Cabinetmakers,Corporation,1,45.466239,-73.718086
Quebec,9178-0676 QUÉBEC INC.,"Dorval, QC H9P 1G1",1,High Wage,1215,"Supervisors, supply chain, tracking and scheduling co",Corporation,1,45.455565,-73.732098
Quebec,9180-6463 QUEBEC INC.,"Mascouche, QC J7L 4G9",1,High Wage,6341,Hairstylists and barbers,Unknown,1,45.746642,-73.638592
Quebec,9182-1645 Québec inc.,"Montréal, QC H1H 4H2",3,High Wage,1221,Administrative officers,Unknown,1,45.582882,-73.633206
Quebec,9182-1645 Québec inc.,"Montréal, QC H1H 4H2",2,High Wage,1311,Accounting technicians and bookkeepers,Unknown,1,45.582882,-73.633206
Quebec,9183-8920 QUÉBEC INC.,"Magog, QC J1X 5R6",2,High Wage,7322,Motor vehicle body repairers,Unknown,2,45.295723,-72.105033
Quebec,9186-0536 QUEBEC INC,"Saint-Étienne-de-Beauharnois, QC J0S 1S0",1,High Wage,7305,"Supervisors, motor transport and other ground transit operators",Unknown,1,45.250886,-73.915466
Quebec,9193-0099 QUEBEC INC,"GREENFIELD PARK, QC J4V 3R1",1,High Wage,7511,Transport truck drivers,Unknown,1,45.489045,-73.457853
Quebec,9196-2191 Québec Inc,"Val-d'Or, QC J9P 6X9",7,High Wage,7511,Transport truck drivers,Unknown,1,48.1111135,-77.78988
Quebec,9199-3014 Québec Inc.,"Hébertville, QC G8N 1J8",1,High Wage,7322,Motor vehicle body repairers,Corporation,1,48.3890569,-71.683556
Quebec,9200-4050 Quebec Inc.,"Boisbriand, QC J7G 2A8",1,High Wage,0124,"Advertising, marketing and public relations managers",Corporation,1,45.620715,-73.826554
Quebec,9200-6774 QUEBEC INC.,"SAINT-LAURENT, QC H4N 2G3",1,High Wage,9213,"Supervisors, food, beverage and associated products processing",Unknown,1,45.525509,-73.678331
Quebec,9204-1557 Québec inc.,"Montreal, QC H1G 3H4",1,High Wage,7321,"Automotive service technicians, truck and bus mechanics and mechanical repairers",Sole Proprietorship,1,45.600176,-73.617977
Quebec,9208-4136 Québec Inc.,"Québec, QC G1K 6A7",1,High Wage,0631,Restaurant and food service managers,Corporation,1,46.813758,-71.226767
Quebec,9208-4144 qc inc,"Sherbrooke, QC J1C 0W2",1,High Wage,7301,"Contractors and supervisors, mechanic trades",Unknown,1,45.467054,-71.940986
Quebec,9208-4144 qc inc,"Sherbrooke, QC J1C 0W2",2,High Wage,7311,Construction millwrights and industrial mechanics,Unknown,2,45.467054,-71.940986
Quebec,9208-4144 qc inc,"Sherbrooke, QC J1C 0W2",5,High Wage,7333,Electrical mechanics,Unknown,3,45.467054,-71.940986
Quebec,9210-0437 QUÉBEC INC.,"Laval, QC H7S 1M9",1,High Wage,7321,"Automotive service technicians, truck and bus mechanics and mechanical repairers",Unknown,1,45.588368,-73.698596
Quebec,9219-1485 Québec Inc,"boisbriand, QC J7E 4H5",2,High Wage,9536,"Industrial painters, coaters and metal finishing process operators",Unknown,1,45.679517,-73.82552
Quebec,9223-9854 Québec inc.,"Montréal, QC H4N  3B",1,High Wage,6211,Retail sales supervisors,Corporation,1,,
Quebec,9225-3467 QUÉBEC INC-LE SALON DU DÉBOSSELAGE - CARROSSIER PROCOLOR CABANO,"Témiscouata-sur-le-Lac, QC G0L 1E0",1,High Wage,7322,Motor vehicle body repairers,Unknown,1,47.696757,-68.908247
Quebec,9231-9250 Québec Inc,"Lavaltrie, QC J5T 3R3",1,High Wage,7311,Construction millwrights and industrial mechanics,Unknown,1,45.935116,-73.331637
Quebec,9232-0100 QUEBEC INC,"Blainville, QC J7C 4Y1",1,High Wage,7281,Bricklayers,Corporation,1,45.710407,-73.879727
Quebec,9240-1835 QUÉBEC INC.,"laval, QC H7T 1R3",1,High Wage,6322,Cooks,Unknown,1,45.559143,-73.769048
Quebec,9246-0575 QUEBEC INC.,"MONTRÉAL, QC H1S 1Z3",1,High Wage,1241,Administrative assistants,Corporation,1,45.584001,-73.579114
Quebec,9256-2958 Québec Inc,"Québec, QC G1K 3C9",1,High Wage,1123,"Professional occupations in advertising, marketing and public relations",Unknown,1,46.816072,-71.21858
Quebec,9257-4607 QUEBEC INC,"lachute, QC J8H 4N6",1,High Wage,1523,Production logistics co,Unknown,1,45.639339,-74.314409
Quebec,9261-5129quebec inc,"Brossard, QC J4X 1L7",5,High Wage,7514,Delivery and courier service drivers,Unknown,1,45.455198,-73.487523
Quebec,9261-8107 Québec Inc.,"Sainte-Thérèse, QC J7E 3E7",1,High Wage,6332,Bakers,Unknown,1,45.637101,-73.835761
Quebec,9272-7957 Quebec Inc,"Sherbrooke, QC J1H 1Z9",1,High Wage,1311,Accounting technicians and bookkeepers,Unknown,1,45.391757,-71.902755
Quebec,9275-2351 Québec inc.,"Québec, QC G1K 3W1",1,High Wage,6322,Cooks,Corporation,1,46.816583,-71.206413
Quebec,9280-3055 Québec Inc.,"Montréal, QC H1M 1A9",1,High Wage,7294,Painters and decorators (except interior decorators),Corporation,1,45.587704,-73.560806
Quebec,9284-8779 Québec Inc.,"Ste-Julie, QC J3E 0C3",1,High Wage,7322,Motor vehicle body repairers,Unknown,1,45.5828684,-73.3364663
Quebec,92874346 Quebec inc,"Montreal, QC H4T 1W5",1,High Wage,1311,Accounting technicians and bookkeepers,Unknown,1,45.481743,-73.703218
Quebec,9290-6775 Québec Inc.,"Mont-Laurier, QC J9L  0H",1,High Wage,7322,Motor vehicle body repairers,Corporation,1,,
Quebec,9294-7993 Québec Inc.,"Laval, QC H7C 2K6",1,High Wage,7312,Heavy,Corporation,1,45.616339,-73.661095
Quebec,9296-2133 Québec inc.,"Montréal, QC H3B 2T9",1,High Wage,5241,Graphic designers and illustrators,Corporation,1,45.499914,-73.572398
Quebec,9301-7275 Québec inc.,"saint-hubert, QC J3Y 7Y8",1,High Wage,2253,Drafting technologists and technicians,Unknown,1,45.495342,-73.428446
Quebec,9303-4916 Québec Inc.,"Montréal, QC H2V 4S2",1,High Wage,3223,"Dental technologists, technicians and laboratory assistants",Corporation,1,45.521346,-73.613912
Quebec,9305-9103 quebec inc.,"VICTORIAVILLE, QC G6S 1C1",1,High Wage,7332,Appliance servicers and repairers,Unknown,1,46.062605,-71.929066
Quebec,9308-0356 Québec Inc.,"Delson, QC J5B 1W4",1,High Wage,1215,"Supervisors, supply chain, tracking and scheduling co",Unknown,1,45.36823,-73.523956
Quebec,9308-0356 Québec Inc.,"Delson, QC J5B 1W4",3,High Wage,7237,Welders and related machine operators,Unknown,1,45.36823,-73.523956
Quebec,9308-0356 Québec Inc.,"Delson, QC J5B 1W4",2,High Wage,7441,Residential and commercial installers and servicers,Unknown,1,45.36823,-73.523956
Quebec,9308-4929 Québec inc.,"Montréal, QC H4S 2G5",1,High Wage,2133,Electrical and electronics engineers,Corporation,1,45.5074741,-73.7411166
Quebec,9310-9577 Québec inc.,"Québec, QC G1H 7M4",1,High Wage,6321,Chefs,Unknown,1,46.8582,-71.2658201
Quebec,9311-3652 Québec inc.,"Laval, QC H7C 2K6",1,High Wage,6222,Retail and wholesale buyers,Unknown,1,45.616339,-73.661095
Quebec,9311-4759 Québec inc.,"Joliette, QC J6E 5Y1",1,High Wage,7611,Construction trades helpers and labourers,Unknown,1,46.021756,-73.449597
Quebec,9311-5327 Québec inc.,"Sherbrooke, QC J1C 0W2",4,High Wage,7231,Machinists and machining and tooling inspectors,Corporation,2,45.467054,-71.940986
Quebec,9316-4648 Québec Inc.,"Montréal, QC H2S 2R7",1,High Wage,6321,Chefs,Corporation,1,45.534016,-73.604988
Quebec,9321-4682 Québec inc,"Montréal, QC H2C 2M6",1,High Wage,7242,Industrial electricians,Corporation,1,45.557543,-73.6559
Quebec,9325-2112 QC. Inc (Location Val-D'Or),"Val D'or, QC J9P 7A9",1,High Wage,7311,Construction millwrights and industrial mechanics,Corporation,1,48.098135,-77.824986
Quebec,9327-4496 Québec Inc.,"Brossard, QC J4X 2S6",2,High Wage,6322,Cooks,Corporation,1,45.448567,-73.469216
Quebec,9327-4496 Québec Inc.,"Brossard, QC J4X 2S6",1,High Wage,6711,"Food counter attendants, kitchen helpers and related support occupations",Corporation,1,45.448567,-73.469216
Quebec,9329-4866 Québec Inc.,"Montréal, QC H4C 1N9",1,High Wage,1223,Human resources and recruitment officers,Unknown,1,45.481194,-73.577958
Quebec,9330-9714 Québec inc.,"Laval, QC H7L 5B6",1,High Wage,6315,Cleaning supervisors,Unknown,1,45.592113,-73.743836
Quebec,9336-4719 Québec Inc,"Montréal, QC H3S  1J",1,High Wage,7321,"Automotive service technicians, truck and bus mechanics and mechanical repairers",Corporation,1,,
Quebec,9340- 3228 Québec Inc.,"Bécancour, QC G9H 2T3",1,High Wage,0631,Restaurant and food service managers,Corporation,1,46.336133,-72.518072
Quebec,9342-7490 Quebec Inc.,"Laval, QC H7E 1A1",1,High Wage,7321,"Automotive service technicians, truck and bus mechanics and mechanical repairers",Unknown,1,45.61416,-73.668973
Quebec,9343-8208 Québec inc.,"Valcourt, QC J0E 2L0",1,High Wage,2232,Mechanical engineering technologists and technicians,Unknown,1,45.535331,-72.298759
Quebec,9343-8208 Québec inc.,"Valcourt, QC J0E 2L0",1,High Wage,5241,Graphic designers and illustrators,Unknown,1,45.535331,-72.298759
Quebec,9345-9196 qc inc,"marieville, QC J3M 1A5",1,High Wage,7371,Crane operators,Unknown,1,45.43484,-73.166709
Quebec,9346-0400 Québec inc,"Longueuil, QC J4H 4E5",1,High Wage,1224,Property administrators,Unknown,1,45.54515,-73.504415
Quebec,9347 6596 QUEBEC INC,"Longueuil, QC J4G 1T5",1,High Wage,7237,Welders and related machine operators,Unknown,1,45.563734,-73.463893
Quebec,9357-4366 Québec inc.,"Rosemère, QC J7A 4W6",1,High Wage,7283,Tilesetters,Unknown,1,45.647863,-73.80591
Quebec,9357-9811 Québec Inc,"Laval, QC H7L 5B8",2,High Wage,9422,Plastics processing machine operators,Corporation,1,45.583429,-73.765776
Quebec,9362-6299 Québec Inc.,"Saint-Léonard, QC H1R  2T",1,High Wage,7511,Transport truck drivers,Corporation,1,,
Quebec,9366-5883 Québec inc.,"Laval, QC H7P 5Y3",1,High Wage,6211,Retail sales supervisors,Corporation,1,45.576098,-73.771826
Quebec,9370-3437 Québec Inc,"Montréal, QC H3B  2E",1,High Wage,6221,Technical sales specialists ,Corporation,1,,
Quebec,9371-2222 Québec Inc.,"Québec, QC G1N 4R9",1,High Wage,2253,Drafting technologists and technicians,Corporation,1,46.797853,-71.268348
Quebec,9371-8823 Quebec inc.,"Montreal, QC H2K 1G1",1,High Wage,7246,Telecommunications installation and repair workers,Unknown,1,45.536567,-73.561006
Quebec,9373-1099 Quebec Inc.,"St-Blaise-Sur-Richelieu, QC J0J  1W",1,High Wage,6321,Chefs,Corporation,1,,
Quebec,9374-1502 Québec inc,"Longueuil, QC J4J 3X3",1,High Wage,2175,Web designers and developers,Unknown,1,45.532025,-73.487979
Quebec,9374-6386 QUÉBEC INC.,"Montreal, QC H3J 0A7",1,High Wage,7284,"Plasterers, drywall installers and finishers and lathers",Unknown,1,45.4847686,-73.5728283
Quebec,9375-1246 Québec inc.,"Montréal, QC H4E 1H5",1,High Wage,7322,Motor vehicle body repairers,Corporation,1,45.463911,-73.593123
Quebec,9379-5904 Québec Inc.,"Saint-Jean-Chrysostome, QC G6Z 2E1",1,High Wage,4214,Early childhood educators and assistants,Unknown,1,46.7300801,-71.2065536
Quebec,9380-1975 Québec inc.,"Laval, QC H7T  2P",1,High Wage,1524,Purchasing and inventory control workers,Corporation,1,,
Quebec,9382-0371 Quebec inc,"Montreal, QC H2V 3Z4",1,High Wage,1226,Conference and event planners,Unknown,1,45.526145,-73.615383
Quebec,9383-9959 QUÉBEC INC.,"Brossard, QC J4W 2T5",2,High Wage,6311,Food service supervisors,Corporation,1,45.474449,-73.471447
Quebec,9384-5097 Québec Inc,"St-Constant, QC J5A 0G8",1,High Wage,2171,Information systems analysts and consultants,Corporation,1,45.377467,-73.576635
Quebec,9385-6888 Québec inc.,"Montréal, QC H2J 1L3",1,High Wage,2175,Web designers and developers,Unknown,1,45.531051,-73.583452
Quebec,9388-2181 Québec Inc.,"Montréal, QC H3E 0C6",1,High Wage,1241,Administrative assistants,Corporation,1,45.461866,-73.545637
Quebec,9390-4571 QUEBEC INC.,"Montréal, QC H3W 1X2",1,High Wage,0631,Restaurant and food service managers,Unknown,1,45.485281,-73.627805
Quebec,9393-7134 Québec inc,"Brossard, QC J4Y 0E3",1,High Wage,1241,Administrative assistants,Unknown,1,45.4460781,-73.4583894
Quebec,9393-7134 Québec inc,"Brossard, QC J4Y 0E3",1,High Wage,2234,Construction estimators,Unknown,1,45.4460781,-73.4583894
Quebec,9393-7134 Québec inc,"Brossard, QC J4Y 0E3",2,High Wage,7237,Welders and related machine operators,Unknown,1,45.4460781,-73.4583894
Quebec,9395-6456 Québec Inc.,"St-Hyacinthe, QC J2R 0A3",1,High Wage,7237,Welders and related machine operators,Corporation,1,45.659169,-72.9453769
Quebec,9398-5406 Québec inc.,"Laval, QC H7L  4X",1,High Wage,2242,Electronic service technicians (household and business equipment),Partnership,1,,
Quebec,9398-7329 Québec Inc.,"Montréal, QC H4N 1G5",1,High Wage,7321,"Automotive service technicians, truck and bus mechanics and mechanical repairers",Corporation,1,45.558484,-73.646126
Quebec,9401-3125 Québec inc.,"Québec, QC G1R 1S8",1,High Wage,6321,Chefs,Corporation,1,46.814686,-71.209462
Quebec,9404-0797 QUEBEC INC,"Dorval, QC H9P 1H2",1,High Wage,1241,Administrative assistants,Unknown,1,45.463993,-73.728634
Quebec,9409-3325 Québec inc.,"Frelighsburg, QC J0J 1C0",1,High Wage,6513,Food and beverage servers,Sole Proprietorship,1,45.071888,-72.877933
Quebec,9409-9603 Québec inc.,"MONTRÉAL, QC H2Y 2C5",2,High Wage,6562,"Estheticians, electrologists and related occupations",Unknown,1,45.505553,-73.553137
Quebec,9410-1235 Québec Inc.,"Sherbrooke, QC J1C 0E5",1,High Wage,2234,Construction estimators,Corporation,1,45.487377,-71.954499
Quebec,9411-5607 Quebec Inc,"Val-d’Or, QC J9P 7A9",1,High Wage,7205,"Contractors and supervisors, other construction trades, installers, repairers and servicers",Unknown,1,48.098135,-77.824986
Quebec,9412-4237 Québec Inc.,"Sherbrooke, QC J1K 0A5",1,High Wage,2133,Electrical and electronics engineers,Corporation,1,45.3806848,-71.9308633
Quebec,9414-0118 Québec inc.,"Montreal, QC H3B 4W3",2,High Wage,6311,Food service supervisors,Corporation,1,45.500771,-73.572172
Quebec,9414-0118 Québec inc.,"Montreal, QC H3B 4W3",1,High Wage,6322,Cooks,Corporation,1,45.500771,-73.572172
Quebec,9415-4317 Quebec INC.,"Montreal, QC H4N 1G8",1,High Wage,1214,"Supervisors, mail and message distribution occupations",Unknown,1,45.531475,-73.660359
Quebec,9415-4317 Quebec INC.,"Montreal, QC H4N 1G8",1,High Wage,7511,Transport truck drivers,Unknown,1,45.531475,-73.660359
Quebec,9417-0982 Québec inc.,"Prévost, QC J0R 1T0",1,High Wage,6331,"Butchers, meat cutters and fishmongers ",Unknown,1,45.880444,-74.032842
Quebec,9417-3747 quebec inq.,"Montreal, QC H1Z 3G7",1,High Wage,6322,Cooks,Unknown,1,45.573814,-73.632296
Quebec,9421-1364 Québec inc.,"SEPT-ILES, QC G4R 4S6",1,High Wage,3131,Pharmacists,Unknown,1,50.223227,-66.394149
Quebec,9428-1227 Quebec Inc.,"Montréal, QC H3K 2X3",1,High Wage,1123,"Professional occupations in advertising, marketing and public relations",Unknown,1,45.481584,-73.569342
Quebec,9432-0611 QUEBEC INC,"Alma, QC G8C 0E1",1,High Wage,1311,Accounting technicians and bookkeepers,Corporation,1,48.5263659,-71.642494
Quebec,9436-7166 Quebec Inc,"Brossard, QC J4Y 1M2",1,High Wage,2171,Information systems analysts and consultants,Unknown,1,45.460182,-73.459758
Quebec,9437-6746 QUBEC INC.,"Drummondville, QC J2C 1J9",1,High Wage,6222,Retail and wholesale buyers,Unknown,1,45.885407,-72.489194
Quebec,9449-9399 Québec Inc.,"Dorval, QC H9S 1A7",1,High Wage,0631,Restaurant and food service managers,Corporation,1,45.445855,-73.727612
Quebec,9455-8624 Québec Inc,"St-Michel des Saints, QC J0K 3B0",2,High Wage,7333,Electrical mechanics,Unknown,1,46.7077560424805,-73.7726821899414
Quebec,9466-0693 Québec inc.,"Saint-Laurent, QC H4M 2X6",1,High Wage,1122,Professional occupations in business management consulting,Corporation,1,45.531351,-73.673984
Quebec,9468-5708 Québec Inc.,"Saint-Jérôme, QC J7Y  2H",1,High Wage,1224,Property administrators,Corporation,1,,
Quebec,9471-6156 Québec inc.,"Laval, QC H7R 0C7",1,High Wage,7322,Motor vehicle body repairers,Corporation,1,45.5520179,-73.8510428
Quebec,9472-6635 Québec inc.,"Montréal, QC H2Y 1C9",1,High Wage,1122,Professional occupations in business management consulting,Corporation,1,45.51148,-73.551737
Quebec,982936 Canada Inc.,"Gatineau, QC J8M 1Y7",1,High Wage,2281,Computer network technicians,Corporation,1,45.525207,-75.44692
Quebec,982936 Canada Inc.,"Gatineau, QC J8M 1Y7",2,High Wage,7321,"Automotive service technicians, truck and bus mechanics and mechanical repairers",Corporation,1,45.525207,-75.44692
Quebec,A & A DÉBOSSELAGE INC.,"Saguenay, QC G7X 7V3",1,High Wage,7322,Motor vehicle body repairers,Unknown,1,48.388208,-71.265017
Quebec,A. Malo compagnie ltée,"Joliette, QC J6E 5N9",1,High Wage,7237,Welders and related machine operators,Unknown,1,46.020781,-73.438934
Quebec,A.B.F. Systèmes Inc. A.B.F. Systems Inc.,"Boucherville, QC J4B 7M7",1,High Wage,2241,Electrical and electronics engineering technologists and technicians,Unknown,1,45.567348,-73.442739
Quebec,A.B.F. Systèmes Inc. A.B.F. Systems Inc.,"Boucherville, QC J4B 7M7",1,High Wage,6221,Technical sales specialists ,Unknown,1,45.567348,-73.442739
Quebec,A.B.F. Systèmes Inc. A.B.F. Systems Inc.,"Boucherville, QC J4B 7M7",1,High Wage,7311,Construction millwrights and industrial mechanics,Unknown,1,45.567348,-73.442739
Quebec,A.E.T. Hanessian Solutions Inc.,"Lachine, QC H8T 1A3",1,High Wage,2281,Computer network technicians,Unknown,1,45.467258,-73.715909
Quebec,AAR Aircraft Services – Trois-Rivières ULC,"Trois-Rivières, QC G9B 2N8",2,High Wage,7315,Aircraft mechanics and aircraft inspectors,Unknown,2,46.331557,-72.615277
Quebec,Abattoir Ducharme Inc.,"St-Alphonse de Granby, QC J0E 2A0",2,High Wage,7333,Electrical mechanics,Unknown,1,45.327003,-72.78909
Quebec,Abattoir Ducharme Inc.,"St-Alphonse de Granby, QC J0E 2A0",1,High Wage,7511,Transport truck drivers,Unknown,1,45.327003,-72.78909
Quebec,ABB Électrification Canada SRI,"Saint-Jean-sur-Richelieu, QC J3B 3G5",1,High Wage,2233,Industrial engineering and manufacturing technologists and technicians,Unknown,1,45.3005894,-73.2544451
Quebec,Accès BrandSafway Inc.,"L'Assomption, QC J5W 2T9",1,High Wage,7237,Welders and related machine operators,Unknown,1,45.822145,-73.451873
Quebec,ACCÈSCONSEIL MAINGUY GAGNON-ROCHETTE INC.,"Donnacona, QC G3M 2X1",1,High Wage,6231,Insurance agents and brokers,Corporation,1,46.67972,-71.740634
Quebec,ACENSI CONSULTANTS INC,"Montréal, QC H2Y  1M",1,High Wage,2173,Software engineers and designers,Corporation,1,,
Quebec,ACENSI CONSULTANTS INC,"Montréal, QC H2Y  1M",3,High Wage,2175,Web designers and developers,Corporation,3,,
Quebec,Acier Inoxydable Fafard Inc.,"Boucherville, QC J4B 8C4",1,High Wage,7237,Welders and related machine operators,Corporation,1,45.553997,-73.42473
Quebec,Action Mécanique Division Rougemont Diesel Inc.,"ROUGEMONT, QC J0L 1M0",1,High Wage,7321,"Automotive service technicians, truck and bus mechanics and mechanical repairers",Corporation,1,45.43813,-73.092904
Quebec,Actoran Conseils Inc,"Montréal, QC H3G 2T3",1,High Wage,1225,Purchasing agents and officers,Corporation,1,45.49948,-73.578279
Quebec,ADELARD SOUCY (1975) INC,"RIVIERE-DU-LOUP, QC G5R 3Y8",2,High Wage,7231,Machinists and machining and tooling inspectors,Unknown,1,47.816773,-69.537533
Quebec,ADELARD SOUCY (1975) INC,"RIVIERE-DU-LOUP, QC G5R 3Y8",4,High Wage,7237,Welders and related machine operators,Unknown,2,47.816773,-69.537533
Quebec,AÉRO ENTRETIEN Q60 INC.,"Val-d'Or, QC J9P  0G",5,High Wage,7315,Aircraft mechanics and aircraft inspectors,Corporation,1,,
Quebec,Aérospatiale Hemmingford Inc.,"Hemmingford, QC J0L 1H0",8,High Wage,7231,Machinists and machining and tooling inspectors,Unknown,3,45.05619,-73.58501
Quebec,Affûtage d'outils de Coupe Optimum Inc.,"Mercier, QC J6R 1C6",1,High Wage,7333,Electrical mechanics,Corporation,1,45.302572,-73.750547
Quebec,Agence Dialekta Inc.,"Montréal, QC H1Y 3L1",2,High Wage,1123,"Professional occupations in advertising, marketing and public relations",Unknown,2,45.541368,-73.564001
Quebec,Agence du revenu du Québec,"Québec, QC G1K 9J6",1,High Wage,1111,Financial auditors and accountants,Non-Profit Organization,1,46.815231,-71.219541
Quebec,Agence du revenu du Québec,"Québec, QC G1K 9J6",1,High Wage,1221,Administrative officers,Non-Profit Organization,1,46.815231,-71.219541
Quebec,Agropur,"St-Hubert, QC J3Z 1G5",1,High Wage,2171,Information systems analysts and consultants,Unknown,1,45.457557,-73.4137
Quebec,Agropur Coopérative,"St-Hubert, QC J3Z 1G5",6,High Wage,9461,"Process control and machine operators, food, beverage and associated products processing",Corporation,1,45.457557,-73.4137
Quebec,AI EXPRESS TRANSPORT INC,"VAUDREUIL-DORION, QC J7V 9X3",4,High Wage,7321,"Automotive service technicians, truck and bus mechanics and mechanical repairers",Unknown,1,45.416648,-74.05603
Quebec,Air Canada,"SAINT-LAURENT, QC H4S 1Z3",1,High Wage,0731,Managers in transportation,Unknown,1,45.48171,-73.723753
Quebec,Air Canada,"SAINT-LAURENT, QC H4S 1Z3",1,High Wage,4163,Business development officers and marketing researchers and consultants,Unknown,1,45.48171,-73.723753
Quebec,Airbus Atlantique Canada Inc.,"Mirabel, QC J7N 1H4",2,High Wage,1112,Financial and investment analysts,Unknown,2,45.711323,-74.083877
Quebec,Airbus Atlantique Canada Inc.,"Mirabel, QC J7N 1H4",1,High Wage,1523,Production logistics co,Unknown,1,45.711323,-74.083877
Quebec,Airbus Atlantique Canada Inc.,"Mirabel, QC J7N 1H4",3,High Wage,9521,Aircraft assemblers and aircraft assembly inspectors,Unknown,2,45.711323,-74.083877
Quebec,Airbus Canada Limited Partnership,"MONTRÉAL, QC H3B 1Y8",1,High Wage,2232,Mechanical engineering technologists and technicians,Unknown,1,45.514464,-73.556599
Quebec,Airbus Canada Limited Partnership,"MONTRÉAL, QC H3B 1Y8",1,High Wage,2233,Industrial engineering and manufacturing technologists and technicians,Unknown,1,45.514464,-73.556599
Quebec,Airports Council International,"Montréal, QC H4Z  1G",1,High Wage,1123,"Professional occupations in advertising, marketing and public relations",Non-Profit Organization,1,,
Quebec,AKKA Group North America Inc.,"Montréal, QC H3A 3C8",1,High Wage,1221,Administrative officers,Unknown,1,45.51771,-73.558926
Quebec,Akronym Conseil et Stratégie inc.,"Bromont, QC J2L 0J3",1,High Wage,1122,Professional occupations in business management consulting,Unknown,1,45.2839184,-72.70584
Quebec,Akufen Atelier Créatif inc.,"Montréal, QC H2V 4L5",1,High Wage,2175,Web designers and developers,Corporation,1,45.529916,-73.615018
Quebec,Aldo Group,"Saint-Laurent, QC H4N 2B3",1,High Wage,1122,Professional occupations in business management consulting,Unknown,1,45.51489,-73.6641228
Quebec,Aliments Nortera Inc.,"Brossard, QC J4Z 0R4",1,High Wage,2171,Information systems analysts and consultants,Unknown,1,45.4478496,-73.4289966
Quebec,Aliments Nortera Inc.,"Brossard, QC J4Z 0R4",2,High Wage,7311,Construction millwrights and industrial mechanics,Unknown,1,45.4478496,-73.4289966
Quebec,Aliments Nortera Inc.,"Brossard, QC J4Z 0R4",3,High Wage,7333,Electrical mechanics,Unknown,2,45.4478496,-73.4289966
Quebec,Alithya Canada Inc.,"Montréal, QC H3B 3A5",1,High Wage,0213,Computer and information systems managers,Unknown,1,45.501565,-73.566745
Quebec,Alithya Canada Inc.,"Montréal, QC H3B 3A5",1,High Wage,1122,Professional occupations in business management consulting,Unknown,1,45.501565,-73.566745
Quebec,Alithya Canada Inc.,"Montréal, QC H3B 3A5",4,High Wage,2171,Information systems analysts and consultants,Unknown,4,45.501565,-73.566745
Quebec,Alithya Canada Inc.,"Montréal, QC H3B 3A5",1,High Wage,2172,Database analysts and data administrators,Unknown,1,45.501565,-73.566745
Quebec,Alithya Canada Inc.,"Montréal, QC H3B 3A5",2,High Wage,2174,Computer programmers and interactive media developers,Unknown,2,45.501565,-73.566745
Quebec,Alithya Canada Inc.,"Montréal, QC H3B 3A5",2,High Wage,2175,Web designers and developers,Unknown,2,45.501565,-73.566745
Quebec,ALSTOM Transport Canada Inc,"St-Bruno-de-Montarville, QC J3V 6E6",1,High Wage,0711,Construction managers,Partnership,1,45.535967,-73.369498
Quebec,ALSTOM Transport Canada Inc,"St-Bruno-de-Montarville, QC J3V 6E6",1,High Wage,2141,Industrial and manufacturing engineers,Partnership,1,45.535967,-73.369498
Quebec,ALSTOM Transport Canada Inc.,"St-Bruno-de-Montarville, QC J3V 6E6",1,High Wage,0711,Construction managers,Partnership,1,45.535967,-73.369498
Quebec,ALSTOM Transport Canada Inc.,"St-Bruno-de-Montarville, QC J3V 6E6",3,High Wage,1225,Purchasing agents and officers,Partnership,3,45.535967,-73.369498
Quebec,ALSTOM Transport Canada Inc.,"St-Bruno-de-Montarville, QC J3V 6E6",1,High Wage,2232,Mechanical engineering technologists and technicians,Partnership,1,45.535967,-73.369498
Quebec,ALSTOM Transport Canada Inc.,"St-Bruno-de-Montarville, QC J3V 6E6",1,High Wage,7237,Welders and related machine operators,Partnership,1,45.535967,-73.369498
Quebec,ALTEN Canada Inc.,"Montréal, QC H3B 4N4",1,High Wage,0601,Corporate sales managers,Unknown,1,45.498856,-73.570201
Quebec,ALTEN Canada Inc.,"Montréal, QC H3B 4N4",1,High Wage,1223,Human resources and recruitment officers,Unknown,1,45.498856,-73.570201
Quebec,Altitude Aerospace Inc.,"Montreal, QC H4N 3M9",2,High Wage,2132,Mechanical engineers,Unknown,2,45.5068261,-73.6702234
Quebec,Altitude Sports,"Montréal, QC H2S 1V6",1,High Wage,6314,Customer and information services supervisors,Unknown,1,45.53143,-73.607369
Quebec,Altium Packaging,"Anjou, QC H1J 1C7",1,High Wage,7311,Construction millwrights and industrial mechanics,Unknown,1,45.618655,-73.566965
Quebec,Altium Packaging,"Anjou, QC H1J 1C7",3,High Wage,9422,Plastics processing machine operators,Unknown,1,45.618655,-73.566965
Quebec,AM PINARD ET FILS INC.,"ST-CÉLESTIN, QC J0C 1G0",1,High Wage,9214,"Supervisors, plastic and rubber products manufacturing",Unknown,1,45.885578,-72.765122
Quebec,Aménagement Côté Jardin inc,"Montréal, QC H2H 2N2",1,High Wage,8612,Landscaping and grounds maintenance labourers,Unknown,1,45.538758,-73.565632
Quebec,Aménagement Roy inc.,"Laterrière, QC G7N 1Y2",1,High Wage,8255,"Contractors and supervisors, landscaping, grounds maintenance and horticulture services",Corporation,1,48.320484,-71.136696
Quebec,American Iron & Metal Company Inc.,"Montreal, QC H1E 2S4",1,High Wage,7312,Heavy,Unknown,1,45.63874,-73.561416
Quebec,Amundsen Science,"QUÉBEC, QC G1V 0A6",1,High Wage,2241,Electrical and electronics engineering technologists and technicians,Unknown,1,46.7841863,-71.2852596
Quebec,Animation Squeeze Studio inc.,"Québec, QC G1K 3J3",3,High Wage,5241,Graphic designers and illustrators,Corporation,3,46.808112,-71.237434
Quebec,Anywr Canada,"Montréal, QC H3B  4W",1,High Wage,2171,Information systems analysts and consultants,Corporation,1,,
Quebec,Anywr Canada,"Montréal, QC H3B  4W",1,High Wage,2172,Database analysts and data administrators,Corporation,1,,
Quebec,Anywr Canada,"Montréal, QC H3B  4W",1,High Wage,2174,Computer programmers and interactive media developers,Corporation,1,,
Quebec,AP Notaires inc.,"Laval, QC H7T 3B3",1,High Wage,1123,"Professional occupations in advertising, marketing and public relations",Corporation,1,45.564968,-73.745071
Quebec,Apex Précision Inc.,"Saint-Lazare, QC J7T  2B",2,High Wage,7231,Machinists and machining and tooling inspectors,Corporation,1,,
Quebec,"Aquatech, société de gestion de l'eau","Longueuil, QC J4G 2J4",1,High Wage,9243,Water and waste treatment plant operators,Unknown,1,45.560761,-73.466639
Quebec,ArcelorMittal Produit Long Canada,"Contrecoeur, QC J0L 1C0",1,High Wage,0911,Manufacturing managers,Unknown,1,45.933964,-73.203894
Quebec,Arche Technologies de l'information,"Montreal, QC H2G 1J4",1,High Wage,2171,Information systems analysts and consultants,Unknown,1,45.547143,-73.597925
Quebec,Arche Technologies de l'information,"Montreal, QC H2G 1J4",1,High Wage,2174,Computer programmers and interactive media developers,Unknown,1,45.547143,-73.597925
Quebec,Aréo-Feu Ltée,"Longueuil, QC J3Z 1G4",1,High Wage,7312,Heavy,Unknown,1,45.4608457,-73.4108226
Quebec,Armatures DNS 2000 Inc.,"Montréal Nord, QC H1G 4S7",1,High Wage,7231,Machinists and machining and tooling inspectors,Unknown,1,45.601891,-73.619782
Quebec,Ascension Construction inc.,"St-Jean-sur-Richelieu, QC J3B  6S",1,High Wage,7271,Carpenters,Corporation,1,,
Quebec,ASMI Fabrication Inc.,"Alma, QC G8C 0E1",1,High Wage,7237,Welders and related machine operators,Corporation,1,48.5263659,-71.642494
Quebec,Association coopérative agricole de La ¨Patrie,"La Patrie, QC J0B 1Y0",1,High Wage,0621,Retail and wholesale trade managers,Unknown,1,45.401865,-71.245759
Quebec,Association Crie de Pourvoirie et de tourisme,"Ouje-Bougoumou, QC G0W 3C0",1,High Wage,0632,Accommodation service managers,Non-Profit Organization,1,49.925416,-74.82638
Quebec,ASTEK Canada Inc.,"Montréal, QC H3B 1K9",5,High Wage,2171,Information systems analysts and consultants,Unknown,5,45.503555,-73.568196
Quebec,ASTEK Canada Inc.,"Montréal, QC H3B 1K9",1,High Wage,2172,Database analysts and data administrators,Unknown,1,45.503555,-73.568196
Quebec,ASTEK Canada Inc.,"Montréal, QC H3B 1K9",2,High Wage,2174,Computer programmers and interactive media developers,Unknown,2,45.503555,-73.568196
Quebec,Atelier 7hz inc.,"Montreal, QC H2H 2A8",1,High Wage,2232,Mechanical engineering technologists and technicians,Unknown,1,45.539744,-73.584019
Quebec,Atelier Aktuel inc.,"Montréal, QC H2G 1Y9",1,High Wage,7237,Welders and related machine operators,Unknown,1,45.540582,-73.584508
Quebec,ATELIER D'USINAGE PIERRE FORTIER INC,"Vaudreuil-Dorion, QC J7V 8P2",2,High Wage,7231,Machinists and machining and tooling inspectors,Corporation,2,45.370432,-74.031042
Quebec,Atelier Taureau inc.,"Saint michel des saints, QC J0K 3B0",2,High Wage,7272,Cabinetmakers,Unknown,1,46.7077560424805,-73.7726821899414
Quebec,Ateliers & Saveurs Tom Inc.,"Montréal, QC H2Y 2T3",1,High Wage,6321,Chefs,Corporation,1,45.503425,-73.556208
Quebec,Au bonheur des pains inc.,"Lévis, QC G7A 2P6",1,High Wage,6332,Bakers,Unknown,1,46.708089,-71.286812
Quebec,Au Petit Extra inc.,"Montréal, QC H2L 1S7",1,High Wage,6321,Chefs,Unknown,1,45.52588,-73.559252
Quebec,Aurpal INC,"Marieville, QC J3M 1E8",2,High Wage,7333,Electrical mechanics,Unknown,1,45.428728,-73.15503
Quebec,AUTOBUS LA QUÉBÉCOISE ROUSSILLON.INC,"Québec,, QC G2G 2T4",3,High Wage,7321,"Automotive service technicians, truck and bus mechanics and mechanical repairers",Unknown,1,46.825653,-71.224335
Quebec,Autobus Thomas inc,"Drummondville, QC J2C 7V9",1,High Wage,7312,Heavy,Unknown,1,45.885847,-72.539163
Quebec,AUTOMOBILE B.W. INC.,"Montréal, QC H4N 2C6",1,High Wage,7322,Motor vehicle body repairers,Unknown,1,45.5082701,-73.6643999
Quebec,Automobiles Volta Laval Inc.,"Laval, QC H7T 2W3",1,High Wage,7321,"Automotive service technicians, truck and bus mechanics and mechanical repairers",Corporation,1,45.565182,-73.76165
Quebec,Avionique Waas Inc.,"Québec, QC G2G 0J2",1,High Wage,7315,Aircraft mechanics and aircraft inspectors,Corporation,1,46.788791,-71.355101
Quebec,Avocats Galileo Partners inc.,"Montréal, QC H3A 2S9",1,High Wage,1242,Legal administrative assistants,Unknown,1,45.504934,-73.571413
Quebec,Axcio Inc.,"Jonquière, QC G7T 1A2",1,High Wage,7312,Heavy,Corporation,1,48.397799,-71.144111
Quebec,Bain Dépôt Inc,"Blainville, QC J7C 5S4",1,High Wage,1111,Financial auditors and accountants,Unknown,1,45.670999,-73.903933
Quebec,Banque Nationale,"Montreal, QC H3B 4L6",1,High Wage,2171,Information systems analysts and consultants,Unknown,1,45.50224,-73.564209
Quebec,Banque Nationale,"Montreal, QC H3B 4L6",1,High Wage,2174,Computer programmers and interactive media developers,Unknown,1,45.50224,-73.564209
Quebec,Banque Nationale du Canada,"Montréal, QC H3B  4L",1,High Wage,1114,Other financial officers,Corporation,1,,
Quebec,Banque Nationale du Canada,"Montréal, QC H3B  4L",3,High Wage,2174,Computer programmers and interactive media developers,Corporation,3,,
Quebec,Banque Nationale du Canada,"Montréal, QC H3B  4L",1,High Wage,2175,Web designers and developers,Corporation,1,,
Quebec,Barrette-Chapais Ltée,"St-Jean sur Richelieur, QC J3B 8K1",6,High Wage,9437,Woodworking machine operators,Unknown,1,45.320262,-73.295735
Quebec,Behaviour Interactive Inc.,"Montréal, QC H2S  3H",3,High Wage,5241,Graphic designers and illustrators,Corporation,3,,
Quebec,Belron Canada,"Montréal, QC H1Z 3T6",1,High Wage,7322,Motor vehicle body repairers,Unknown,1,45.573272,-73.606722
Quebec,Beneva inc.,"Québec, QC G1R  2G",1,High Wage,1122,Professional occupations in business management consulting,Corporation,1,,
Quebec,Berwil Mécanique Inc.,"Laval, QC H7C 2T3",1,High Wage,7252,"Steamfitters, pipefitters and sprinkler system installers",Corporation,1,45.527393,-73.863769
Quebec,Beta Aero Canada ULC,"Dorval, QC H9P 1A2",1,High Wage,2146,Aerospace engineers,Unknown,1,45.467703,-73.720075
Quebec,Béton Adam Inc.,"SAINT-THOMAS, QC J0K  3L",3,High Wage,7511,Transport truck drivers,Corporation,1,,
Quebec,Béton Beloeil 2012 Inc.,"Cowansville, QC J2K 3G6",2,High Wage,7321,"Automotive service technicians, truck and bus mechanics and mechanical repairers",Corporation,1,45.222593,-72.769513
Quebec,Béton Beloeil 2012 Inc.,"Cowansville, QC J2K 3G6",1,High Wage,7511,Transport truck drivers,Corporation,1,45.222593,-72.769513
Quebec,Béton Provincial Lté,"Québec, QC G2K 1S9",2,High Wage,7511,Transport truck drivers,Unknown,1,46.849493,-71.295184
Quebec,BG COMMUNICATIONS INTERNATIONAL INC,"Montréal, QC H2N  2J",1,High Wage,2172,Database analysts and data administrators,Partnership,1,,
Quebec,Billets.ca marché de billets Inc.,"Montreal, QC H4C 2K1",1,High Wage,6314,Customer and information services supervisors,Unknown,1,45.483324,-73.583975
Quebec,Birra Basta Taverne Italienne INC.,"Quebec, QC G1K 3C9",1,High Wage,6321,Chefs,Unknown,1,46.816072,-71.21858
Quebec,Biscuits Leclerc Ltd,"St-Augustin-de-Desmaure, QC G3A 1T1",2,High Wage,2241,Electrical and electronics engineering technologists and technicians,Corporation,1,46.7526782,-71.4388832
Quebec,Biscuits Leclerc Ltd,"St-Augustin-de-Desmaure, QC G3A 1T1",4,High Wage,7333,Electrical mechanics,Corporation,4,46.7526782,-71.4388832
Quebec,Biscuits Leclerc Ltd,"St-Augustin-de-Desmaure, QC G3A 1T1",6,High Wage,9461,"Process control and machine operators, food, beverage and associated products processing",Corporation,1,46.7526782,-71.4388832
Quebec,Biscuits Leclerc Ltée,"Saint-Augustin-De-Desmaures, QC G3A 1T1",1,High Wage,1524,Purchasing and inventory control workers,Unknown,1,46.7526782,-71.4388832
Quebec,Biscuits Leclerc Ltée,"Saint-Augustin-De-Desmaures, QC G3A 1T1",1,High Wage,7333,Electrical mechanics,Unknown,1,46.7526782,-71.4388832
Quebec,Biscuits Leclerc Ltée,"Saint-Augustin-De-Desmaures, QC G3A 1T1",1,High Wage,9213,"Supervisors, food, beverage and associated products processing",Unknown,1,46.7526782,-71.4388832
Quebec,Biscuits Leclerc Ltée,"Saint-Augustin-De-Desmaures, QC G3A 1T1",19,High Wage,9461,"Process control and machine operators, food, beverage and associated products processing",Unknown,2,46.7526782,-71.4388832
