Province,Employer,Address,Positions,Stream,NOC 2011,NOC Name,Incorporated Status,Approved LMIA,Latitude,Longitude
Newfoundland and Labrador,78075 Newfoundland & Labrador Inc,"Fogo, NL A0G 2B0",1,High Wage,0212,Architecture and science managers,Unknown,1,49.727237,-54.125934
Newfoundland and Labrador,AB Complex Inc.,"Gander, NL A1V 1X3",1,High Wage,0124,"Advertising, marketing and public relations managers",Unknown,1,48.951546,-54.606189
Newfoundland and Labrador,AB Complex Inc.,"Gander, NL A1V 1X3",1,High Wage,1311,Accounting technicians and bookkeepers,Unknown,1,48.951546,-54.606189
Newfoundland and Labrador,Central Health,"Grand Falls-Windsor, NL A2A 1Y4",3,High Wage,3111,Specialist physicians,Unknown,3,48.9296771,-55.6621051
Newfoundland and Labrador,Dory's Way Inc,"Whitbourne, NL A0B 3K0",1,High Wage,1241,Administrative assistants,Unknown,1,47.359636,-53.415813
Newfoundland and Labrador,New Fun Land Limited,"Gander, NL A1V 1W7",2,High Wage,4214,Early childhood educators and assistants,Unknown,1,48.983761,-54.636322
Newfoundland and Labrador,Western Regional Health Authority,"Corner Brook, NL A2H 6J7",2,High Wage,3111,Specialist physicians,Unknown,2,48.965333,-58.030775
Newfoundland and Labrador,13744582 Canada Inc.,"Mount Pearl, NL A1N 5B2",1,Low Wage,7514,Delivery and courier service drivers,Unknown,1,47.502537,-52.815772
Newfoundland and Labrador,3T's Limited,"Woody Point, NL A0K 1P0",3,Low Wage,9463,Fish and seafood plant workers,Corporation,1,49.5533333,-57.9313889
Newfoundland and Labrador,76361 NL Inc.,"Deer Lake, NL A8A 1E6",1,Low Wage,6311,Food service supervisors,Unknown,1,49.17559,-57.4319
Newfoundland and Labrador,A & H PIZZA INC.,"Paradise, NL A1L 1G2",1,Low Wage,6711,"Food counter attendants, kitchen helpers and related support occupations",Unknown,1,47.535373,-52.839736
Newfoundland and Labrador,Awesome Enterprises Ltd,"Mount Pearl, NL A1N 3J5",2,Low Wage,6322,Cooks,Unknown,1,47.5232115,-52.7789647
Newfoundland and Labrador,B & F ENTERPRISES LTD.,"BAIE VERTE, NL A0K 1B0",1,Low Wage,6322,Cooks,Unknown,1,49.934577,-56.201564
Newfoundland and Labrador,Beauty Nails Ltd.,"Mount Pearl, NL A1N 5H5",2,Low Wage,6562,"Estheticians, electrologists and related occupations",Unknown,1,47.504938,-52.793844
Newfoundland and Labrador,BJH Enterprises Inc.,"St. John's, NL A1B 3R4",1,Low Wage,6322,Cooks,Unknown,1,47.5776066,-52.7292422
Newfoundland and Labrador,CBS FOODS LTD,"CONCEPTION BAY, NL A1W 3A6",1,Low Wage,6711,"Food counter attendants, kitchen helpers and related support occupations",Unknown,1,47.5183451,-52.9567005
Newfoundland and Labrador,CG Aberdeen Holdings Inc.,"St. John's, NL A1A 5G9",1,Low Wage,6711,"Food counter attendants, kitchen helpers and related support occupations",Unknown,1,47.6108164,-52.7224563
Newfoundland and Labrador,Chadwick Limited,"Corner Brook, NL A2H 4B5",1,Low Wage,6711,"Food counter attendants, kitchen helpers and related support occupations",Unknown,1,48.9521269,-57.9534349
Newfoundland and Labrador,Dory's Way Inc,"Whitbourne, NL A0B 3K0",2,Low Wage,6322,Cooks,Unknown,1,47.359636,-53.415813
Newfoundland and Labrador,Fogo Island Co-operative Society Limited,"Seldom, Fogo Isalnd, NL A0G 3Z0",20,Low Wage,9463,Fish and seafood plant workers,Unknown,1,49.602117,-54.193073
Newfoundland and Labrador,Fogo Island Co-operative Society Limited,"Seldom, Fogo Isalnd, NL A0G 3Z0",20,Low Wage,9618,Labourers in fish and seafood processing,Unknown,1,49.602117,-54.193073
Newfoundland and Labrador,Gary's Convenience Limited,"Glovertown, NL A0G 2L0",2,Low Wage,6711,"Food counter attendants, kitchen helpers and related support occupations",Unknown,1,48.666843,-54.045243
Newfoundland and Labrador,Golden Shell Fisheries (2014) Limited,"Hickman's Harbour, NL A0C 1P0",46,Low Wage,9463,Fish and seafood plant workers,Unknown,1,48.102681,-53.744284
Newfoundland and Labrador,Goose Bay Airport Restaurant Ltd.,"Happy Valley Goose Bay, NL A0P 1C0",1,Low Wage,6322,Cooks,Unknown,1,53.308255,-60.378852
Newfoundland and Labrador,I.C. Pizza House Inc.,"PARADISE, NL A1L 1S6",1,Low Wage,6311,Food service supervisors,Unknown,1,47.5316306,-52.8584126
Newfoundland and Labrador,K&P Cafe Ltd.,"Carbonear, NL A1Y 1B1",1,Low Wage,6322,Cooks,Unknown,1,47.7408249,-53.2076685
Newfoundland and Labrador,KER Holdings Limited,"Clarenville, NL A5A 1Y2",4,Low Wage,6322,Cooks,Unknown,2,48.15827,-53.98971
Newfoundland and Labrador,NL Vegetation Control,"Springdale, NL A0J 1T0",1,Low Wage,1414,Receptionists,Unknown,1,49.5340194702148,-56.191593170166
Newfoundland and Labrador,Noodle Nami Churchill Square Restaurant Inc.,"St.John's, NL A1B 2X1",1,Low Wage,6322,Cooks,Unknown,1,47.574257,-52.722604
Newfoundland and Labrador,Nor-Lab Ltd,"Happy Valley-Goose Bay, NL A0P 1E0",1,Low Wage,7514,Delivery and courier service drivers,Unknown,1,53.312758,-60.38015
Newfoundland and Labrador,northern grocery inc,"port au choix, NL A0K 4C0",2,Low Wage,6611,Cashiers,Unknown,2,50.7027130126953,-57.3633117675781
Newfoundland and Labrador,Ocean Choice International,"St. John's, NL A1B 3N4",19,Low Wage,9463,Fish and seafood plant workers,Unknown,1,47.540271,-52.783174
Newfoundland and Labrador,Quinlan Brothers Ltd.,"Bay de Verde, NL A0A 1E0",160,Low Wage,9463,Fish and seafood plant workers,Unknown,1,48.086656,-52.894291
Newfoundland and Labrador,Quin-Sea Fisheries,"St. John's, NL A1C 1K4",6,Low Wage,9463,Fish and seafood plant workers,Unknown,1,47.571543,-52.7003125
Newfoundland and Labrador,Quin-Sea Fisheries,"St. John's, NL A1C 1K4",211,Low Wage,9618,Labourers in fish and seafood processing,Unknown,6,47.571543,-52.7003125
Newfoundland and Labrador,R&M Food Services Ltd,"Paradise, NL A1L 0A7",1,Low Wage,0631,Restaurant and food service managers,Unknown,1,47.527894,-52.872626
Newfoundland and Labrador,Raymonds Restaurant Group,"St. John's, NL A1C 1B9",1,Low Wage,6322,Cooks,Unknown,1,47.561387,-52.710223
Newfoundland and Labrador,Cornerstone Farm Ltd.,"Cormack, NL A8A 2P8",2,Primary Agriculture,8431,General farm workers,Unknown,1,49.282213,-57.420854
Newfoundland and Labrador,H&E Williams Dairy Farm Ltd,"Goulds, NL A1S 1G5",1,Primary Agriculture,8252,"Agricultural service contractors, farm supervisors and specialized livestock workers",Unknown,1,47.468139,-52.777503
Newfoundland and Labrador,Lester's Farm Market,"St. John's, NL A1E 6J4",8,Primary Agriculture,8431,General farm workers,Unknown,1,47.5204756,-52.766562
Newfoundland and Labrador,Munn Poultry Farm Limited,"CONCEPTION BAY SOUTH, NL A1X 5C7",2,Primary Agriculture,8431,General farm workers,Unknown,1,47.4696899,-53.0700332
Newfoundland and Labrador,Viking Fur Inc.,"Cavendish, NL A0B 1J0",8,Primary Agriculture,8431,General farm workers,Unknown,1,47.715864,-53.493243
Newfoundland and Labrador,CRUX OPERATIONS CONTROL MANAGEMENT LTD.,"Northpoint, NL A0K 3V0",1,Global Talent Stream,2147,Computer engineers (except software engineers and designers),Unknown,1,49.52299,-57.883983
Newfoundland and Labrador,Newfoundland and Labrador Hydro,"St. John's, NL A1B 4K7",1,Global Talent Stream,2173,Software engineers and designers,Unknown,1,47.519691,-52.837161
Prince Edward Island,10718122 Canada Ltd.,"Charlottetown, PE C1E 3K2",1,High Wage,7271,Carpenters,Unknown,1,46.327561,-63.135904
Prince Edward Island,Advance Plus Tech Solutions Inc.,"Charlottetown, PE C1E 2B4",1,High Wage,1241,Administrative assistants,Unknown,1,46.269483,-63.170334
Prince Edward Island,Bulk Carriers (P.E.I.) Limited,"Clyde River, PE C0A 1H3",10,High Wage,7511,Transport truck drivers,Unknown,1,46.234616,-63.254743
Prince Edward Island,Business Porters Inc.,"Charlottetown, PE C1E 0E4",5,High Wage,7511,Transport truck drivers,Unknown,1,46.2830841,-63.1398476
Prince Edward Island,Charlottetown Metal Products,"Milton, PE C1E 1Z2",15,High Wage,7237,Welders and related machine operators,Unknown,1,46.292487,-63.174247
Prince Edward Island,Coach Atlantic Transportation Group Inc.,"Charlottetown, PE C1A 5R7",2,High Wage,7321,"Automotive service technicians, truck and bus mechanics and mechanical repairers",Unknown,1,46.246324,-63.123881
Prince Edward Island,GAUDET'S ENGINE REPAIR LTD.,"ROSEVIL, PE C0B 1K0",1,High Wage,7335,Other small engine and small equipment repairers,Unknown,1,46.837426,-64.113384
Prince Edward Island,Linkletter's Welding Ltd.,"Summerside, PE C1N 4J9",2,High Wage,7237,Welders and related machine operators,Unknown,1,46.39208,-63.740224
Prince Edward Island,National Port Security Services Inc.,"Charlottetown, PE C1A 8W1",1,High Wage,1241,Administrative assistants,Unknown,1,46.23098,-63.126334
Prince Edward Island,100478 PEI Inc,"Kensington, PE C0B 1M0",2,Low Wage,9619,"Other labourers in processing, manufacturing and utilities",Unknown,1,46.43789,-63.63458
Prince Edward Island,101719 P.E.I. Inc.,"montague, PE C0A 1R0",1,Low Wage,6711,"Food counter attendants, kitchen helpers and related support occupations",Unknown,1,46.1637,-62.64674
Prince Edward Island,101775 PEI Inc.,"Charlottetown, PE C1A 4B1",1,Low Wage,6322,Cooks,Unknown,1,46.233243,-63.12659
Prince Edward Island,11865498 CANADA INC.,"Charlottetown, PE C1A 6B2",3,Low Wage,6322,Cooks,Unknown,1,46.2510288,-63.1425507
Prince Edward Island,Ayoub Holdings Ltd.,"Charlottetown, PE C1A 4N1",1,Low Wage,6322,Cooks,Unknown,1,46.2435687,-63.133305
Prince Edward Island,BEACH POINT PROCESSING COMPANY,"Beach Point, PE C0A 1V0",168,Low Wage,9463,Fish and seafood plant workers,Unknown,1,46.002798,-62.519557
Prince Edward Island,Belle River Enterprises Ltd,"Belle River, PE C0A 1B0",12,Low Wage,9463,Fish and seafood plant workers,Unknown,1,45.9791603088379,-62.8373565673828
Prince Edward Island,Business Porters Inc.,"Charlottetown, PE C1E 0E4",1,Low Wage,1241,Administrative assistants,Unknown,1,46.2830841,-63.1398476
Prince Edward Island,Cadiesbeauty Inc.,"Charlottetown, PE C1A 5W4",1,Low Wage,6421,Retail salespersons,Unknown,1,46.253456,-63.125312
Prince Edward Island,Charlottetown Fresh Casual Restaurants Inc.,"Charlottetown, PE C1A 4M9",2,Low Wage,6711,"Food counter attendants, kitchen helpers and related support occupations",Unknown,1,46.24286,-63.1328575
Prince Edward Island,CJ NAILS LIMITED,"Summerside, PE C1N 4P7",2,Low Wage,6562,"Estheticians, electrologists and related occupations",Unknown,1,46.413383,-63.78163
Prince Edward Island,COCOPOWER HOME SERVICES INC.,"CHARLOTTETOWN, PE C1E 0H4",2,Low Wage,7612,Other trades helpers and labourers,Unknown,1,46.2623565,-63.1686114
Prince Edward Island,Doucettes Boat Building Ltd.,"St. Louis, PE C0B 1Z0",2,Low Wage,9619,"Other labourers in processing, manufacturing and utilities",Unknown,1,46.874682,-64.222598
Prince Edward Island,EAST CAPE OYSTER COMPANY,"Charlottetown, PE C1E 2A1",4,Low Wage,9618,Labourers in fish and seafood processing,Unknown,2,46.277048,-63.143529
Prince Edward Island,Empire Bagels Inc,"Charlottetown, PE C1A 8K3",1,Low Wage,6332,Bakers,Unknown,1,46.2486419,-63.1366938
Prince Edward Island,GPS Foods Inc,"Charlottetown, PE C1A 6Y9",1,Low Wage,6322,Cooks,Unknown,1,46.2712714,-63.1283754
Prince Edward Island,KILDARE FISHERIES LTD,"Alberton, PE C0B 1B0",40,Low Wage,9463,Fish and seafood plant workers,Unknown,1,46.837425,-64.113384
Prince Edward Island,mango fresh market ltd,"Charlottetown, PE C1A 4N7",1,Low Wage,6211,Retail sales supervisors,Unknown,1,46.2461432,-63.1350966
Prince Edward Island,McKenna Bros. (1989) Limited,"Cardigan, PE C0A 1G0",4,Low Wage,9617,"Labourers in food, beverage and associated products processing",Unknown,1,46.23224,-62.6332767
Prince Edward Island,NORTH ATLANTIC ORGANICS LTD,"Tignish RR#4, PE C0B 2B0",2,Low Wage,9619,"Other labourers in processing, manufacturing and utilities",Unknown,1,46.9756355285645,-64.0738525390625
Prince Edward Island,PEI MUSSEL FARMS INC,"MORELL, PE C0A 1S0",8,Low Wage,8441,Fishing vessel deckhands,Unknown,1,46.39453125,-62.7252883911133
Prince Edward Island,Royal Star Foods Ltd,"Tignish, PE C0B 2B0",90,Low Wage,9463,Fish and seafood plant workers,Unknown,1,46.9756355285645,-64.0738525390625
Prince Edward Island,Seafood 2000 Ltd.,"Georgetown, PE C0A 1L0",90,Low Wage,9463,Fish and seafood plant workers,Unknown,1,46.185653,-62.522954
Prince Edward Island,101497 PEI Inc,"Cherry Valley, PE C0A 2E0",6,Primary Agriculture,8431,General farm workers,Unknown,2,46.179,-62.884
Prince Edward Island,7035233 Canada Inc.,"Mount Stewart, PE C0A 1T0",2,Primary Agriculture,8252,"Agricultural service contractors, farm supervisors and specialized livestock workers",Unknown,1,46.3396301269531,-62.8716468811035
Prince Edward Island,Atlantic Grown Organics Inc,"Spring Valley, PE C0B 1M0",5,Primary Agriculture,8432,Nursery and greenhouse workers,Unknown,1,46.43789,-63.63458
Prince Edward Island,Canadian Nature Roots LTD.,"Stratford, PE C1B 2Y5",2,Primary Agriculture,8252,"Agricultural service contractors, farm supervisors and specialized livestock workers",Unknown,1,46.200027,-63.107281
Prince Edward Island,Extondale Farms Ltd.,"Oyster Bed, PE C1E 0L9",3,Primary Agriculture,8252,"Agricultural service contractors, farm supervisors and specialized livestock workers",Unknown,1,46.380703,-63.262517
Prince Edward Island,Frizzells Valleyville Farm Inc,"Hunter River, PE C0A 1N0",2,Primary Agriculture,8252,"Agricultural service contractors, farm supervisors and specialized livestock workers",Unknown,1,46.401847,-63.338722
Prince Edward Island,G Visser & Sons Inc.,"Vernon Bridge, PE C0A 2E0",8,Primary Agriculture,8431,General farm workers,Unknown,1,46.179,-62.884
Prince Edward Island,GAVIN'S STOCK FARM,"SEACOW POND, PE C0B 2B0",10,Primary Agriculture,8431,General farm workers,Unknown,1,46.9756355285645,-64.0738525390625
Prince Edward Island,Hakkers Produce Inc,"BELFAST, PE C0A 1A0",25,Primary Agriculture,8431,General farm workers,Unknown,2,46.049674,-62.810501
Prince Edward Island,HILLTOP PRODUCE LTD,"Kinkora, PE C0B 1N0",3,Primary Agriculture,8431,General farm workers,Unknown,1,46.344061,-63.548072
Prince Edward Island,Mackenzie Produce,"Stratford, PE C1B 2R7",9,Primary Agriculture,8431,General farm workers,Unknown,1,46.216002,-63.053993
Prince Edward Island,McCardle Bros,"Kinkora, PE C0B 1N0",17,Primary Agriculture,8431,General farm workers,Unknown,2,46.344061,-63.548072
Prince Edward Island,Middleton Farms Ltd,"Kinkora, PE C0B 1N0",4,Primary Agriculture,8431,General farm workers,Unknown,1,46.344061,-63.548072
Prince Edward Island,Mol Farms Inc.,"Kinkora, PE C0B 1N0",5,Primary Agriculture,8431,General farm workers,Unknown,2,46.344061,-63.548072
Prince Edward Island,Valley Grove Enterprises Ltd,"Kensington, PE C0B 1M0",5,Primary Agriculture,8431,General farm workers,Unknown,1,46.43789,-63.63458
Prince Edward Island,Vettrii Hof Limited,"Tignish, PE C0B 2B0",1,Primary Agriculture,8431,General farm workers,Corporation,1,46.9756355285645,-64.0738525390625
Prince Edward Island,Victoria Potato Farm Inc.,"Crapaud, PE C0A 1J0",30,Primary Agriculture,8431,General farm workers,Unknown,1,46.24001,-63.50021
Prince Edward Island,W.P.  Griffin Inc.,"Elmsdale, PE C0B 1K0",7,Primary Agriculture,8431,General farm workers,Unknown,1,46.837426,-64.113384
Nova Scotia,10094277 Canada Inc,"Halifax, NS B3J 2T9",2,High Wage,2283,Information systems testing technicians,Unknown,1,44.648416,-63.645986
Nova Scotia,11565087 Canada Inc./Travelodge Suites New Glasgow,"New Glasgow, NS B2H 2J8",1,High Wage,1221,Administrative officers,Unknown,1,45.5777654,-62.6664341
Nova Scotia,13055426 Canada Inc.,"Halifax, NS B3N 0A6",1,High Wage,1241,Administrative assistants,Unknown,1,44.6382687,-63.6424202
Nova Scotia,13055426 Canada Inc.,"Halifax, NS B3N 0A6",1,High Wage,1311,Accounting technicians and bookkeepers,Unknown,1,44.6382687,-63.6424202
Nova Scotia,13203409 Canada Corporation,"Dartmouth, NS B3B 1H7",1,High Wage,0125,Other business services managers,Unknown,1,44.702405,-63.605208
Nova Scotia,14527208 Canada Inc.,"Dartmouth,, NS B3A 4S5",1,High Wage,2282,User support technicians,Unknown,1,44.6683859,-63.5747546
Nova Scotia,3289828 NS LTD,"SACKVILLE, NS B4C 2N1",2,High Wage,7322,Motor vehicle body repairers,Unknown,1,44.754185,-63.662779
Nova Scotia,3291918 NS Limited,"Halifax, NS B4B 0S7",1,High Wage,0014,Senior managers ,Unknown,1,44.752187,-63.793931
Nova Scotia,3311267 Nova Scotia Ltd.,"Aberdeen, NS B0E 3M0",1,High Wage,0632,Accommodation service managers,Unknown,1,46.081461,-60.965235
Nova Scotia,4381149 NOVA SCOTIA INC,"BADDECK, NS B0E 1B0",1,High Wage,0632,Accommodation service managers,Unknown,1,46.234036,-61.299174
Nova Scotia,720968 NB LTD,"Halifax, NS B3L 4R3",1,High Wage,6211,Retail sales supervisors,Unknown,1,44.648169,-63.620507
Nova Scotia,ADDA INDIAN EATERY INC.,"Halifax, NS B3J 3M7",1,High Wage,1241,Administrative assistants,Unknown,1,44.642749,-63.577974
Nova Scotia,Atlantic George Limited,"Halifax, NS B3M 2K7",1,High Wage,7205,"Contractors and supervisors, other construction trades, installers, repairers and servicers",Unknown,1,44.677953,-63.649769
Nova Scotia,Blue Bird Fueling INC,"STEWIACKE, NS B0N 2J0",2,High Wage,6211,Retail sales supervisors,Unknown,1,45.1884755,-63.3253614
Nova Scotia,BTTC (Canada) Incorporated,"Halifax, NS B3J 3R7",2,High Wage,1122,Professional occupations in business management consulting,Unknown,2,44.6520889,-63.5761473
Nova Scotia,Cape Smokey Holding Limited,"Ingonish Beach, NS B0C 1L0",1,High Wage,6722,"Operators and attendants in amusement, recreation and sport",Unknown,1,46.613127,-60.507454
Nova Scotia,Clarks Harbour Seafood Ltd,"Clarks Harbour, NS B0W 1P0",1,High Wage,1241,Administrative assistants,Unknown,1,43.462969,-65.650454
Nova Scotia,CNS Accounting Solutions Ltd.,"Halifax, NS B3J 3M8",1,High Wage,0125,Other business services managers,Unknown,1,44.647395,-63.5727
Nova Scotia,CNS Accounting Solutions Ltd.,"Halifax, NS B3J 3M8",5,High Wage,1114,Other financial officers,Unknown,1,44.647395,-63.5727
Nova Scotia,Dalhousie University,"Halifax, NS B3H 4R2",1,High Wage,4011,University professors and lecturers,Unknown,1,44.6370504,-63.5964136
Nova Scotia,Dameng Internet Ltd,"Bedford, NS B4A 1E6",1,High Wage,2281,Computer network technicians,Unknown,1,44.731599,-63.657959
Nova Scotia,Diamond Accounts Inc,"Halifax, NS B3M 0P6",1,High Wage,1311,Accounting technicians and bookkeepers,Unknown,1,44.6796363,-63.6519794
Nova Scotia,DXB Logistics Inc,"Sydney, NS B1P 1C4",1,High Wage,1223,Human resources and recruitment officers,Unknown,1,46.1405539,-60.1954856
Nova Scotia,Efty Dishes Ltd.,"Halifax, NS B3M 2P1",3,High Wage,6322,Cooks,Unknown,1,44.661155,-63.638275
Nova Scotia,FISH-N-TALES FISHERIES INC.,"D'Escousse, NS B0E 1K0",1,High Wage,1241,Administrative assistants,Unknown,1,45.53269,-61.010749
Nova Scotia,Forrest Welding and Fabrication,"Caledonia, NS B0T 1B0",1,High Wage,7237,Welders and related machine operators,Unknown,1,44.378101,-65.019781
Nova Scotia,Giant Promotions Limited,"Halifax, NS B3K 5A6",1,High Wage,2252,Industrial designers,Unknown,1,44.664718,-63.6199985
Nova Scotia,Good Air Ventilation Systems Inc,"Halifax, NS B3N 1K7",1,High Wage,1225,Purchasing agents and officers,Unknown,1,44.636432,-63.631476
Nova Scotia,Haarp Trans Ltd.,"WELLESLEY, NS N0B 2T0",4,High Wage,7511,Transport truck drivers,Unknown,1,43.477338,-80.754394
Nova Scotia,HEPATIA NAILS SPA LIMITED,"Dartmouth, NS B2X 1R6",2,High Wage,6562,"Estheticians, electrologists and related occupations",Unknown,1,44.681848,-63.540325
Nova Scotia,MacDonell’s Small Jobs Ltd,"Barrington Passage, NS B0W 1G0",6,High Wage,7271,Carpenters,Unknown,1,43.57519,-65.628997
Nova Scotia,NOSPEL ROOFING & WATERPROOFING LTD.,"Dartmouth, NS B3B 1N3",2,High Wage,7291,Roofers and shinglers,Unknown,1,44.706327,-63.592554
Nova Scotia,P&R IMMIGRATION & RECRUITMENT (NS) INC.,"Dartmouth, NS B3B 0M7",1,High Wage,1223,Human resources and recruitment officers,Unknown,1,44.6963138,-63.5750546
Nova Scotia,Paraza Technologies Inc.,"Halifax, NS B3J 3K8",1,High Wage,0212,Architecture and science managers,Unknown,1,44.648408,-63.57472
Nova Scotia,Paraza Technologies Inc.,"Halifax, NS B3J 3K8",1,High Wage,2112,Chemists,Unknown,1,44.648408,-63.57472
Nova Scotia,Pho Maniac Inc.,"Halifax, NS B3J 1T6",1,High Wage,6322,Cooks,Unknown,1,44.641316,-63.569555
Nova Scotia,Port to Port Immigration Services Inc.,"Halifax, NS B3J 1N7",3,High Wage,1223,Human resources and recruitment officers,Unknown,1,44.649443,-63.573894
Nova Scotia,PRECISION CONCRETE SERVICES LIMITED,"Bedford, NS B4B 1H1",17,High Wage,7282,Concrete finishers,Unknown,1,44.722456,-63.710231
Nova Scotia,R. N. Apex Solutions Ltd,"Dartmouth, NS B3B 1L1",1,High Wage,1223,Human resources and recruitment officers,Unknown,1,44.667729,-63.580543
Nova Scotia,ResMed,"Halifax, NS B3S 0H1",1,High Wage,2173,Software engineers and designers,Unknown,1,44.656609,-63.668117
Nova Scotia,SANDHYAJI HOTELS NOVA INC.,"Sydney, NS B1S 1A1",2,High Wage,6313,"Accommodation, travel, tourism and related services supervisors",Unknown,1,46.127694,-60.196515
Nova Scotia,SEALAND BUILDING GROUP INC.,"Bedford, NS B4A 3Z2",6,High Wage,7271,Carpenters,Unknown,1,44.71004,-63.681667
Nova Scotia,Space-Time-Beyond Immigration Services Inc.,"Halifax, NS B3J 3M7",1,High Wage,1241,Administrative assistants,Unknown,1,44.642749,-63.577974
Nova Scotia,Springfield Hotels (Halifax) Incorporated,"Enfield, NS B2T 0A2",1,High Wage,6312,Executive housekeepers,Unknown,1,44.86467,-63.542091
Nova Scotia,Standard Fund Services Canada Ltd,"Halifax, NS B3M 2L8",1,High Wage,0111,Financial managers,Unknown,1,44.693973,-63.660842
Nova Scotia,T & H Group Developments Ltd.,"Halifax, NS B3H 2V3",1,High Wage,1431,Accounting and related clerks,Unknown,1,44.627072,-63.571842
Nova Scotia,The Classic Therapy Group Inc.,"Halifax, NS B3L 1A8",1,High Wage,3142,Physiotherapists,Unknown,1,44.644495,-63.600409
Nova Scotia,Tidal Coast Construction Limited,"Bedford, NS B3M 2L4",1,High Wage,7271,Carpenters,Unknown,1,44.683403,-63.660986
Nova Scotia,TOPAZ TRANSPORT INC.,"BEAVER BANK, NS B4E 3J4",10,High Wage,7511,Transport truck drivers,Unknown,1,44.8051591,-63.6755635
Nova Scotia,Woori Education Group INC,"Halifax, NS B3J 3K3",1,High Wage,1221,Administrative officers,Unknown,1,44.643355,-63.578131
Nova Scotia,Xeneration Inc,"Bedford, NS B4A 3Y4",1,High Wage,1123,"Professional occupations in advertising, marketing and public relations",Unknown,1,44.733105,-63.655979
Nova Scotia,10380121 Canada Inc.,"Elmsdale, NS B2S 0C8",2,Low Wage,7511,Transport truck drivers,Unknown,1,44.9721447,-63.5214606
Nova Scotia,10843466,"Halifax, NS B3S 1C5",4,Low Wage,6322,Cooks,Unknown,1,44.646868,-63.673703
Nova Scotia,3046080 Nova Scotia LTD,"port hawkesbury, NS B9A 2S1",1,Low Wage,6322,Cooks,Unknown,1,45.6141238,-61.349627
Nova Scotia,3091914 NS LTD,"HALIFAX, NS B3K 1H8",1,Low Wage,6525,Hotel front desk clerks,Unknown,1,44.6529,-63.590404
Nova Scotia,3104568 Nova Scotia Limited,"L'Ardoise, NS B0E 1W0",10,Low Wage,9618,Labourers in fish and seafood processing,Unknown,1,45.580256,-60.736738
Nova Scotia,3233408 Nova Scotia Limited,"Halifax, NS B3K 3B2",1,Low Wage,6322,Cooks,Unknown,1,44.651389,-63.582437
Nova Scotia,3252307 Nova Scotia Limited,"Halifax, NS B3R 1W2",1,Low Wage,6711,"Food counter attendants, kitchen helpers and related support occupations",Unknown,1,44.611208,-63.617555
Nova Scotia,3258807 Nova Scotia Ltd,"Sackville, NS B4C 2R8",1,Low Wage,6711,"Food counter attendants, kitchen helpers and related support occupations",Unknown,1,44.7635669,-63.6752822
Nova Scotia,3272946 NOVA SCOTIA LIMITED,"Lower Sackville, NS B4C 2S2",1,Low Wage,6322,Cooks,Unknown,1,44.7670629,-63.6833933
Nova Scotia,3287893 Nova Scotia Limited,"HALIFAX, NS B3J 0J1",3,Low Wage,6322,Cooks,Unknown,1,44.6410581,-63.5791516
Nova Scotia,3293656 Nova Scotia Limited,"Halifax, NS B3L 1A4",1,Low Wage,6322,Cooks,Unknown,1,44.645526,-63.596843
Nova Scotia,3296264 nova Scotia limited,"Vaughan, NS B0N 2T0",1,Low Wage,6711,"Food counter attendants, kitchen helpers and related support occupations",Unknown,1,44.819594,-64.318054
Nova Scotia,3297145 NOVA SCOTIA LIMITED,"Dartmouth, NS B3B 1C7",1,Low Wage,8612,Landscaping and grounds maintenance labourers,Unknown,1,44.7051845,-63.604896
Nova Scotia,3298225 NOVA SCOTIA LIMITED,"BEAVER BANK, NS B4G 1E8",1,Low Wage,6711,"Food counter attendants, kitchen helpers and related support occupations",Unknown,1,44.834764,-63.681161
Nova Scotia,3299012 Nova Scotia Limited,"Hacketts Cove, NS B3Z 3J3",1,Low Wage,6322,Cooks,Unknown,1,44.686572,-63.852091
Nova Scotia,3299261 Nova Scotia LTD,"Whycocomagh, NS B0E 3M0",1,Low Wage,6311,Food service supervisors,Unknown,1,46.081461,-60.965235
Nova Scotia,3310175 Nova Scotia Ltd.,"Louisbourg, NS B1C 1H5",1,Low Wage,1241,Administrative assistants,Unknown,1,45.9222055,-59.9689289
Nova Scotia,3317019 Nova Scotia limited,"Bridgewater, NS B4V 3T2",1,Low Wage,6322,Cooks,Unknown,1,44.380319,-64.518248
Nova Scotia,3317386 Nova Scotia Limited,"Truro, NS B2N 5B6",1,Low Wage,6731,Light duty cleaners,Unknown,1,45.366338,-63.299163
Nova Scotia,3318353 Nova Scotia Limited,"Dartmouth, NS B3B 1B5",1,Low Wage,6322,Cooks,Unknown,1,44.693737,-63.600588
Nova Scotia,3321702 Nova Scotia Ltd,"YARMOUTH, NS B5A 5J7",1,Low Wage,6731,Light duty cleaners,Unknown,1,43.838441,-66.114026
Nova Scotia,3322746 Nova Scotia Limited,"Halifax, NS B3K 0G2",1,Low Wage,6311,Food service supervisors,Unknown,1,44.660991,-63.6005667
Nova Scotia,3331445 Nova Scotia Limited,"Halifax, NS B3M 3W8",1,Low Wage,6322,Cooks,Unknown,1,44.673279,-63.664255
Nova Scotia,3332859 Nova Scotia Limited,"Bridgewater, NS B4V 1V8",1,Low Wage,6315,Cleaning supervisors,Unknown,1,44.37524,-64.532495
Nova Scotia,3332859 Nova Scotia Limited,"Bridgewater, NS B4V 1V8",1,Low Wage,6525,Hotel front desk clerks,Unknown,1,44.37524,-64.532495
Nova Scotia,3333310 Nova Scotia Limited,"Liverpool, NS B0T 1K0",3,Low Wage,6322,Cooks,Unknown,1,44.039167,-64.71609
Nova Scotia,3334989 NOVA SCOTIA LIMITED,"Lower Sackville, NS B4C 2S8",1,Low Wage,6322,Cooks,Unknown,1,44.751271,-63.66367
Nova Scotia,3337422 NOVA SCOTIA LIMITED,"Halifax, NS B3J 2B2",1,Low Wage,6711,"Food counter attendants, kitchen helpers and related support occupations",Unknown,1,44.64533,-63.573882
Nova Scotia,3338355 Nova Scotia Limited,"Lower Sackville, NS B4C 2S4",1,Low Wage,6562,"Estheticians, electrologists and related occupations",Unknown,1,44.7682989,-63.6857731
Nova Scotia,3339960 Nova Scotia Limited,"Dartmouth, NS B2Y 4B1",3,Low Wage,6322,Cooks,Unknown,1,44.6703938,-63.5366235
Nova Scotia,3341610 Nova Scotia Limited.,"Bedford, NS B3M 0L5",1,Low Wage,6711,"Food counter attendants, kitchen helpers and related support occupations",Unknown,1,44.69476,-63.6759351
Nova Scotia,3344150 Nova Scotia Limited,"Halifax, NS B3J 3Z4",2,Low Wage,6322,Cooks,Unknown,1,44.643489,-63.569389
Nova Scotia,3344194 nova scotia limited,"Chester Basin, NS B0J 1K0",1,Low Wage,6421,Retail salespersons,Unknown,1,44.5613136291504,-64.3081893920898
Nova Scotia,4328467 Nova Scotia Limited,"Dartmouth, NS B2Y 3W2",1,Low Wage,6622,"Store shelf stockers, clerks and order fillers",Unknown,1,44.666591,-63.542971
Nova Scotia,4329205 Nova Scotia Ltd.,"Halifax, NS B3J 2K4",2,Low Wage,6322,Cooks,Unknown,2,44.643977,-63.578445
Nova Scotia,4329205 Nova Scotia Ltd.,"Halifax, NS B3J 2K4",1,Low Wage,6711,"Food counter attendants, kitchen helpers and related support occupations",Unknown,1,44.643977,-63.578445
Nova Scotia,4345498 Nova Scotia Limited,"Port Hawkesbury, NS B9A 0A2",1,Low Wage,6421,Retail salespersons,Unknown,1,45.6141576,-61.3495366
Nova Scotia,4378255 Nova Scotia Limited,"Halifax, NS B3J 1G5",2,Low Wage,6322,Cooks,Unknown,2,44.642998,-63.577002
Nova Scotia,4400807 Nova Scotia Limited,"Halifax, NS B3M 4K3",1,Low Wage,6311,Food service supervisors,Unknown,1,44.663547,-63.653483
Nova Scotia,4401215 NOVA SCOTIA LIMITED,"Bedford, NS B4B 1M5",1,Low Wage,6322,Cooks,Unknown,1,44.7336934,-63.7874535
Nova Scotia,4428933 Nova Scotia Limited,"Windsor, NS B0N 2T0",4,Low Wage,6322,Cooks,Unknown,1,44.819594,-64.318054
Nova Scotia,4450464 nova scotia limited,"Cheticamp, NS B0E 1H0",1,Low Wage,6421,Retail salespersons,Unknown,1,46.506849,-61.025641
Nova Scotia,4453844 Nova Scotia Limited,"Dartmouth, NS B3A 1N5",1,Low Wage,6311,Food service supervisors,Unknown,1,44.675739,-63.586477
Nova Scotia,4453844 Nova Scotia Limited,"Dartmouth, NS B3A 1N5",1,Low Wage,6711,"Food counter attendants, kitchen helpers and related support occupations",Unknown,1,44.675739,-63.586477
Nova Scotia,4455462 Nova scotia Ltd,"GREENWOOD, NS B0P 1N0",2,Low Wage,6322,Cooks,Unknown,1,44.993606,-64.970043
Nova Scotia,4492536 NOVA SCOTIA LIMITED,"TRURO, NS B2N 1K8",1,Low Wage,6611,Cashiers,Unknown,1,45.369567,-63.2991855
Nova Scotia,4492536 NOVA SCOTIA LIMITED,"TRURO, NS B2N 1K8",1,Low Wage,6711,"Food counter attendants, kitchen helpers and related support occupations",Unknown,1,45.369567,-63.2991855
Nova Scotia,604 Drywall ltd.,"Halifax, NS B3M 2L8",2,Low Wage,7611,Construction trades helpers and labourers,Unknown,1,44.693973,-63.660842
Nova Scotia,A & D Services Ltd.,"New Minas, NS B4N 3K9",3,Low Wage,6322,Cooks,Unknown,1,45.0562729,-64.4704345
Nova Scotia,A & D Services Ltd.,"New Minas, NS B4N 3K9",2,Low Wage,6731,Light duty cleaners,Unknown,1,45.0562729,-64.4704345
Nova Scotia,A and N Pizzeria Incorporated,"New Minas, NS B4N 3E9",1,Low Wage,6322,Cooks,Unknown,1,45.0678192,-64.4444585
Nova Scotia,Acadia Roofing & Contracting Limited,"Port Williams, NS B0P 1T0",5,Low Wage,7291,Roofers and shinglers,Unknown,1,45.159695,-64.362715
Nova Scotia,Acadian Fish Processors Ltd.,"Lower West Pubnico, NS B0W 2C0",2,Low Wage,9463,Fish and seafood plant workers,Unknown,1,43.626868,-65.791967
Nova Scotia,Aquashell Holdings Company,"Wallace, NS B0K 1Y0",57,Low Wage,9463,Fish and seafood plant workers,Unknown,1,45.79188,-63.520605
Nova Scotia,B&D Vienneau LTD,"Porters Lake, NS B3E 1J7",3,Low Wage,6711,"Food counter attendants, kitchen helpers and related support occupations",Unknown,1,44.7380253,-63.2903366
Nova Scotia,Baby Panda Asian Cuisine,"Windsor, NS B0N 2T0",1,Low Wage,6711,"Food counter attendants, kitchen helpers and related support occupations",Unknown,1,44.819594,-64.318054
Nova Scotia,Bai Wei Limited,"Halifax, NS B3H 2R8",1,Low Wage,6711,"Food counter attendants, kitchen helpers and related support occupations",Unknown,1,44.637045,-63.572766
Nova Scotia,Balodis Inc,"Westville, NS B0K 2A0",4,Low Wage,7611,Construction trades helpers and labourers,Unknown,1,45.567253,-62.715905
Nova Scotia,Blue Elephant Thai Restaurant,"Bedford, NS B3M 0G2",1,Low Wage,6711,"Food counter attendants, kitchen helpers and related support occupations",Unknown,1,44.6809479,-63.6946774
Nova Scotia,Brandner Investments Ltd,"Lunenburg, NS B0J 2C0",1,Low Wage,6731,Light duty cleaners,Unknown,1,44.37635,-64.309889
Nova Scotia,Brycon Construction Limited,"Dartmouth, NS B2Y 4P4",2,Low Wage,7511,Transport truck drivers,Unknown,1,44.6515295,-63.5430205
Nova Scotia,Brycon Construction Limited,"Dartmouth, NS B2Y 4P4",2,Low Wage,7611,Construction trades helpers and labourers,Unknown,1,44.6515295,-63.5430205
Nova Scotia,Caissieco Enterprises,"Cole Harbour, NS B2W 6E4",3,Low Wage,6211,Retail sales supervisors,Unknown,2,44.674969,-63.491385
Nova Scotia,Candace Weston Pete'za Perfect,"Elmsdale, NS B2S 1A8",2,Low Wage,6322,Cooks,Unknown,1,44.96518,-63.50864
Nova Scotia,Captain Atlantic International Trade Co. Ltd.,"Shag Harbour,, NS B0W 3B0",1,Low Wage,1311,Accounting technicians and bookkeepers,Unknown,1,43.506114,-65.718791
Nova Scotia,Care and Fun Childcare limited,"Halifax, NS B3M 3V3",1,Low Wage,4214,Early childhood educators and assistants,Unknown,1,44.652589,-63.650147
Nova Scotia,CC Lash And Brow,"Antigonish, NS B2G 2B9",1,Low Wage,6562,"Estheticians, electrologists and related occupations",Unknown,1,45.6230182,-61.9878219
Nova Scotia,Chef Abod Cafe and Catering,"halifax, NS B3K 4X2",1,Low Wage,6711,"Food counter attendants, kitchen helpers and related support occupations",Unknown,1,44.660186,-63.60568
Nova Scotia,Chester Service Centre Limited,"Chester, NS B0J 1J0",1,Low Wage,6211,Retail sales supervisors,Unknown,1,44.560562,-64.225079
Nova Scotia,China King Family Restaurant Ltd.,"Port Hawkesbury, NS B9A 2S4",1,Low Wage,6322,Cooks,Unknown,1,45.6140657,-61.3495797
Nova Scotia,Chrysanthemum Nails and Spa Limited,"Dartmouth, NS B2V 2T6",1,Low Wage,6562,"Estheticians, electrologists and related occupations",Unknown,1,44.670807,-63.489812
Nova Scotia,Dakota Holdings,"Coldbrook, NS B4R 1A2",1,Low Wage,6711,"Food counter attendants, kitchen helpers and related support occupations",Unknown,1,45.0684731,-64.5668764
Nova Scotia,DARA Trading Inc.,"Halifax, NS B3N 2R9",1,Low Wage,6322,Cooks,Unknown,1,44.654659,-63.632095
Nova Scotia,DARA Trading Inc.,"Halifax, NS B3N 2R9",1,Low Wage,6331,"Butchers, meat cutters and fishmongers ",Unknown,1,44.654659,-63.632095
Nova Scotia,Delectable Desserts Inc.,"Dartmouth, NS B3B 1W2",1,Low Wage,6332,Bakers,Unknown,1,44.698469,-63.580528
Nova Scotia,Double C Truck Stop Ltd.,"Debert, NS B0M 1G0",2,Low Wage,6322,Cooks,Unknown,1,45.468637,-63.531392
Nova Scotia,East Avenue Restaurant,"New Glasgow, NS B2H 5L6",1,Low Wage,6322,Cooks,Unknown,1,45.586448,-62.645096
Nova Scotia,Fisher Direct LTD,"Shelburne County, NS B0W 3B0",10,Low Wage,9618,Labourers in fish and seafood processing,Unknown,2,43.506114,-65.718791
Nova Scotia,Fisherman's Market International Incorporated,"Halifax, NS B3M 2L6",10,Low Wage,9463,Fish and seafood plant workers,Unknown,1,44.690147,-63.659759
Nova Scotia,Gateway Meat Market,"Dartmouth, NS B2W 3T6",5,Low Wage,6331,"Butchers, meat cutters and fishmongers ",Unknown,1,44.6935529,-63.4995804
Nova Scotia,Gateway Meat Market,"Dartmouth, NS B2W 3T6",5,Low Wage,6611,Cashiers,Unknown,1,44.6935529,-63.4995804
Nova Scotia,Georges Youssef Investment Ltd,"Port Hawkesbury, NS B9A 2R6",1,Low Wage,6711,"Food counter attendants, kitchen helpers and related support occupations",Unknown,1,45.6186745,-61.358915
Nova Scotia,Gidney Fisheries Limited,"Centreville, NS B0V 1A0",15,Low Wage,9463,Fish and seafood plant workers,Unknown,1,44.536344,-65.84642
Nova Scotia,Gordon Food Service,"Amherst, NS B4H 4R5",15,Low Wage,7452,Material handlers,Unknown,1,45.81229,-64.203719
Nova Scotia,GREENWAY WATERPROOFING AND CONSTRUCTION LTD.,"Bedford, NS B4A 0E4",1,Low Wage,7611,Construction trades helpers and labourers,Unknown,1,44.718207,-63.650764
Nova Scotia,Grind Contracting LTD,"East Lawerencetown, NS B2Z 1P1",1,Low Wage,7291,Roofers and shinglers,Unknown,1,44.668398,-63.570495
Nova Scotia,Halifax Bobar Lounge NS Ltd.,"Halifax, NS B3L 1A1",1,Low Wage,6711,"Food counter attendants, kitchen helpers and related support occupations",Unknown,1,44.646939,-63.591414
Nova Scotia,Halifax Tower Hotel Ltd.,"Halifax, NS B3S 1A2",1,Low Wage,6525,Hotel front desk clerks,Unknown,1,44.645251,-63.667365
Nova Scotia,Hants Border Diner & Grill Incorporated,"Hants Border, Nova Scotia B0P1P0, NS B0P 1P0",2,Low Wage,6322,Cooks,Unknown,1,45.067011,-64.174361
Nova Scotia,HARVEST BAYERS LAKE DRP INC.,"Halifax, NS B3S 1C7",1,Low Wage,6322,Cooks,Unknown,1,44.64583,-63.674764
Nova Scotia,Huawei Trading Limited,"dartmouth, NS B2Y 2N5",1,Low Wage,6211,Retail sales supervisors,Unknown,1,44.667417,-63.574096
Nova Scotia,Indochine Asian Sandwiches Inc,"Halifax, NS B3J 4B4",1,Low Wage,0631,Restaurant and food service managers,Unknown,1,44.642943,-63.579937
Nova Scotia,Indochine Asian Sandwiches Inc,"Halifax, NS B3J 4B4",1,Low Wage,6322,Cooks,Unknown,1,44.642943,-63.579937
Nova Scotia,J.M.P Sayles Holdings Inc.,"Windsor, NS B0N 2T0",1,Low Wage,6311,Food service supervisors,Unknown,1,44.819594,-64.318054
Nova Scotia,J.M.P Sayles Holdings Inc.,"Windsor, NS B0N 2T0",1,Low Wage,6711,"Food counter attendants, kitchen helpers and related support occupations",Unknown,1,44.819594,-64.318054
Nova Scotia,Jay’s Convenience Barn Inc,"Halifax, NS B3K 5K6",1,Low Wage,6421,Retail salespersons,Unknown,1,44.655381,-63.584333
Nova Scotia,JKNQ food service LTD,"Dartmouth, NS B2V 2J5",1,Low Wage,6322,Cooks,Unknown,1,44.671148,-63.501815
Nova Scotia,JRM 277 Investments Ltd.,"Bible Hill, NS B2N 4G7",10,Low Wage,6711,"Food counter attendants, kitchen helpers and related support occupations",Unknown,2,45.3697766,-63.2712029
Nova Scotia,Kumkum restaurants Inc.,"Springhill, NS B0M 1X0",1,Low Wage,6311,Food service supervisors,Unknown,1,45.664595,-64.034548
Nova Scotia,L.J. Robicheau & Son Fisheries Limited,"Middleton, NS B0S 1P0",28,Low Wage,9463,Fish and seafood plant workers,Unknown,2,45.0103912353516,-65.089225769043
Nova Scotia,Learning Tree Childcare Centre Inc.,"Dartmouth, NS B3B 0A7",1,Low Wage,4214,Early childhood educators and assistants,Unknown,1,44.705943,-63.581746
Nova Scotia,Les Entreprises Samson Enterprises Ltee,"Petit De Grat, NS B0E 2L0",4,Low Wage,9535,"Plastic products assemblers, finishers and inspectors",Unknown,1,45.446991,-60.939875
Nova Scotia,Lismore Seafoods Company,"Lismore, NS B0K 1G0",53,Low Wage,9463,Fish and seafood plant workers,Unknown,1,45.714164,-62.213319
Nova Scotia,Lobsterboys SH Ltd,"Shag Harbour, NS B0W 3B0",4,Low Wage,9463,Fish and seafood plant workers,Unknown,1,43.506114,-65.718791
Nova Scotia,Long Point Lobster & Seafood Limited,"NEWELLTON, NS B0W 1P0",7,Low Wage,9618,Labourers in fish and seafood processing,Unknown,1,43.462969,-65.650454
Nova Scotia,M.J.N.J Investments Ltd,"Lunenburg, NS B0J 2C0",1,Low Wage,6311,Food service supervisors,Unknown,1,44.37635,-64.309889
Nova Scotia,MAKHANI INDIAN RESTAURANT INC.,"Bedford, NS B4A 3Y4",1,Low Wage,6322,Cooks,Unknown,1,44.733105,-63.655979
Nova Scotia,May Hair,"BEDFORD, NS B4A 1A4",1,Low Wage,6341,Hairstylists and barbers,Unknown,1,44.708433,-63.666876
Nova Scotia,Melvin tan sushi company,"Antigonish, NS B2G 2V2",1,Low Wage,6711,"Food counter attendants, kitchen helpers and related support occupations",Unknown,1,,
Nova Scotia,Merex Incorporated,"Halifax, NS B3H 4N4",10,Low Wage,9463,Fish and seafood plant workers,Unknown,2,44.637704,-63.565763
Nova Scotia,Mic-mac beverage room (2006) ltd,"Dartmouth, NS B2X 2C3",1,Low Wage,6322,Cooks,Unknown,1,44.692423,-63.545997
Nova Scotia,Middle Eats Lebanese Cuisine Ltd,"Lower Sackville, NS B4E 1S1",1,Low Wage,6322,Cooks,Unknown,1,44.7747288,-63.6939057
Nova Scotia,Mirchi Tandoor Inc.,"halifax, NS B3J 1J7",2,Low Wage,6322,Cooks,Unknown,1,44.645217,-63.573178
Nova Scotia,Moose N Tiger Restaurant Ltd,"Bedford, NS B4A 3P1",3,Low Wage,6322,Cooks,Unknown,1,44.714768,-63.678037
Nova Scotia,NADA Food Services Limited,"Bedford, NS B4A 1A1",1,Low Wage,6311,Food service supervisors,Unknown,1,44.707887,-63.665959
Nova Scotia,Naru Japanese Restaurant (NS) Ltd.,"Sydney, NS B1P 1G8",1,Low Wage,6322,Cooks,Unknown,1,46.135026,-60.192725
Nova Scotia,Nautical Seafoods Ltd,"Annapolis Royal, NS B0S 1K0",20,Low Wage,9618,Labourers in fish and seafood processing,Unknown,1,44.705351,-65.744945
Nova Scotia,new century restaurant,"Yarmouth, NS B5A 1C9",2,Low Wage,6322,Cooks,Unknown,1,43.8330894,-66.1202969
Nova Scotia,NEW HOPE HOLDINGS INC,"Halifax, NS B3B 0E5",2,Low Wage,6322,Cooks,Unknown,1,44.7091,-63.591479
Nova Scotia,Oak Island Resort & Conference Centre,"Western Shore, NS B0J 3M0",7,Low Wage,6322,Cooks,Unknown,1,44.523144,-64.31449
Nova Scotia,Oak Island Resort & Conference Centre,"Western Shore, NS B0J 3M0",8,Low Wage,6731,Light duty cleaners,Unknown,1,44.523144,-64.31449
Nova Scotia,Oxen International Ltd.,"New Minas, NS B4N 4N4",1,Low Wage,6711,"Food counter attendants, kitchen helpers and related support occupations",Unknown,1,45.0637988,-64.4533117
Nova Scotia,Pecheries Cheticamp Fisheries Intl. (2016) Ltd,"Cheticamp, NS B0E 1H0",104,Low Wage,9618,Labourers in fish and seafood processing,Unknown,1,46.506849,-61.025641
Nova Scotia,Petit de Grat Packers Ltd.,"Petit De Grat, NS B0E 2L0",56,Low Wage,9618,Labourers in fish and seafood processing,Unknown,1,45.446991,-60.939875
Nova Scotia,Pizza 67 Ltd.,"GlaceBay, NS B1A 3C1",1,Low Wage,6311,Food service supervisors,Unknown,1,46.198832,-59.967443
Nova Scotia,Quality Seafoods Limited,"Yarmouth, NS B5A 4B3",1,Low Wage,1311,Accounting technicians and bookkeepers,Unknown,1,43.835289,-66.120629
Nova Scotia,Quality Seafoods Limited,"Yarmouth, NS B5A 4B3",4,Low Wage,9618,Labourers in fish and seafood processing,Unknown,1,43.835289,-66.120629
Nova Scotia,R&G MacDonald Enterprises Ltd.,"Port Hawkesbury, NS B9A 2M4",1,Low Wage,6311,Food service supervisors,Unknown,1,45.624118,-61.347106
Nova Scotia,R&G MacDonald Enterprises Ltd.,"Port Hawkesbury, NS B9A 2M4",4,Low Wage,6711,"Food counter attendants, kitchen helpers and related support occupations",Unknown,1,45.624118,-61.347106
Nova Scotia,R. Baker Fisheries Ltd.,"Lockeport, NS B0T 1L0",4,Low Wage,9463,Fish and seafood plant workers,Unknown,1,43.71839,-65.12347
Nova Scotia,R. N. Apex Solutions Ltd,"Dartmouth, NS B3B 1L1",2,Low Wage,7514,Delivery and courier service drivers,Unknown,1,44.667729,-63.580543
Nova Scotia,R.I.N. Hospitality Investments Limited,"Fall River, NS B2T 1J5",1,Low Wage,6315,Cleaning supervisors,Unknown,1,44.808796,-63.605941
Nova Scotia,Randy Roop's Service Centre Ltd.,"Brookfield, NS B0N 1C0",1,Low Wage,6311,Food service supervisors,Unknown,1,45.263092,-63.097746
Nova Scotia,Randy Roop's Service Centre Ltd.,"Brookfield, NS B0N 1C0",2,Low Wage,6611,Cashiers,Unknown,1,45.263092,-63.097746
Nova Scotia,Randy’s Pizza and Donair - Kearney Lake Road,"Halifax, NS B3M 4N9",2,Low Wage,6322,Cooks,Unknown,1,44.6841964,-63.6753928
Nova Scotia,Randy’s Pizza and Donair - Kearney Lake Road,"Halifax, NS B3M 4N9",1,Low Wage,6711,"Food counter attendants, kitchen helpers and related support occupations",Unknown,1,44.6841964,-63.6753928
Nova Scotia,Red Rover Holdings Ltd.,"Digby, NS B0V 1A0",2,Low Wage,6322,Cooks,Unknown,1,44.536344,-65.84642
Nova Scotia,Red Rover Holdings Ltd.,"Digby, NS B0V 1A0",1,Low Wage,6731,Light duty cleaners,Unknown,1,44.536344,-65.84642
Nova Scotia,Rob Bitar's Pizza Pasta & Grill,"Elmsdale, NS B2S 1A8",2,Low Wage,6513,Food and beverage servers,Unknown,1,44.96518,-63.50864
Nova Scotia,Roof Hound Brewing Co. Limited,"Kingston, NS B0P 1R0",3,Low Wage,6322,Cooks,Unknown,2,45.074551,-64.720682
Nova Scotia,Roof Hound Brewing Co. Limited,"Kingston, NS B0P 1R0",1,Low Wage,6731,Light duty cleaners,Unknown,1,45.074551,-64.720682
Nova Scotia,seven restaurants LTD,"Halifax, NS B3S 1C9",1,Low Wage,6711,"Food counter attendants, kitchen helpers and related support occupations",Unknown,1,44.651141,-63.675971
Nova Scotia,Shanaka Restaurants Inc.,"Windsor, NS B0N 2T0",1,Low Wage,6322,Cooks,Unknown,1,44.819594,-64.318054
Nova Scotia,Sherlock Clothing Limited,"Halifax, NS B3S 0G4",1,Low Wage,6211,Retail sales supervisors,Unknown,1,44.6445308,-63.6677131
Nova Scotia,Sobeys Capital Incorporée,"Stellarton, NS B0K 1S0",1,Low Wage,6211,Retail sales supervisors,Unknown,1,45.5583249,-62.6623249
Nova Scotia,Sparkle Nails Inc,"Dartmouth, NS B2V 2J5",2,Low Wage,6562,"Estheticians, electrologists and related occupations",Unknown,1,44.671148,-63.501815
Nova Scotia,Spice Hub Indian Kitchen inc,"Dartmouth, NS B2W 3V4",2,Low Wage,6711,"Food counter attendants, kitchen helpers and related support occupations",Unknown,2,44.694354,-63.501807
Nova Scotia,Suedan Investments Limited,"Dartmouth, NS B2W 0G3",4,Low Wage,6341,Hairstylists and barbers,Unknown,4,44.679615,-63.503722
Nova Scotia,Sushifang INC.,"Newminas, NS B4N 4N1",1,Low Wage,6711,"Food counter attendants, kitchen helpers and related support occupations",Unknown,1,45.063673,-64.474668
Nova Scotia,Sydax Developments Ltd,"Halifax, NS B3S 1M7",1,Low Wage,6511,Maîtres d'hôtel and hosts/hostesses,Unknown,1,44.658902,-63.668831
Nova Scotia,Sydney Fresh Casual Restaurants Inc.,"Sydney, NS B1P 5S8",2,Low Wage,6311,Food service supervisors,Unknown,1,46.160936,-60.110492
Nova Scotia,The Pureland Health Ltd.,"Halifax, NS B3M 2K7",1,Low Wage,1243,Medical administrative assistants,Unknown,1,44.677953,-63.649769
Nova Scotia,TIAN PHAT ASIAN GROCERY INC,"Halifax, NS B3M 2J9",1,Low Wage,6211,Retail sales supervisors,Unknown,1,44.675214,-63.647526
Nova Scotia,Tom Chediac Furniture & Appliances Ltd,"New Glasgow, NS B2H 2J2",1,Low Wage,6421,Retail salespersons,Unknown,1,45.586005,-62.652921
Nova Scotia,TRIPLE A #3 CONVENIENCE STORE,"Halifax, NS B3H 2G6",2,Low Wage,6322,Cooks,Unknown,1,44.641465,-63.596035
Nova Scotia,Victoria Co-operative Fisheries Ltd.,"Neil's Harbour, NS B0C 1N0",31,Low Wage,9463,Fish and seafood plant workers,Unknown,1,46.762745,-60.343878
Nova Scotia,Waugh's River Buildings Inc.,"Waughs River, NS B0K 1V0",3,Low Wage,7611,Construction trades helpers and labourers,Unknown,1,45.6258697509766,-63.3626403808594
Nova Scotia,WEARWELL GARMENTS LIMITED,"Stellarton, NS B0K 1S0",1,Low Wage,9619,"Other labourers in processing, manufacturing and utilities",Unknown,1,45.5583249,-62.6623249
Nova Scotia,Woods Harbour Lobster Co. Ltd.,"Shelburne County, NS B0W 2E0",2,Low Wage,9463,Fish and seafood plant workers,Unknown,1,43.506113,-65.718791
Nova Scotia,YTR TRANSPORT INC.,"DARTMOUTH, NS B2X 1G6",3,Low Wage,7514,Delivery and courier service drivers,Unknown,1,44.685071,-63.532291
Nova Scotia,3115695 Nova Scotia Limited,"Rr#2 Centreville, NS B0P 1J0",6,Primary Agriculture,8431,General farm workers,Unknown,1,45.195976,-64.680474
Nova Scotia,Allen Farms Limited,"Billtown, NS B0P 1J0",48,Primary Agriculture,8431,General farm workers,Unknown,2,45.195976,-64.680474
Nova Scotia,Apple Lane Farm Inc,"Berwick, NS B0P 1E0",27,Primary Agriculture,8431,General farm workers,Unknown,2,45.090922,-64.823309
Nova Scotia,Atlantic Poultry Inc.,"Port Williams, NS B0P 1T0",6,Primary Agriculture,8431,General farm workers,Corporation,1,45.159695,-64.362715
Nova Scotia,Balamore Farm Ltd,"Great Village, NS B0M 1L0",164,Primary Agriculture,8431,General farm workers,Unknown,1,45.369405,-63.662186
Nova Scotia,"Basinview Farms,LTD.","Blomidon, NS B0P 1H0",12,Primary Agriculture,8431,General farm workers,Unknown,2,45.026806,-64.165254
Nova Scotia,Best Farms Ltd,"Woodville, NS B0P 1V0",4,Primary Agriculture,8431,General farm workers,Partnership,1,45.1708349,-64.7669826
Nova Scotia,Birchleigh Farms LTD.,"Berwick, NS B0P 1E0",11,Primary Agriculture,8431,General farm workers,Unknown,1,45.090922,-64.823309
Nova Scotia,Bloom Greenhouse and Garden Centre Ltd.,"Hammonds Plains, NS B4B 1P6",4,Primary Agriculture,8432,Nursery and greenhouse workers,Unknown,1,44.731435,-63.756573
Nova Scotia,Bragg Lumber Company,"Collingwood, NS B0M 1P0",1,Primary Agriculture,8252,"Agricultural service contractors, farm supervisors and specialized livestock workers",Unknown,1,45.810473,-63.849946
Nova Scotia,Bragg Lumber Company,"Collingwood, NS B0M 1P0",7,Primary Agriculture,8431,General farm workers,Unknown,1,45.810473,-63.849946
Nova Scotia,Canard Orchards Ltd,"Centreville, NS B0P 1J0",22,Primary Agriculture,8431,General farm workers,Unknown,1,45.195976,-64.680474
Nova Scotia,Centreville Orchards Limited,"Kentville, NS B4N 3V7",6,Primary Agriculture,8431,General farm workers,Unknown,1,45.067163,-64.547804
Nova Scotia,Charles Keddy Farms Limited,"Lakeville, NS B4N 3V7",32,Primary Agriculture,8431,General farm workers,Unknown,3,45.067163,-64.547804
Nova Scotia,Craig Nichols Farms Limited,"Aylesford, NS B0P 1C0",24,Primary Agriculture,8431,General farm workers,Unknown,1,45.066995,-64.800737
Nova Scotia,Crisp Growers Incorporated,"Berwick, NS B0P 1E0",14,Primary Agriculture,8431,General farm workers,Unknown,1,45.090922,-64.823309
Nova Scotia,D&M Lightfoot Farms,"Wolfvllle, NS B4P  2S",1,Primary Agriculture,8252,"Agricultural service contractors, farm supervisors and specialized livestock workers",Corporation,1,,
Nova Scotia,D&M Lightfoot Farms,"Wolfvllle, NS B4P  2S",6,Primary Agriculture,8431,General farm workers,Corporation,1,,
Nova Scotia,Dempsey Corner Orchards,"AYLESFORD  NS, NS B0P 1C0",2,Primary Agriculture,8431,General farm workers,Unknown,1,45.066995,-64.800737
Nova Scotia,Eco Ponds Organics,"Lockhartville, NS B0P 1P0",4,Primary Agriculture,8431,General farm workers,Unknown,1,45.067011,-64.174361
Nova Scotia,Eden Valley Poultry Incorporated,"Berwick, NS B0P 1E0",18,Primary Agriculture,8431,General farm workers,Unknown,1,45.090922,-64.823309
Nova Scotia,Eisses Farms Ltd,"Northville, NS B0P 1J0",18,Primary Agriculture,8611,Harvesting labourers,Unknown,1,45.195976,-64.680474
Nova Scotia,Elite Balsam Products Incorporated,"St. Andrew's, NS B0H 1X0",12,Primary Agriculture,8432,Nursery and greenhouse workers,Unknown,1,45.493148,-61.776903
Nova Scotia,Ellslea Farms Limited,"Canning, NS B0P 1H0",3,Primary Agriculture,8431,General farm workers,Unknown,1,45.026806,-64.165254
Nova Scotia,Elmridge Farm Ltd,"RR2 Centreville, NS B0P 1J0",12,Primary Agriculture,8431,General farm workers,Unknown,1,45.195976,-64.680474
Nova Scotia,Eyking Brothers Farm Ltd,"Millville, NS B1Y 2E2",27,Primary Agriculture,8431,General farm workers,Unknown,1,46.27095,-60.379651
Nova Scotia,Forest Glen Greenhouses Ltd.,"Brookfield, NS B0N 1C0",5,Primary Agriculture,8432,Nursery and greenhouse workers,Unknown,1,45.263092,-63.097746
Nova Scotia,Fox Harb'r Development,"Fox Harbour, NS B0K 1Y0",12,Primary Agriculture,8611,Harvesting labourers,Unknown,1,45.79188,-63.520605
Nova Scotia,Fuller Brothers Farm Inc.,"Avonport, NS B0P 1B0",4,Primary Agriculture,8431,General farm workers,Corporation,1,45.095693,-64.227973
Nova Scotia,G.A.R. Tree Farms Ltd,"Barss Corner, NS B0R 1A0",1,Primary Agriculture,8432,Nursery and greenhouse workers,Unknown,1,44.6241188049316,-64.6746444702148
Nova Scotia,Grand Pre Wines Ltd,"Grand Pre, NS B0P 1M0",4,Primary Agriculture,8431,General farm workers,Unknown,1,45.095031,-64.285653
Nova Scotia,High Point Orchards LTD.,"Kentville, NS B4N 3V7",12,Primary Agriculture,8611,Harvesting labourers,Unknown,1,45.067163,-64.547804
Nova Scotia,J & B Millen Farms Limited,"Great Village, NS B0M 1L0",45,Primary Agriculture,8431,General farm workers,Unknown,1,45.369405,-63.662186
Nova Scotia,JOST VINEYARDS LIMITED,"Malagash, NS B0K 1E0",8,Primary Agriculture,8431,General farm workers,Unknown,2,45.794472,-63.453043
Nova Scotia,Luckett Farms Ltd.,"Wolfville, NS B4P 2R3",4,Primary Agriculture,8431,General farm workers,Unknown,1,45.068884,-64.348807
Nova Scotia,M. KEDDY FARM & FOREST LTD.,"NEW ROSS, NS B0J 2M0",12,Primary Agriculture,8432,Nursery and greenhouse workers,Unknown,1,44.7657928466797,-64.4158172607422
Nova Scotia,Mahoney's Evergreens L.P.,"East Dalhousie, NS B0R 1H0",11,Primary Agriculture,8432,Nursery and greenhouse workers,Unknown,1,44.794246,-64.643897
Nova Scotia,McConnell-Gordon Estates Ltd.,"Wolfville, NS B4P 2R1",4,Primary Agriculture,8431,General farm workers,Unknown,1,45.013938,-64.403589
Nova Scotia,Merks Poultry Farm Limited,"Avonport, NS B0P 1B0",1,Primary Agriculture,8252,"Agricultural service contractors, farm supervisors and specialized livestock workers",Corporation,1,45.095693,-64.227973
Nova Scotia,Millen Farms Ltd,"Great Village, NS B0M 1L0",1,Primary Agriculture,8252,"Agricultural service contractors, farm supervisors and specialized livestock workers",Unknown,1,45.369405,-63.662186
Nova Scotia,Millen Farms Ltd,"Great Village, NS B0M 1L0",200,Primary Agriculture,8431,General farm workers,Unknown,2,45.369405,-63.662186
Nova Scotia,Oostdale Farm,"Antigonish, NS B2G 2E5",1,Primary Agriculture,8252,"Agricultural service contractors, farm supervisors and specialized livestock workers",Unknown,1,45.609336,-61.984657
Nova Scotia,Power Farms Inc.,"Canning, NS B0P 1H0",36,Primary Agriculture,8431,General farm workers,Unknown,1,45.026806,-64.165254
Nova Scotia,Randsland Farms Inc,"Canning, NS B0P 1H0",20,Primary Agriculture,8431,General farm workers,Unknown,2,45.026806,-64.165254
Nova Scotia,Reimer Gardens Inc.,"Waterville, NS B0P 1V0",42,Primary Agriculture,8431,General farm workers,Corporation,1,45.1708349,-64.7669826
Nova Scotia,Sarsfield Farms Incorporated,"Kentville, NS B4N 3V7",12,Primary Agriculture,8431,General farm workers,Unknown,1,45.067163,-64.547804
Nova Scotia,Spurr Brothers Farms Ltd,"Melvern Square, NS B0P 1R0",13,Primary Agriculture,8431,General farm workers,Unknown,2,45.074551,-64.720682
Nova Scotia,Stirling Fruit Farms (2000) Ltd,"Greenwich, NS B4P 2R2",86,Primary Agriculture,8431,General farm workers,Unknown,6,44.997527,-64.451876
Nova Scotia,Stirlings Mountainside Farms 2017 Ltd,"Centreville, NS B0P 1J0",36,Primary Agriculture,8431,General farm workers,Unknown,1,45.195976,-64.680474
Nova Scotia,Stokdijk Greenhouses Ltd,"Beaver Brook, NS B6L 1H3",10,Primary Agriculture,8431,General farm workers,Unknown,1,45.3226595,-63.410474
Nova Scotia,TapRoot Farms Inc.,"Port Williams, NS B0P 1T0",16,Primary Agriculture,8431,General farm workers,Unknown,1,45.159695,-64.362715
Nova Scotia,TapRoot Farms Inc.,"Port Williams, NS B0P 1T0",2,Primary Agriculture,8611,Harvesting labourers,Unknown,1,45.159695,-64.362715
Nova Scotia,Town Plot Orchards Ltd,"Port Williams, NS B0P 1T0",14,Primary Agriculture,8431,General farm workers,Corporation,2,45.159695,-64.362715
Nova Scotia,Van Meekeren Farms Ltd.,"Lakeville, NS B4N 3V7",44,Primary Agriculture,8431,General farm workers,Unknown,2,45.067163,-64.547804
Nova Scotia,Vital Berry Farms,"Sheffield Mills, NS B0P 1J0",66,Primary Agriculture,8431,General farm workers,Unknown,1,45.195976,-64.680474
Nova Scotia,Walsh Farms Inc,"ROCKLAND, NS B0P 1E0",8,Primary Agriculture,8431,General farm workers,Corporation,1,45.090922,-64.823309
Nova Scotia,Wohlgemuth Farms Ltd.,"Aylesford, NS B0P 1C0",72,Primary Agriculture,8431,General farm workers,Unknown,1,45.066995,-64.800737
Nova Scotia,Eyeread Inc.,"Lake Loon, NS B2W 3V5",1,Global Talent Stream,2174,Computer programmers and interactive media developers,Unknown,1,44.69959,-63.494556
Nova Scotia,Marine Thinking Inc.,"Halifax, NS B3J 3K5",1,Global Talent Stream,2132,Mechanical engineers,Unknown,1,44.644489,-63.572554
Nova Scotia,REDspace Inc.,"Bedford, NS B4A 3Y4",1,Global Talent Stream,2174,Computer programmers and interactive media developers,Corporation,1,44.733105,-63.655979
Nova Scotia,10656330 Canada Inc.,"Bedford, NS B4B 1G7",1,Permanent Resident Only,0111,Financial managers,Unknown,1,44.725286,-63.707864
Nova Scotia,3265654 Nova Scotia Ltd.,"Wolfville, NS B4P 1E3",1,Permanent Resident Only,6311,Food service supervisors,Unknown,1,45.091732,-64.359871
Nova Scotia,4328467 Nova Scotia Limited,"Dartmouth, NS B2Y 3W2",1,Permanent Resident Only,6211,Retail sales supervisors,Unknown,1,44.666591,-63.542971
Nova Scotia,T AND T HOLDINGS LIMITEDS,"GREENWOOD, NS B0P 1N0",1,Permanent Resident Only,6311,Food service supervisors,Unknown,1,44.993606,-64.970043
New Brunswick,12200601 CANADA INC,"SAINT JOHN, NB E2L 3S5",1,High Wage,1221,Administrative officers,Unknown,1,45.2796294,-66.0535307
New Brunswick,12200601 CANADA INC,"SAINT JOHN, NB E2L 3S5",1,High Wage,1311,Accounting technicians and bookkeepers,Unknown,1,45.2796294,-66.0535307
New Brunswick,672199 N.B. LTD.,"Miramichi, NB E1N 4B8",1,High Wage,3114,Veterinarians,Unknown,1,47.010297,-65.533928
New Brunswick,707205 N.B. LTD.,"Saint John, NB E2J 3W9",1,High Wage,2282,User support technicians,Unknown,1,45.310191,-66.015935
New Brunswick,734187 NEW BRUNSWICK INC,"Moncton, NB E1E 2G7",1,High Wage,1123,"Professional occupations in advertising, marketing and public relations",Unknown,1,46.090155,-64.807585
New Brunswick,734198 NEW BRUNSWICK INC.,"Moncton, NB E1C 1Y3",1,High Wage,2174,Computer programmers and interactive media developers,Unknown,1,46.08881,-64.793963
New Brunswick,735533 N.B. LTD.,"grand falls, NB E3Z 2J6",1,High Wage,0631,Restaurant and food service managers,Unknown,1,47.049084,-67.736316
New Brunswick,735533 N.B. LTD.,"grand falls, NB E3Z 2J6",2,High Wage,6311,Food service supervisors,Unknown,1,47.049084,-67.736316
New Brunswick,A-1 Paving Inc.,"Fredericton, NB E3B 8P4",1,High Wage,7611,Construction trades helpers and labourers,Unknown,1,45.919542,-66.59722
New Brunswick,Atlantic Cell Phone Repair LTD,"Moncton, NB E1C 1W8",1,High Wage,2242,Electronic service technicians (household and business equipment),Unknown,1,46.090089,-64.787896
New Brunswick,Beacon Light Motel Limited,"Moncton, NB E1C 2T1",1,High Wage,6313,"Accommodation, travel, tourism and related services supervisors",Unknown,1,46.104322,-64.819129
New Brunswick,Birch Hill Construction Ltd.,"Moncton, NB E1C 9T2",8,High Wage,7611,Construction trades helpers and labourers,Unknown,1,46.0956837,-64.8116141
New Brunswick,Bistro Rasoi Inc.,"Moncton, NB E1C 0B6",2,High Wage,6711,"Food counter attendants, kitchen helpers and related support occupations",Unknown,1,46.104199,-64.814389
New Brunswick,DWARKA CIVIL CONSTRUCTION MANAGEMENT LIMITED,"SAINT JOHN, NB E2J 1C7",1,High Wage,2131,Civil engineers,Unknown,1,45.282456,-66.035508
New Brunswick,Freight Chain Inc,"ST-HILAIRE, NB E3V 4W7",3,High Wage,7511,Transport truck drivers,Unknown,1,47.3522834777832,-68.394905090332
New Brunswick,Happy Club Inc.,"Edmundston, NB E3V 2L4",1,High Wage,1311,Accounting technicians and bookkeepers,Unknown,1,47.369544,-68.32233
New Brunswick,"Jolly Farmer Transport, Inc.","Northampton, NB E7N 1R6",2,High Wage,7511,Transport truck drivers,Unknown,1,46.053925,-67.549314
New Brunswick,Keenan Truck Repair Inc,"Woodstock, NB E7M 4G2",4,High Wage,7321,"Automotive service technicians, truck and bus mechanics and mechanical repairers",Unknown,1,46.123818,-67.616701
New Brunswick,Modular Fabrication Inc,"Miramichi, NB E1N 6K6",6,High Wage,7235,Structural metal and platework fabricators and fitters,Unknown,1,47.014242,-65.446656
New Brunswick,Modular Fabrication Inc,"Miramichi, NB E1N 6K6",8,High Wage,7237,Welders and related machine operators,Unknown,1,47.014242,-65.446656
New Brunswick,Murray Enterprises Ltd.,"Sussex Corner, NB E4E 2Y5",2,High Wage,7511,Transport truck drivers,Unknown,1,45.7100729,-65.4774611
New Brunswick,PETER LAI PROFESSIONAL SERVICES INC.,"SAINT JOHN, NB E2K 4J4",1,High Wage,1221,Administrative officers,Unknown,1,45.297954,-66.084638
New Brunswick,PLG Builders Ltd.,"Moncton, NB E1E 2K7",8,High Wage,7611,Construction trades helpers and labourers,Unknown,1,46.073732,-64.833839
New Brunswick,The Pink Spa Inc.,"Moncton, NB E1C 2T9",2,High Wage,6562,"Estheticians, electrologists and related occupations",Unknown,1,46.108404,-64.827252
New Brunswick,058639 NB Ltd.,"Sussex, NB E4E 2M5",2,Low Wage,6322,Cooks,Unknown,2,45.7207674,-65.5009129
New Brunswick,1919599 Ontario Limited,"St John, NB E2J 0J2",1,Low Wage,0631,Restaurant and food service managers,Unknown,1,45.260046,-65.9522479
New Brunswick,1919600 Ontario Limited,"Fredericton, NB E3B 3X8",1,Low Wage,0631,Restaurant and food service managers,Unknown,1,45.93807,-66.65866
New Brunswick,1919600 Ontario Limited,"Fredericton, NB E3B 3X8",1,Low Wage,6311,Food service supervisors,Unknown,1,45.93807,-66.65866
New Brunswick,3335302 Nova Scotia Limited oa Cora's,"Moncton, NB E1C 1E4",1,Low Wage,6322,Cooks,Unknown,1,46.088929,-64.775636
New Brunswick,651738 N.B. Ltd.,"Miramichi, NB E1V 6W9",2,Low Wage,6322,Cooks,Unknown,1,47.034991,-65.483168
New Brunswick,658591 NB Corp,"Lower Norton, NB E5N 7S8",2,Low Wage,7611,Construction trades helpers and labourers,Unknown,1,45.55265,-65.83927
New Brunswick,658711 NB LTD.,"Miramichi, NB E1V 1X4",2,Low Wage,6525,Hotel front desk clerks,Unknown,1,47.002659,-65.565487
New Brunswick,666194NB Inc.,"Bathurst, NB E2A 1S8",1,Low Wage,6322,Cooks,Unknown,1,47.606532,-65.652786
New Brunswick,671743 NB Inc.,"Richibucto Village, NB E4W 1G2",18,Low Wage,9463,Fish and seafood plant workers,Unknown,1,46.649407,-64.884185
New Brunswick,685988 NB LTEE,"Tracadie, NB E1X 1B1",2,Low Wage,3413,"Nurse aides, orderlies and patient service associates",Unknown,1,47.509336,-64.919844
New Brunswick,690944 NB INC.,"MONCTON, NB E1C 1G1",2,Low Wage,6322,Cooks,Unknown,2,46.088252,-64.778773
New Brunswick,696496 N.B. INC.,"MONCTON, NB E1C 0K1",1,Low Wage,6711,"Food counter attendants, kitchen helpers and related support occupations",Unknown,1,46.0883023,-64.772797
New Brunswick,697230 NB Inc.,"Caraquet, NB E1W 1B6",2,Low Wage,6525,Hotel front desk clerks,Unknown,2,47.792901,-64.941791
New Brunswick,698075 NB Ltd.,"Shediac, NB E4P 2G1",1,Low Wage,6211,Retail sales supervisors,Unknown,1,46.2193411,-64.5414378
New Brunswick,700827 NB Inc.,"Fredericton, NB E3B 1B2",2,Low Wage,6322,Cooks,Unknown,2,45.962829,-66.642999
New Brunswick,702586 NB Inc.,"Quarryville, NB E9E 2J6",2,Low Wage,3413,"Nurse aides, orderlies and patient service associates",Unknown,1,46.831226348877,-65.7873306274414
New Brunswick,710177 NB Inc.,"Moncton, NB E1E 1H7",1,Low Wage,6711,"Food counter attendants, kitchen helpers and related support occupations",Unknown,1,46.0762,-64.801901
New Brunswick,722137 N.B. LTD.,"Moncton, NB E1C 1X5",1,Low Wage,6322,Cooks,Unknown,1,46.089515,-64.790816
New Brunswick,723018 NB INC.,"Dieppe, NB E1A 9G5",1,Low Wage,6322,Cooks,Unknown,1,46.079715,-64.7217899
New Brunswick,724096 NB INC,"Fredericton, NB E3B 3Z2",1,Low Wage,6311,Food service supervisors,Unknown,1,45.9417081,-66.655582
New Brunswick,726571 NB Ltd.,"Moncton, NB E1G 1A8",1,Low Wage,6322,Cooks,Unknown,1,46.121625,-64.847806
New Brunswick,735533 N.B. LTD.,"grand falls, NB E3Z 2J6",1,Low Wage,6322,Cooks,Unknown,1,47.049084,-67.736316
New Brunswick,735533 N.B. LTD.,"grand falls, NB E3Z 2J6",2,Low Wage,6513,Food and beverage servers,Unknown,1,47.049084,-67.736316
New Brunswick,735881 NB Inc.,"Trois-Ruisseaux, NB E4N 2V7",30,Low Wage,9463,Fish and seafood plant workers,Unknown,1,46.223835,-64.538469
New Brunswick,739492 NB Inc.,"Moncton, NB E1A 8R5",1,Low Wage,6311,Food service supervisors,Unknown,1,46.115071,-64.773157
New Brunswick,739492 NB Inc.,"Moncton, NB E1A 8R5",2,Low Wage,6322,Cooks,Unknown,1,46.115071,-64.773157
New Brunswick,739492 NB Inc.,"Moncton, NB E1A 8R5",1,Low Wage,6513,Food and beverage servers,Unknown,1,46.115071,-64.773157
New Brunswick,739492 NB Inc.,"Moncton, NB E1A 8R5",1,Low Wage,6711,"Food counter attendants, kitchen helpers and related support occupations",Unknown,1,46.115071,-64.773157
New Brunswick,AAA INN MOTEL INC.,"Fredericton, NB E3B 8C8",1,Low Wage,1311,Accounting technicians and bookkeepers,Unknown,1,45.921189,-66.599026
New Brunswick,A-Tech Roofing Ltd,"Dieppe, NB E1A 5M1",10,Low Wage,7611,Construction trades helpers and labourers,Unknown,1,46.104684,-64.724565
New Brunswick,ATLANTIC TRIOS FOODS INC,"MONCTON, NB E1C 2T4",1,Low Wage,1311,Accounting technicians and bookkeepers,Unknown,1,46.105868,-64.822183
New Brunswick,B.A.Richard Ltée,"Sainte-Anne-de-Kent, NB E4S 1M6",84,Low Wage,9463,Fish and seafood plant workers,Unknown,1,46.574238,-64.728117
New Brunswick,Beausejour Peat Moss Inc.,"Grand-Barachois, NB E4P 8V1",5,Low Wage,9619,"Other labourers in processing, manufacturing and utilities",Unknown,1,46.075293,-64.80488
New Brunswick,BKR Management Inc.,"Woodstock, NB E7M 5G5",2,Low Wage,6711,"Food counter attendants, kitchen helpers and related support occupations",Unknown,1,46.165002,-67.595162
New Brunswick,C&A Toner Ltd,"Grand Falls, NB E3Z 2W1",5,Low Wage,6311,Food service supervisors,Unknown,2,47.0454504,-67.7448011
New Brunswick,C&A Toner Ltd,"Grand Falls, NB E3Z 2W1",3,Low Wage,6711,"Food counter attendants, kitchen helpers and related support occupations",Unknown,1,47.0454504,-67.7448011
New Brunswick,Camille Leger Limited,"Cormier-Village, NB E4P 5X2",4,Low Wage,7611,Construction trades helpers and labourers,Unknown,1,46.1710314,-64.3524061
New Brunswick,Cape Bald Packers Ltd,"Cap-Pelé, NB E4N 1E3",211,Low Wage,9463,Fish and seafood plant workers,Unknown,3,46.2167287,-64.283788
New Brunswick,Cape Bald Packers Ltd,"Cap-Pelé, NB E4N 1E3",3,Low Wage,9465,"Testers and graders, food, beverage and associated products processing",Unknown,1,46.2167287,-64.283788
New Brunswick,Cape Bald Packers Ltd,"Cap-Pelé, NB E4N 1E3",33,Low Wage,9618,Labourers in fish and seafood processing,Unknown,1,46.2167287,-64.283788
New Brunswick,Captain Dan's Inc.,"Richibouctou-Village, NB E4W 1C9",81,Low Wage,9463,Fish and seafood plant workers,Unknown,3,46.660031,-64.709287
New Brunswick,Captain Dan's Inc.,"Richibouctou-Village, NB E4W 1C9",4,Low Wage,9465,"Testers and graders, food, beverage and associated products processing",Unknown,1,46.660031,-64.709287
New Brunswick,Captain Dan's Inc.,"Richibouctou-Village, NB E4W 1C9",4,Low Wage,9618,Labourers in fish and seafood processing,Unknown,1,46.660031,-64.709287
New Brunswick,Caraquet Pizza Inc.,"Caraquet, NB E1W 1B8",1,Low Wage,6322,Cooks,Unknown,1,47.794691,-64.93641
New Brunswick,China Wok Inc.,"Quispamsis, NB E2E 4L8",1,Low Wage,6322,Cooks,Unknown,1,45.4057238,-65.9688477
New Brunswick,ck investments inc.,"Bouctouche, NB E4S 3L5",2,Low Wage,6322,Cooks,Unknown,1,46.4700594,-64.7243598
New Brunswick,CNJ Enterprises Ltd,"Moncton, NB E1A 8W6",1,Low Wage,6421,Retail salespersons,Unknown,1,46.057558,-64.657176
New Brunswick,Colt Structures LTD,"NACKAWIC, NB E6G 1W3",1,Low Wage,7271,Carpenters,Unknown,1,46.007443,-67.2292883
New Brunswick,Connors Bros. Division of Clover Leaf Seafoods Corp.,"Blacks Harbour, NB E5H 1G6",13,Low Wage,9463,Fish and seafood plant workers,Unknown,1,45.0552584,-66.7934511
New Brunswick,Connors Bros. Division of Clover Leaf Seafoods Corp.,"Blacks Harbour, NB E5H 1G6",12,Low Wage,9618,Labourers in fish and seafood processing,Unknown,1,45.0552584,-66.7934511
New Brunswick,D & H Warren Holdings Inc.,"Rexton, NB E4W 2B3",1,Low Wage,1521,Shippers and receivers,Unknown,1,46.64722,-64.87539
New Brunswick,D & H Warren Holdings Inc.,"Rexton, NB E4W 2B3",2,Low Wage,6421,Retail salespersons,Unknown,1,46.64722,-64.87539
New Brunswick,D & N Metals Co. Ltd.,"Grand-Falls, NB E3Z 1K3",1,Low Wage,7312,Heavy,Unknown,1,47.050248,-67.758166
New Brunswick,D & N Metals Co. Ltd.,"Grand-Falls, NB E3Z 1K3",1,Low Wage,9612,Labourers in metal fabrication,Unknown,1,47.050248,-67.758166
New Brunswick,DJ Marine Supplies Ltee,"Pointe-Sapin, NB E9A 1T4",1,Low Wage,9619,"Other labourers in processing, manufacturing and utilities",Unknown,1,47.0270462036133,-65.0327301025391
New Brunswick,DM Ouellette Resto Inc.,"Grand Sault, NB E3Y 1A3",1,Low Wage,6322,Cooks,Unknown,1,47.05382,-67.74432
New Brunswick,Do Nguyen Restaurant,"Bathurst, NB E2A 2Z3",2,Low Wage,6322,Cooks,Unknown,1,47.634555,-65.672812
New Brunswick,DR. AVIVA FLIKER MEDICINE PROFESSIONAL CORPORATION,"Bathurst, NB E2A 4Z9",1,Low Wage,6731,Light duty cleaners,Unknown,1,47.636618,-65.678069
New Brunswick,Edmond Gagnon Ltd,"Grand-Barachois, NB E4P 8A4",140,Low Wage,9463,Fish and seafood plant workers,Unknown,1,46.222988,-64.422449
New Brunswick,Elmwood Burgers Ltd,"Moncton, NB E1A 3P5",1,Low Wage,6311,Food service supervisors,Unknown,1,46.12098,-64.767876
New Brunswick,FMI Atlantic Inc.,"Woodstock, NB E7M 5G5",4,Low Wage,0631,Restaurant and food service managers,Unknown,4,46.165002,-67.595162
New Brunswick,FMI Atlantic Inc.,"Woodstock, NB E7M 5G5",11,Low Wage,6311,Food service supervisors,Unknown,10,46.165002,-67.595162
New Brunswick,FMI Atlantic Inc.,"Woodstock, NB E7M 5G5",5,Low Wage,6711,"Food counter attendants, kitchen helpers and related support occupations",Unknown,4,46.165002,-67.595162
New Brunswick,Formco concrete Foundations LTD,"GRAND BARACHOIS, NB E4P 8A2",5,Low Wage,7611,Construction trades helpers and labourers,Unknown,1,46.223007,-64.422449
New Brunswick,Fred's Bakery (2007) Ltd.,"Cap-Pele, NB E4N 1C9",1,Low Wage,6711,"Food counter attendants, kitchen helpers and related support occupations",Unknown,1,46.215877,-64.289959
New Brunswick,Fresh Casual Restaurants Inc. Dieppe,"Dieppe, NB E1A 1N3",5,Low Wage,6711,"Food counter attendants, kitchen helpers and related support occupations",Unknown,2,46.09418,-64.755388
New Brunswick,FUNDY GYMNASTICS CLUB INC.,"QUISPAMSIS, NB E2G 0A4",1,Low Wage,5252,Coaches,Unknown,1,45.428488,-65.949276
New Brunswick,FundyPros Specialty Construction,"Dieppe, NB E1A 8K2",10,Low Wage,7611,Construction trades helpers and labourers,Unknown,1,46.101423,-64.701714
New Brunswick,G.L. Sawmill Ltd.,"Haute-Aboujagane, NB E4P 5P4",3,Low Wage,9533,Other wood products assemblers and inspectors,Unknown,1,46.203891,-64.422516
New Brunswick,Gaston's Catering (2008) Inc.,"Moncton, NB E1E 4C6",3,Low Wage,6322,Cooks,Unknown,2,46.08544,-64.83905
New Brunswick,GJ2 LC1 FOOD SERVICES .INC,"Fredericton, NB E3B 3C1",1,Low Wage,6311,Food service supervisors,Unknown,1,45.939534,-66.662382
New Brunswick,GJ2 LC1 FOOD SERVICES .INC,"Fredericton, NB E3B 3C1",1,Low Wage,6711,"Food counter attendants, kitchen helpers and related support occupations",Unknown,1,45.939534,-66.662382
New Brunswick,Go-Go Group Inc.,"Fredericton, NB E3A 0H2",1,Low Wage,4214,Early childhood educators and assistants,Unknown,1,45.9848441,-66.6239098
New Brunswick,HENNESSY'S PUB INC,"Miramichi, NB E1V 2S6",2,Low Wage,6322,Cooks,Unknown,1,46.997926,-65.565381
New Brunswick,High Tower Ltd,"Dieppe, NB E1A 7L2",3,Low Wage,6732,Specialized cleaners,Unknown,1,46.0401679,-64.6901257
New Brunswick,Home Alone Pizza Inc.,"Sackville, NB E4L 4A7",2,Low Wage,6322,Cooks,Unknown,1,45.894678,-64.370788
New Brunswick,Indian Street Eats By Ushna Inc.,"MONCTON, NB E1C 2T4",3,Low Wage,6322,Cooks,Unknown,1,46.105868,-64.822183
New Brunswick,JAY AMBE MA INVESTMENTS INC.,"Moncton, NB E1C 2J2",1,Low Wage,1311,Accounting technicians and bookkeepers,Unknown,1,46.092841,-64.794664
New Brunswick,K.U.Saffron Indian Foods Inc,"Fredericton, NB E3A 1C6",1,Low Wage,6322,Cooks,Unknown,1,45.979936,-66.657473
New Brunswick,Kingsway Restaurant Inc.,"Miramichi, NB E1V 1L5",1,Low Wage,6322,Cooks,Unknown,1,46.993139,-65.572987
New Brunswick,L`ASSOCIATION COOPÉRATIVE DES PECHEURS DE L`ILE LTEE - ISLAND FISHERMEN'S COOPERATIVE ASSOCIATION LT,"LAMEQUE, NB E8T 1M8",105,Low Wage,9463,Fish and seafood plant workers,Unknown,1,47.7932426,-64.6524579
New Brunswick,LA BONNE ROUTE (1993) INC.,"Lavillette, NB E9G 2R4",1,Low Wage,6711,"Food counter attendants, kitchen helpers and related support occupations",Unknown,1,47.379562,-64.982314
New Brunswick,La Scierie Cap-Pelé Sawmill Ltd/Ltée,"Shemogue, NB E4N 2P9",14,Low Wage,9533,Other wood products assemblers and inspectors,Unknown,1,46.217394,-64.561716
New Brunswick,Lancor Concrete Contractors,"Scoudouc, NB E4P 0H7",12,Low Wage,7611,Construction trades helpers and labourers,Unknown,1,46.1655378,-64.4414999
New Brunswick,LOLI Cafe & Lounge Inc.,"Moncton, NB E1C 1L7",1,Low Wage,6512,Bartenders,Unknown,1,46.088963,-64.783418
New Brunswick,Lucia’s Cuisine Inc,"Bathurst, NB E2A 1A6",1,Low Wage,6322,Cooks,Unknown,1,47.6203219,-65.6571454
New Brunswick,Mama Supermarket Ltd,"Moncton, NB E1C 2N6",1,Low Wage,6622,"Store shelf stockers, clerks and order fillers",Unknown,1,46.09797,-64.797568
New Brunswick,MANAWA HOLDINGS LTD. O/a Tim Hortons,"Bathurst, NB E2A 4P4",1,Low Wage,6711,"Food counter attendants, kitchen helpers and related support occupations",Unknown,1,47.638411,-65.673938
New Brunswick,Mario Richard Roofing LTD,"Saint Antoine, NB E4V 1K3",4,Low Wage,7611,Construction trades helpers and labourers,Unknown,1,46.3724075,-64.7576635
New Brunswick,Marwood Ltd,"Tracyville, NB E5L 1N7",10,Low Wage,9614,"Labourers in wood, pulp and paper processing",Unknown,1,45.529613,-66.650908
New Brunswick,McCulloughs Properties Inc.,"Saint Andrews, NB E5B 1S2",1,Low Wage,6611,Cashiers,Unknown,1,45.08024,-67.05817
New Brunswick,McGraw Seafood (2008) Inc.,"Tracadie, NB E1X 1A2",35,Low Wage,9463,Fish and seafood plant workers,Unknown,1,47.545259,-64.915615
New Brunswick,MJ Construction & Renovation Inc,"St-Thomas-de-Kent, NB E4S 4Z7",1,Low Wage,7611,Construction trades helpers and labourers,Unknown,1,46.3210296630859,-67.6312103271484
New Brunswick,Moncton Fresh Casual Restaurants Inc.,"Moncton, NB E1G 1A8",2,Low Wage,6311,Food service supervisors,Unknown,1,46.121625,-64.847806
New Brunswick,Moncton Fresh Casual Restaurants Inc.,"Moncton, NB E1G 1A8",2,Low Wage,6711,"Food counter attendants, kitchen helpers and related support occupations",Unknown,1,46.121625,-64.847806
New Brunswick,Murphy QSR Ltd.,"Saint John, NB E2L 1G4",5,Low Wage,6311,Food service supervisors,Unknown,2,45.273168,-66.060486
New Brunswick,Murphy Restaurants Ltd.,"Saint John, NB E2L 1G4",8,Low Wage,0631,Restaurant and food service managers,Unknown,8,45.273168,-66.060486
New Brunswick,Murphy Restaurants Ltd.,"Saint John, NB E2L 1G4",31,Low Wage,6311,Food service supervisors,Unknown,8,45.273168,-66.060486
New Brunswick,Nam & Rim Inc.,"St. George, NB E5C 1A9",1,Low Wage,6322,Cooks,Unknown,1,45.13017,-66.8409
New Brunswick,"OPC Canada, Inc.","Centreville, NB E7K 2M4",4,Low Wage,9461,"Process control and machine operators, food, beverage and associated products processing",Unknown,1,46.431546,-67.708827
New Brunswick,PÊCHERIES BELLE-ILE FISHERIES LTEE LTD,"Sainte-Marie-Sainte-Raphael, NB E8T 1T4",48,Low Wage,9463,Fish and seafood plant workers,Unknown,1,47.780396,-64.567294
New Brunswick,Perfection Sheet Metal Inc.,"Grande-Digue, NB E4R 5L1",2,Low Wage,9416,Metalworking and forging machine operators,Unknown,1,46.3105457,-64.5320432
New Brunswick,Pine Acres Moncton LTD,"Moncton, NB E1H 0A5",1,Low Wage,6421,Retail salespersons,Unknown,1,46.163768,-64.798219
New Brunswick,PJ Atlantic Restaurants (Fred-South) Ltd.,"Lower Coverdale, NB E1J 1J8",1,Low Wage,6711,"Food counter attendants, kitchen helpers and related support occupations",Unknown,1,46.026215,-64.705925
New Brunswick,Poissonnerie Arseneau Ltée,"Nigadoo, NB E8K 3S8",33,Low Wage,9463,Fish and seafood plant workers,Unknown,1,47.744506,-65.70978
New Brunswick,Red Satay Dieppe Inc.,"Dieppe, NB E1A 9G5",1,Low Wage,6711,"Food counter attendants, kitchen helpers and related support occupations",Unknown,1,46.079715,-64.7217899
New Brunswick,Restaurant Nectar,"Bathurst, NB E2A 7S6",1,Low Wage,6322,Cooks,Unknown,1,47.619794,-65.656734
New Brunswick,Restaurant Nectar,"Bathurst, NB E2A 7S6",1,Low Wage,6513,Food and beverage servers,Unknown,1,47.619794,-65.656734
New Brunswick,Restaurant Nectar,"Bathurst, NB E2A 7S6",1,Low Wage,6711,"Food counter attendants, kitchen helpers and related support occupations",Unknown,1,47.619794,-65.656734
New Brunswick,Royalty Cabinets Inc.,"Moncton, NB E1E 0J1",3,Low Wage,7441,Residential and commercial installers and servicers,Unknown,1,46.079107,-64.818243
New Brunswick,Seacoast Fishing Supplies Ltd,"Grand-Barachois, NB E4P 6Z8",5,Low Wage,9533,Other wood products assemblers and inspectors,Unknown,1,46.211837,-64.377775
New Brunswick,Seaside Landscaping Ltd,"Cormier Village, NB E4P 5W1",5,Low Wage,8612,Landscaping and grounds maintenance labourers,Unknown,1,46.170973,-64.352399
New Brunswick,Shediac Lobster Shop Ltd.,"Shediac, NB E4P 2A6",115,Low Wage,9463,Fish and seafood plant workers,Unknown,1,46.21997,-64.53642
New Brunswick,Shippagan Pizza Inc.,"Shippagan, NB E8S 1N6",1,Low Wage,6322,Cooks,Unknown,1,47.743243,-64.730745
New Brunswick,SLBG QUISPAM HOLDINGS INC.,"Quispamsis, NB E2E 4Y7",6,Low Wage,6322,Cooks,Unknown,1,45.404262,-65.971276
New Brunswick,South East Aquaculture Sud-Est inc,"Cocagne, NB E4R 3K7",10,Low Wage,9463,Fish and seafood plant workers,Unknown,1,46.4104787,-64.6211356
New Brunswick,South Shore Trading Co. Ltd.,"Port Elgin, NB E4M 3Y9",2,Low Wage,9463,Fish and seafood plant workers,Unknown,1,46.050788,-64.088216
New Brunswick,St-Paul Fisheries (1989) Ltd Pêcheries St-Paul (1989) Ltée,"Caraquet, NB E1W 1B7",49,Low Wage,9463,Fish and seafood plant workers,Unknown,1,47.789897,-64.919572
New Brunswick,SUN'S CONVENIENCE LTD.,"BEAVER DAM, NB E3B 7T9",1,Low Wage,6211,Retail sales supervisors,Unknown,1,45.7967042,-66.6972557
New Brunswick,THAI MANAO INC,"FREDERICTON, NB E3C 0B8",1,Low Wage,6322,Cooks,Unknown,1,45.9295417,-66.6645196
New Brunswick,Tim Dunn Pharmacy Ltd.,"Moncton, NB E1C 2P4",1,Low Wage,3414,Other assisting occupations in support of health services,Unknown,1,46.098804,-64.801837
New Brunswick,Tracadie Pizza Inc.,"Tracadie-Sheila,, NB E1X 1G5",1,Low Wage,6322,Cooks,Unknown,1,47.458101,-64.913943
New Brunswick,Vito's Pizzeria Food Production Ltd.,"Moncton, NB E1C 2P8",1,Low Wage,6322,Cooks,Unknown,1,46.099265,-64.804206
New Brunswick,Westmorland Fisheries Ltd.,"Cap-Pele, NB E4N 1V3",220,Low Wage,9463,Fish and seafood plant workers,Unknown,2,46.181127,-64.210248
New Brunswick,Wing'n It Moncton Inc.,"Moncton, NB E1H 2G9",1,Low Wage,6322,Cooks,Unknown,1,46.126746,-64.770622
New Brunswick,Yanakee Restaurant Ltd,"Moncton, NB E1A 6V2",1,Low Wage,6322,Cooks,Unknown,1,46.11375,-64.773581
New Brunswick,Atoca NB Inc.,"Richibouctou-Village, NB E4W 1G5",8,Primary Agriculture,8611,Harvesting labourers,Unknown,1,46.640219,-64.763183
New Brunswick,Érablière Le SiRoytier inc,"Saint-Quentin, NB E8A 2E2",4,Primary Agriculture,8431,General farm workers,Corporation,1,47.644185,-67.343552
New Brunswick,Hanscome Farms Ltd,"Perth-Andover, NB E7H 4K4",6,Primary Agriculture,8431,General farm workers,Unknown,1,46.741202,-67.705749
New Brunswick,Irishview Apple Management Ltd,"Irishtown, NB E1H 2L8",18,Primary Agriculture,8431,General farm workers,Unknown,1,46.137698,-64.787448
New Brunswick,"J.D. Irving, Limited - Woodlands Division","Saint John, NB E2L 4Z2",10,Primary Agriculture,8432,Nursery and greenhouse workers,Unknown,1,45.275652,-66.055638
New Brunswick,"Jolly Farmer Products, Inc.","Northampton, NB E7N 1R6",55,Primary Agriculture,8432,Nursery and greenhouse workers,Unknown,4,46.053925,-67.549314
New Brunswick,Les Fermes GAM Michaud Farms,"Saint-André, NB E3Y 2X9",6,Primary Agriculture,8431,General farm workers,Unknown,2,47.101475,-67.71015
New Brunswick,Les Petits Fruits de Pré-d'en-Haut Inc.,"Memramcook, NB E4K 1K8",25,Primary Agriculture,8431,General farm workers,Unknown,1,45.968083,-64.605089
New Brunswick,M&S Wild Blueberry Farms Ltd.,"Kouchibouguac, NB E4X 1L7",1,Primary Agriculture,8252,"Agricultural service contractors, farm supervisors and specialized livestock workers",Unknown,1,46.7804571,-65.0902361
New Brunswick,M&S Wild Blueberry Farms Ltd.,"Kouchibouguac, NB E4X 1L7",1,Primary Agriculture,8431,General farm workers,Unknown,1,46.7804571,-65.0902361
New Brunswick,Meunerie Nord-Est(1990) Limitee,"Penobsquis, NB E4G 2Z4",2,Primary Agriculture,8252,"Agricultural service contractors, farm supervisors and specialized livestock workers",Unknown,1,45.796334,-65.26883
New Brunswick,Royal Gardens 2012 Ltd.,"Penobsquis, NB E4G 2C5",96,Primary Agriculture,8432,Nursery and greenhouse workers,Unknown,1,45.77192,-65.39275
New Brunswick,Slocum's Farm Fresh Produce Ltd.,"Waterborough, NB E4C 2Y3",5,Primary Agriculture,8431,General farm workers,Unknown,1,45.92795,-65.98819
New Brunswick,Tuddenham Farms Ltd,"St. Stephen, NB E3L 2X1",3,Primary Agriculture,8432,Nursery and greenhouse workers,Unknown,1,45.216314,-67.163185
New Brunswick,Willie A. LeBlanc & Sons Ltd.,"Memramcook, NB E4K 1L9",2,Primary Agriculture,8252,"Agricultural service contractors, farm supervisors and specialized livestock workers",Unknown,1,45.994947,-64.508296
New Brunswick,Cooke Aquaculture Inc.,"Blacks Harbour, NB E5H 1K1",1,Global Talent Stream,0016,Senior managers ,Unknown,1,45.06265,-66.7808
New Brunswick,Fiddlehead Technology Inc.,"Moncton, NB E1C 1G2",1,Global Talent Stream,2171,Information systems analysts and consultants,Unknown,1,46.088184,-64.779089
New Brunswick,Fiddlehead Technology Inc.,"Moncton, NB E1C 1G2",1,Global Talent Stream,2172,Database analysts and data administrators,Unknown,1,46.088184,-64.779089
New Brunswick,Jobeyze Limited,"Moncton, NB E1C 4K4",3,Global Talent Stream,2175,Web designers and developers,Unknown,2,46.109675,-64.822395
New Brunswick,The Hackett Group Canada Inc.,"Saint John, NB E2L 2A9",1,Global Talent Stream,0213,Computer and information systems managers,Corporation,1,45.273035,-66.062402
New Brunswick,The Hackett Group Canada Inc.,"Saint John, NB E2L 2A9",1,Global Talent Stream,2171,Information systems analysts and consultants,Corporation,1,45.273035,-66.062402
Quebec,10036099 Canada Inc.,"Montreal, QC H2L 1K2",1,High Wage,2174,Computer programmers and interactive media developers,Unknown,1,45.518684,-73.566679
Quebec,10507024 Canada Ltd.,"Montreal, QC H4T 1A7",1,High Wage,6321,Chefs,Unknown,1,45.481743,-73.703218
Quebec,10624551 Canada inc.,"Saint-Hyacinthe, QC J2S 7K7",1,High Wage,0631,Restaurant and food service managers,Unknown,1,45.640221,-72.968205
Quebec,10643645 Canada Inc.,"Montréal, QC H3G 1Z5",1,High Wage,0601,Corporate sales managers,Unknown,1,45.498526,-73.575981
Quebec,10643645 Canada Inc.,"Montréal, QC H3G 1Z5",1,High Wage,6321,Chefs,Unknown,1,45.498526,-73.575981
Quebec,11084836 Canada Inc.,"Gatineau, QC J8M 1Y7",1,High Wage,0124,"Advertising, marketing and public relations managers",Unknown,1,45.525207,-75.44692
Quebec,11137484 CANADA INC.,"Saint-Isidor, QC G0S 2S0",3,High Wage,7237,Welders and related machine operators,Unknown,1,46.294643,-70.873676
Quebec,11137484 CANADA INC.,"Saint-Isidor, QC G0S 2S0",1,High Wage,7333,Electrical mechanics,Unknown,1,46.294643,-70.873676
Quebec,11723634 CANADA INC.,"Rouyn-Noranda, QC J9Y 0A3",3,High Wage,7237,Welders and related machine operators,Unknown,1,48.2108794,-79.0155105
Quebec,121352 Canada Inc,"Rouyn-Noranda, QC J9X 4K8",1,High Wage,7231,Machinists and machining and tooling inspectors,Unknown,1,48.224481,-78.996691
Quebec,121352 Canada Inc,"Rouyn-Noranda, QC J9X 4K8",1,High Wage,7311,Construction millwrights and industrial mechanics,Unknown,1,48.224481,-78.996691
Quebec,14427271 Canada Inc.,"Blainville, QC J7C 0B4",1,High Wage,7322,Motor vehicle body repairers,Unknown,1,45.680778,-73.882234
Quebec,14917308 Canada Inc.,"Montreal, QC H2Y 1A6",1,High Wage,2282,User support technicians,Unknown,1,45.500463,-73.562724
Quebec,2328-6917 QUEBEC INC,"quebec, QC G2N 1P3",1,High Wage,7322,Motor vehicle body repairers,Unknown,1,46.902685,-71.309576
Quebec,2701545 CANADA INC,"Lachine, QC H8R 1H3",5,High Wage,7321,"Automotive service technicians, truck and bus mechanics and mechanical repairers",Unknown,3,45.4474297,-73.6353617
Quebec,2701545 CANADA INC,"Lachine, QC H8R 1H3",33,High Wage,7511,Transport truck drivers,Unknown,6,45.4474297,-73.6353617
Quebec,2858-9448 Quebec inc,"Rouyn-Noranda, QC J9X 4V9",1,High Wage,2223,Forestry technologists and technicians,Unknown,1,48.227031,-79.02986
Quebec,"2K Studios Montréal, Inc.","Montréal, QC H3B 4M7",1,High Wage,1226,Conference and event planners,Corporation,1,45.496275,-73.572345
Quebec,3579000 canada Inc.,"Laval, QC H7T 2H6",1,High Wage,7322,Motor vehicle body repairers,Unknown,1,45.567934,-73.76388
Quebec,3595650 Canada inc.,"Gatineau, QC J8Z 1W8",1,High Wage,7321,"Automotive service technicians, truck and bus mechanics and mechanical repairers",Unknown,1,45.470208,-75.738413
Quebec,3887952 CANADA INC.,"Sept-îles, QC G4R 4X6",1,High Wage,7321,"Automotive service technicians, truck and bus mechanics and mechanical repairers",Unknown,1,50.209159,-66.278416
Quebec,4CAD,"Montréal, QC H4N 3L4",1,High Wage,2171,Information systems analysts and consultants,Corporation,1,45.511234,-73.6717074
Quebec,6002676 CANADA INC,"ST LAURENT, QC H4S 1J2",1,High Wage,7511,Transport truck drivers,Unknown,1,45.4837446,-73.7212569
Quebec,6194044 Canada Ltée,"Gatineau, QC J8Z 1V8",1,High Wage,2151,Architects,Unknown,1,45.462957,-75.733851
Quebec,7531877 CANADA LTEE,"Gatineau, QC J8M 1Y7",1,High Wage,5241,Graphic designers and illustrators,Unknown,1,45.525207,-75.44692
Quebec,8344795 CANADA INC,"Vaudreuil-Dorion, QC J7V 8P2",3,High Wage,7334,"Motorcycle, all",Unknown,1,45.370432,-74.031042
Quebec,8344795 CANADA INC,"Vaudreuil-Dorion, QC J7V 8P2",5,High Wage,7511,Transport truck drivers,Unknown,1,45.370432,-74.031042
Quebec,9005-1319 Québec inc.,"Berthierville, QC J0K 1A0",1,High Wage,7322,Motor vehicle body repairers,Unknown,1,46.066779,-73.187236
Quebec,9012-8067 QUEBEC INC,"Rawdon, QC J0K 1S0",1,High Wage,7521,Heavy equipment operators (except crane),Unknown,1,46.03366,-73.80563
Quebec,9017-9003 Québec Inc.,"LASALLE, QC H8N 2W9",2,High Wage,7322,Motor vehicle body repairers,Unknown,2,45.43749,-73.617853
Quebec,9021-7597 Québec inc,"Montréal, QC H2S 1A1",3,High Wage,6331,"Butchers, meat cutters and fishmongers ",Unknown,3,45.536901,-73.615052
Quebec,9028-0843 Québec INC,"Granby, QC J2G 8N1",1,High Wage,7231,Machinists and machining and tooling inspectors,Unknown,1,45.392139,-72.754182
Quebec,9029-4414 Québec Inc. (TransGod),"Plessisville, QC G6L 2Y4",1,High Wage,7321,"Automotive service technicians, truck and bus mechanics and mechanical repairers",Unknown,1,46.242891,-71.777127
Quebec,9039-1731 Quebec-inc.,"Montreal, QC H2W 2R2",1,High Wage,1122,Professional occupations in business management consulting,Unknown,1,45.518103,-73.582162
Quebec,9045-2491 Qc inc,"Rouyn-Noranda, QC J9X 7C1",1,High Wage,7311,Construction millwrights and industrial mechanics,Unknown,1,48.259373,-79.018472
Quebec,9045-2491 Qc inc,"Rouyn-Noranda, QC J9X 7C1",2,High Wage,7312,Heavy,Unknown,1,48.259373,-79.018472
Quebec,9047-8967 QC INC,"Salaberry-de-valleyfield, QC J6S 0S2",1,High Wage,7321,"Automotive service technicians, truck and bus mechanics and mechanical repairers",Unknown,1,45.2630534,-74.1045842
Quebec,9048-2688 QUÉBEC INC.,"Sainte-Anne-de-la-Pocatière, QC G0R 1Z0",1,High Wage,2221,Biological technologists and technicians,Unknown,1,47.359335,-70.027466
Quebec,9048-9493 Québec Inc.,"St-BENOIT LABRE, QC G0M 1P0",1,High Wage,7511,Transport truck drivers,Unknown,1,45.843699,-70.570819
Quebec,9052-9470 Québec Inc,"St-Lazare,QC, QC J7T 2B8",3,High Wage,7231,Machinists and machining and tooling inspectors,Unknown,3,45.3760368,-74.127809
Quebec,9057-2595 Québec Inc.,"Sept-Iles, QC G4R 1W8",1,High Wage,7321,"Automotive service technicians, truck and bus mechanics and mechanical repairers",Unknown,1,50.205003,-66.365688
Quebec,9078-4042 QUEBEC INC,"Montreal, QC H3C 1L9",1,High Wage,0711,Construction managers,Unknown,1,45.49939,-73.557986
Quebec,9082-1612 QUÉBEC INC.,"Montréal, QC H1N 1C1",1,High Wage,6322,Cooks,Unknown,1,45.579963,-73.544753
Quebec,9090-5092 Québec inc,"Lavaltrie, QC J5T 2H1",1,High Wage,0712,Home building and renovation managers,Unknown,1,45.889737,-73.287586
Quebec,9091-4532 Québec Inc.,"L'ISLE-VERTE, QC G0L 1L0",1,High Wage,7237,Welders and related machine operators,Unknown,1,47.9745407104492,-69.3281784057617
Quebec,9097-0633 Québec inc.,"Montreal, QC H1E 1S3",1,High Wage,1211,"Supervisors, general office and administrative support workers",Unknown,1,45.62592,-73.603461
Quebec,9104-3786 Quebec inc,"Scott, QC G0S 3G0",1,High Wage,7511,Transport truck drivers,Unknown,1,46.508047,-71.07536
Quebec,91058016 QC INC,"Montréal, QC H4N 2R5",2,High Wage,6332,Bakers,Corporation,1,45.531586,-73.656221
Quebec,9125-5810 QUÉBEC INC.,"Trois-Rivières, QC G8T 8Y8",1,High Wage,7322,Motor vehicle body repairers,Unknown,1,46.382544,-72.528267
Quebec,9146-9981 Quebec Inc.,"Anjou, QC H1J 1M6",4,High Wage,9417,Machining tool operators,Unknown,1,45.623882,-73.578717
Quebec,9152-2458 Quebec Inc,"Paspebiac, QC G0C 2K0",1,High Wage,2281,Computer network technicians,Unknown,1,48.060360,-65.250412
Quebec,9154 2589 Quebec Inc,"Gatineau, QC J8M 1P4",1,High Wage,7321,"Automotive service technicians, truck and bus mechanics and mechanical repairers",Unknown,1,45.520571,-75.501214
Quebec,9166-6156 Québec inc.,"Drummondville, QC J2B 6V4",1,High Wage,1522,Storekeepers and partspersons,Unknown,1,45.906614,-72.523836
Quebec,9169-0362 Quebec Inc,"Thetford Mines, QC G6G 8B2",6,High Wage,9536,"Industrial painters, coaters and metal finishing process operators",Unknown,1,46.1131,-71.288536
Quebec,9177-2541 Québec Inc.,"Montréal, QC H2Z 0A6",1,High Wage,6314,Customer and information services supervisors,Unknown,1,45.5039113,-73.56321
Quebec,9178-9941,"montreal, QC H2V 4G9",1,High Wage,0631,Restaurant and food service managers,Unknown,1,45.520769,-73.598868
Quebec,9184-9745 Québec inc.,"Wentwort-Nord, QC J0T 1Y0",1,High Wage,7452,Material handlers,Unknown,1,45.775663,-74.448453
Quebec,9190-7121 Quebec inc,"Montréal, QC H2X 3K6",1,High Wage,0631,Restaurant and food service managers,Unknown,1,45.515831,-73.565043
Quebec,9196-2597 Quebec Inc,"Montréal, QC H2V 1A5",1,High Wage,1311,Accounting technicians and bookkeepers,Unknown,1,45.527439,-73.616555
Quebec,9201-4935 Qc Inc.,"Montréal, QC H2N 2A3",1,High Wage,7322,Motor vehicle body repairers,Unknown,1,45.536226,-73.650423
Quebec,9204-8842 Quebec Inc,"Val-d'Or, QC J9P 1G1",1,High Wage,7322,Motor vehicle body repairers,Unknown,1,48.101189,-77.7693345
Quebec,9219-1485 Québec Inc,"boisbriand, QC J7E 4H5",1,High Wage,1311,Accounting technicians and bookkeepers,Unknown,1,45.679517,-73.82552
Quebec,9220-6465 qc inc,"dolbeau mistassini, QC G8L 1J1",1,High Wage,7321,"Automotive service technicians, truck and bus mechanics and mechanical repairers",Unknown,1,48.883189,-72.234835
Quebec,9231 9110 Quebec Inc.,"Laval, QC H7V 5B7",1,High Wage,2121,Biologists and related scientists,Unknown,1,45.557614,-73.696535
Quebec,9231 9110 Quebec Inc.,"Laval, QC H7V 5B7",1,High Wage,2281,Computer network technicians,Unknown,1,45.557614,-73.696535
Quebec,9246-9394 QUÉBEC INC.,"Boucherville, QC J4B 5L2",1,High Wage,6321,Chefs,Unknown,1,45.571756,-73.446544
Quebec,9257-4607 QUEBEC INC,"Laval, QC H7L 3J4",1,High Wage,6211,Retail sales supervisors,Unknown,1,45.602921,-73.804209
Quebec,9274-0836 QUÉBEC INC,"Brossard, QC J4Y 0E4",1,High Wage,0111,Financial managers,Unknown,1,45.4342789,-73.4582781
Quebec,9280-0366 Québec Inc.,"Montréal, QC H2T 1X3",1,High Wage,1221,Administrative officers,Corporation,1,45.525843,-73.595063
Quebec,9280-5589 Québec inc.,"Montréal, QC H1L 5L2",1,High Wage,1241,Administrative assistants,Unknown,1,45.60037,-73.530204
Quebec,9283-4613 Québec inc.,"Mascouche, QC J7K 3C2",1,High Wage,7511,Transport truck drivers,Unknown,1,45.784671,-73.627266
Quebec,9289-3924 QC INC,"Laval, QC H7R 5R5",1,High Wage,7231,Machinists and machining and tooling inspectors,Unknown,1,45.579597,-73.800432
Quebec,9290-3921 Quebec Inc.,"Montreal, QC H3X 2N9",5,High Wage,7246,Telecommunications installation and repair workers,Unknown,1,45.481662,-73.627726
Quebec,9291-7202 Québec Inc.,"Sherbrooke, QC J1N 1H3",4,High Wage,7322,Motor vehicle body repairers,Unknown,3,45.383942,-71.96614
Quebec,9300-2665 Québec Inc.,"Montréal, QC H4A 2Z3",1,High Wage,5241,Graphic designers and illustrators,Unknown,1,45.472812,-73.616401
Quebec,9308-5975 québec inc.,"Montréal, QC H2V 4G3",1,High Wage,0651,"Managers in customer and personal services, n.e.c.",Unknown,1,45.520386,-73.597359
Quebec,9311-4114 Québec Inc.,"Sainte-Martine, QC J0S 1V0",2,High Wage,7321,"Automotive service technicians, truck and bus mechanics and mechanical repairers",Unknown,1,45.260161,-73.792344
Quebec,9317-5917 Qc INC,"Laval, QC H7T 2P1",1,High Wage,1524,Purchasing and inventory control workers,Unknown,1,45.556339,-73.784921
Quebec,9328-5161 QUÉBEC INC,"VARENNES, QC J3X 1P7",1,High Wage,6552,Other customer and information services representatives,Unknown,1,45.665405,-73.38258
Quebec,9342-7490 Quebec Inc.,"Laval, QC H7E 1A1",18,High Wage,7511,Transport truck drivers,Unknown,7,45.61416,-73.668973
Quebec,9343-0973 Québec Inc.,"Montréal, QC H3Z  1G",1,High Wage,6321,Chefs,Sole Proprietorship,1,,
Quebec,9345-9758 Quebec Inc.,"Brossard, QC J4Y 0B6",1,High Wage,2282,User support technicians,Unknown,1,45.45653,-73.466981
Quebec,9347-2983 Québec Inc.,"Mirabel, QC J7N 0W2",1,High Wage,7315,Aircraft mechanics and aircraft inspectors,Unknown,1,45.655913,-74.048155
Quebec,9353-2554 Québec INC.,"Lachute, QC J8H 4H5",1,High Wage,6322,Cooks,Unknown,1,45.635039,-74.325903
Quebec,9356-6263 québec Inc.,"Montréal, QC H3B 4S6",1,High Wage,6321,Chefs,Unknown,1,45.502058,-73.568434
Quebec,9356-6263 québec Inc.,"Montréal, QC H3B 4S6",1,High Wage,6332,Bakers,Unknown,1,45.502058,-73.568434
Quebec,9357-4408 Québec Inc.,"Montreal, QC H2J 2L9",1,High Wage,6322,Cooks,Unknown,1,45.526308,-73.588017
Quebec,9363-7486 Quebec Inc,"TERREBONNE, QC J6Y 1G1",1,High Wage,7511,Transport truck drivers,Unknown,1,45.696104,-73.692141
Quebec,9364-9168 Québec Inc.,"Québec, QC G2G 2R1",1,High Wage,0631,Restaurant and food service managers,Unknown,1,46.777063,-71.357221
Quebec,9366-5511 Québec inc.,"Blainville, QC J7C 0M4",1,High Wage,0631,Restaurant and food service managers,Unknown,1,45.682551,-73.8824403
Quebec,9370-0110 QUEBEC INC.,"Montréal, QC H3N 1T2",2,High Wage,6321,Chefs,Unknown,1,45.524759,-73.62555
Quebec,9371-3378 Québec inc.,"Montréal, QC H2T 2P9",1,High Wage,2175,Web designers and developers,Unknown,1,45.524982,-73.588995
Quebec,9371-8823 Quebec inc.,"Montreal, QC H2K 1G1",1,High Wage,1222,Executive assistants,Unknown,1,45.536567,-73.561006
Quebec,9373-3137 Québec inc,"Montréal, QC H1M 1E9",1,High Wage,2251,Architectural technologists and technicians,Unknown,1,45.584328,-73.557402
Quebec,9382-3342 Québec inc.,"L'Ancienne-Lorette, QC G2E 2H6",1,High Wage,6313,"Accommodation, travel, tourism and related services supervisors",Unknown,1,46.799933,-71.339314
Quebec,9391-7649 Quebec inc.,"Montréal, QC H2V 1V5",1,High Wage,6322,Cooks,Unknown,1,45.52112,-73.607838
Quebec,9392-1427 QUEBEC INC,"Chateauguay, QC J6K 5E5",1,High Wage,7372,Drillers and blasters ,Unknown,1,45.350661,-73.753384
Quebec,9401-0378 Quebec Inc.,"Brossard, QC J4Y 1A4",5,High Wage,6322,Cooks,Unknown,1,45.45307,-73.466193
Quebec,9406-4755 Québec inc,"Anjou, QC H1J 1K6",1,High Wage,7231,Machinists and machining and tooling inspectors,Partnership,1,45.617859,-73.564653
Quebec,94065273 QUEBEC INC,"saint- leonard, QC H1P 2B5",1,High Wage,7232,Tool and die makers,Unknown,1,45.5994632,-73.588903
Quebec,9409-9603 Québec inc.,"MONTRÉAL, QC H2Y 2C5",1,High Wage,6562,"Estheticians, electrologists and related occupations",Unknown,1,45.505553,-73.553137
Quebec,9410-8487 Québec inc.,"Terrebonne, QC J6V 1J9",2,High Wage,7514,Delivery and courier service drivers,Corporation,1,45.713664,-73.516144
Quebec,9411-5607 Quebec Inc,"Val-d’Or, QC J9P 7A9",1,High Wage,0111,Financial managers,Unknown,1,48.098135,-77.824986
Quebec,9412-9954 Québec inc.,"Blainville, QC J7C 0M4",1,High Wage,6321,Chefs,Unknown,1,45.682551,-73.8824403
Quebec,9415-4317 Quebec INC.,"Montreal, QC H4N 1G8",1,High Wage,0731,Managers in transportation,Unknown,1,45.531475,-73.660359
Quebec,9415-4317 Quebec INC.,"Montreal, QC H4N 1G8",1,High Wage,1221,Administrative officers,Unknown,1,45.531475,-73.660359
Quebec,9415-4317 Quebec INC.,"Montreal, QC H4N 1G8",4,High Wage,7511,Transport truck drivers,Unknown,2,45.531475,-73.660359
Quebec,9424-2062 Québec Inc,"Montréal-Nord, QC H1G 2N4",1,High Wage,1221,Administrative officers,Corporation,1,45.605913,-73.62465
Quebec,9427-2689 Québec inc.,"Terrasse-Vaudreuil, QC J7V 8H7",1,High Wage,6731,Light duty cleaners,Unknown,1,45.3894277,-73.9833742
Quebec,9432-0611 QC INC,"Alma, QC G8C 0E1",1,High Wage,1122,Professional occupations in business management consulting,Corporation,1,48.5263659,-71.642494
Quebec,9433-7987 Québec Inc,"Québec, QC G1C 1W4",1,High Wage,6315,Cleaning supervisors,Unknown,1,46.878099,-71.165231
Quebec,9433-7987 Québec Inc,"Québec, QC G1C 1W4",2,High Wage,6731,Light duty cleaners,Unknown,1,46.878099,-71.165231
Quebec,9437-8502 Quebec inc,"Montréal, QC H3V 1G8",1,High Wage,6322,Cooks,Unknown,1,45.495385,-73.614404
Quebec,9440-7400 Québec Inc,"Québec, QC G1S 1V3",1,High Wage,7313,Refrigeration and air conditioning mechanics,Unknown,1,46.809316,-71.216466
Quebec,9441- 8654 QUEBEC INC,"Rimouski, QC G5L 5H9",2,High Wage,1221,Administrative officers,Unknown,1,48.450352,-68.526447
Quebec,9447-9441 Québec inc.,"Louiseville, QC J5V 2J6",2,High Wage,3413,"Nurse aides, orderlies and patient service associates",Unknown,1,46.252712,-72.955783
Quebec,9453-1936 Québec Inc.,"Gatineau, QC J8T 4H8",1,High Wage,6211,Retail sales supervisors,Unknown,1,45.475885,-75.730175
Quebec,9456-9654 quebec inc,"st placide, QC J0V 2B0",1,High Wage,6211,Retail sales supervisors,Unknown,1,45.528053,-74.278758
Quebec,9466-2947 quebec inc,"Montreal, QC H2N 1Y8",1,High Wage,9441,"Textile fibre and yarn, hide and pelt processing machine operators and workers",Unknown,1,45.537339,-73.651566
Quebec,9476-8827 Québec inc.,"Montréal, QC H3B 0A2",2,High Wage,7231,Machinists and machining and tooling inspectors,Unknown,2,45.515392,-73.553859
Quebec,94770484,"Montreal, QC H2S 1Z5",1,High Wage,6321,Chefs,Unknown,1,45.532506,-73.597098
Quebec,9494-8114 Québec inc,"Québec, QC G3K 0G2",5,High Wage,6731,Light duty cleaners,Unknown,1,46.8429585,-71.4143459
Quebec,A LABOS,"Montréal, QC H3W  2E",1,High Wage,0213,Computer and information systems managers,Corporation,1,,
Quebec,A. Malo compagnie ltée,"Joliette, QC J6E 5N9",1,High Wage,7231,Machinists and machining and tooling inspectors,Unknown,1,46.020781,-73.438934
Quebec,AAA Canada,"Montreal, QC H3C 1L9",1,High Wage,2232,Mechanical engineering technologists and technicians,Unknown,1,45.49939,-73.557986
Quebec,AAR Aircraft Services – Trois-Rivières ULC,"Trois-Rivières, QC G9B 2N8",7,High Wage,7315,Aircraft mechanics and aircraft inspectors,Unknown,7,46.331557,-72.615277
Quebec,Abbeal,"Montréal, QC H2J  2L",1,High Wage,2175,Web designers and developers,Corporation,1,,
Quebec,Abich Inc,"Montréal, QC H3X 2H9",1,High Wage,2211,Chemical technologists and technicians,Corporation,1,45.485004,-73.631375
Quebec,ABIPA Canada Inc.,"BOISBRIAND, QC J7H  0A",1,High Wage,7231,Machinists and machining and tooling inspectors,Corporation,1,,
Quebec,Académie Marie-Claire,"Kirkland, QC H9J 3Y4",1,High Wage,1241,Administrative assistants,Unknown,1,45.445219,-73.880729
Quebec,Académie Marie-Claire,"Kirkland, QC H9J 3Y4",1,High Wage,4032,Elementary school and kindergarten teachers,Unknown,1,45.445219,-73.880729
Quebec,ACCENT-FAIRCHILD GROUP INC.,"Montréal, QC H4R 2C8",1,High Wage,9422,Plastics processing machine operators,Corporation,1,45.497407,-73.727964
Quebec,ACENSI CONSULTANTS INC,"Montréal, QC H2Y  1M",1,High Wage,2171,Information systems analysts and consultants,Corporation,1,,
Quebec,ACENSI CONSULTANTS INC,"Montréal, QC H2Y  1M",2,High Wage,2175,Web designers and developers,Corporation,2,,
Quebec,ACOLAD CANADA INC.,"Montréal, QC H2W 2M5",1,High Wage,6221,Technical sales specialists ,Unknown,1,45.521812,-73.578118
Quebec,Acoustik produits audiometriques,"Ste-Clodilde de Beauce, QC G0N 1C0",1,High Wage,9537,"Other products assemblers, finishers and inspectors",Unknown,1,46.218009,-71.07553
Quebec,ACTIVE MEDIA INC.,"Montreal, QC H3B 1A5",1,High Wage,0111,Financial managers,Unknown,1,45.506217,-73.566965
Quebec,Actoran Conseils Inc,"Montréal, QC H3G 2T3",1,High Wage,1225,Purchasing agents and officers,Corporation,1,45.49948,-73.578279
Quebec,ADF Diesel Industriel Inc.,"Saint Stanislas, QC G0X 3E0",1,High Wage,6221,Technical sales specialists ,Unknown,1,46.60914,-72.384424
Quebec,Adria Power Systems,"Rouyn-Noranda, QC J9X 7C3",1,High Wage,2252,Industrial designers,Corporation,1,48.262654,-79.020222
Quebec,Adria Power Systems,"Rouyn-Noranda, QC J9X 7C3",1,High Wage,7241,Electricians (except industrial and power system),Corporation,1,48.262654,-79.020222
Quebec,Aérospatiale Hemmingford Inc.,"Hemmingford, QC J0L 1H0",1,High Wage,7231,Machinists and machining and tooling inspectors,Unknown,1,45.05619,-73.58501
Quebec,AGENCE DADA,"Montréal, QC H2Y 2Y5",1,High Wage,5241,Graphic designers and illustrators,Corporation,1,45.505691,-73.554138
Quebec,Air Canada,"Saint-Laurent, QC H4S 1Z3",1,High Wage,4163,Business development officers and marketing researchers and consultants,Unknown,1,45.48171,-73.723753
Quebec,Airbus Atlantique Canada Inc.,"Mirabel, QC J7N 1H4",1,High Wage,2132,Mechanical engineers,Unknown,1,45.711323,-74.083877
Quebec,Airbus Atlantique Canada Inc.,"Mirabel, QC J7N 1H4",1,High Wage,2146,Aerospace engineers,Unknown,1,45.711323,-74.083877
Quebec,Airbus Atlantique Canada Inc.,"Mirabel, QC J7N 1H4",1,High Wage,2232,Mechanical engineering technologists and technicians,Unknown,1,45.711323,-74.083877
Quebec,Airbus Atlantique Canada Inc.,"Mirabel, QC J7N 1H4",5,High Wage,9521,Aircraft assemblers and aircraft assembly inspectors,Unknown,4,45.711323,-74.083877
Quebec,Airbus Atlantique Canada SL,"Saint-Laurent, QC H4R 1J9",9,High Wage,9521,Aircraft assemblers and aircraft assembly inspectors,Unknown,5,45.512669,-73.692321
