Province,Employer,Address,Positions,Stream,NOC 2011,NOC Name,Incorporated Status,Approved LMIA,Latitude,Longitude
Newfoundland and Labrador,A.B Clarke Electric Ltd,"Cbs, NL A1W 5T8",1,High Wage,1241,Administrative assistants,Unknown,1,47.532522,-52.930464
Newfoundland and Labrador,AB Complex Inc.,"Gander, NL A1V 1X3",1,High Wage,0013,Senior managers ,Unknown,1,48.951546,-54.606189
Newfoundland and Labrador,Central Regional Health Authority,"GRAND FALLS - WINDSOR, NL A2A 2E1",2,High Wage,3111,Specialist physicians,Non-Profit Organization,2,48.933254,-55.647212
Newfoundland and Labrador,Eastern Regional Health Authority,"Mount Pearl, NL A1N 3J5",1,High Wage,3111,Specialist physicians,Unknown,1,47.5232115,-52.7789647
Newfoundland and Labrador,Memorial University of Newfoundland and Labrador,"St. John's, NL A1C 5S7",1,High Wage,4011,University professors and lecturers,Unknown,1,47.55954,-52.711431
Newfoundland and Labrador,60178 Newfoundland & Labrador Corp,"Placentia, NL A0B 2Y0",2,Low Wage,6311,Food service supervisors,Unknown,1,47.238091,-53.960329
Newfoundland and Labrador,61144 Newfoundland and Labrador Inc,"St John's, NL A1E 4P3",1,Low Wage,7452,Material handlers,Unknown,1,47.5204882,-52.7665454
Newfoundland and Labrador,72764 Newfoundland and Labrador Ltd.,"Springdale, NL A0J 1T0",2,Low Wage,6711,"Food counter attendants, kitchen helpers and related support occupations",Unknown,1,49.5340194702148,-56.191593170166
Newfoundland and Labrador,86956 NEWFOUNDLAND & LABRADOR INC.,"St. John's, NL A1B 3R2",1,Low Wage,6341,Hairstylists and barbers,Unknown,1,47.557006,-52.760948
Newfoundland and Labrador,87602 NEWFOUNDLAND AND LABRADOR CORP,"Rocky Harbour, NL A0K 4N0",2,Low Wage,6211,Retail sales supervisors,Unknown,1,49.585385,-57.936292
Newfoundland and Labrador,Allens Fisheries Limited,"Benoits Cove, NL A0L 1A0",12,Low Wage,9618,Labourers in fish and seafood processing,Unknown,1,48.993375,-58.100882
Newfoundland and Labrador,AQUA CRAB PRODUCERS INC,"AQUAFORTE, NL A0A 1A0",21,Low Wage,9463,Fish and seafood plant workers,Unknown,1,47.007347,-52.958921
Newfoundland and Labrador,Atlantic Grocery Distributors Ltd,"Bay Roberts, NL A0A 1G0",5,Low Wage,6622,"Store shelf stockers, clerks and order fillers",Unknown,1,47.571957,-53.278126
Newfoundland and Labrador,Atlantic Grocery Distributors Ltd,"Bay Roberts, NL A0A 1G0",2,Low Wage,7511,Transport truck drivers,Unknown,1,47.571957,-53.278126
Newfoundland and Labrador,B & F ENTERPRISES LTD.,"BAIE VERTE, NL A0K 1B0",1,Low Wage,6311,Food service supervisors,Unknown,1,49.934577,-56.201564
Newfoundland and Labrador,Baba Q's Smoke & Grill Restaurant Ltd,"Labrador City, NL A2V 2B6",3,Low Wage,6322,Cooks,Unknown,1,52.9459114,-66.9058657
Newfoundland and Labrador,Baba Q's Smoke & Grill Restaurant Ltd,"Labrador City, NL A2V 2B6",2,Low Wage,6512,Bartenders,Unknown,1,52.9459114,-66.9058657
Newfoundland and Labrador,Baba Q's Smoke & Grill Restaurant Ltd,"Labrador City, NL A2V 2B6",6,Low Wage,6711,"Food counter attendants, kitchen helpers and related support occupations",Unknown,1,52.9459114,-66.9058657
Newfoundland and Labrador,Barry Group Inc,"Port De Grave, NL A0A 3J0",15,Low Wage,9463,Fish and seafood plant workers,Corporation,1,47.566615,-53.263418
Newfoundland and Labrador,Barry Group Inc,"Witless Bay, NL A0A 4K0",17,Low Wage,9463,Fish and seafood plant workers,Corporation,1,47.280092,-52.827119
Newfoundland and Labrador,Barry Group Inc.,"Corner Brook, NL A2H 3E9",65,Low Wage,9463,Fish and seafood plant workers,Unknown,2,48.9595042,-57.9967139
Newfoundland and Labrador,Barry Group Inc.,"Corner Brook, NL A2H 3E9",15,Low Wage,9618,Labourers in fish and seafood processing,Unknown,2,48.9595042,-57.9967139
Newfoundland and Labrador,CBS FOODS LTD,"CONCEPTION BAY, NL A1W 3A6",2,Low Wage,6322,Cooks,Unknown,1,47.5183451,-52.9567005
Newfoundland and Labrador,DaMarcus RestoBar Corp,"corner brook, NL A2H 4B5",1,Low Wage,6311,Food service supervisors,Unknown,1,48.9521269,-57.9534349
Newfoundland and Labrador,DaMarcus RestoBar Corp,"corner brook, NL A2H 4B5",1,Low Wage,6322,Cooks,Unknown,1,48.9521269,-57.9534349
Newfoundland and Labrador,Deer Lake Holdings Limited,"Deer Lake, NL A8A 2E8",1,Low Wage,6525,Hotel front desk clerks,Unknown,1,49.168931,-57.431554
Newfoundland and Labrador,Dr Chandrasegaram Labrador Prof Dental Corp,"Happy Valley Goose Bay, NL A0P 1C0",1,Low Wage,3411,Dental assistants,Unknown,1,53.308255,-60.378852
Newfoundland and Labrador,Fogo Island Co-operative Society Limited,"Seldom, Fogo Isalnd, NL A0G 3Z0",25,Low Wage,9618,Labourers in fish and seafood processing,Unknown,1,49.602117,-54.193073
Newfoundland and Labrador,Hebert's Recycling Inc.,"Mount Pearl, NL A1N 4S7",6,Low Wage,9619,"Other labourers in processing, manufacturing and utilities",Unknown,1,47.514488,-52.834069
Newfoundland and Labrador,I.C. Pizza House Inc.,"PARADISE, NL A1L 1S6",2,Low Wage,6322,Cooks,Unknown,1,47.5316306,-52.8584126
Newfoundland and Labrador,K. & S. Holdings Ltd.,"LABRADOR CITY, NL A2V 2W7",1,Low Wage,6322,Cooks,Unknown,1,52.948274,-66.92216
Newfoundland and Labrador,Nl Spice Box inc,"ST.JOHNS, NL A1E 2E3",1,Low Wage,6322,Cooks,Unknown,1,47.5252149,-52.7695777
Newfoundland and Labrador,Ocean Choice International,"St. John's, NL A1B 3N4",65,Low Wage,9463,Fish and seafood plant workers,Unknown,3,47.540271,-52.783174
Newfoundland and Labrador,P.J. 's Groceteria Limited,"Torbay, NL A1K 1K7",3,Low Wage,6211,Retail sales supervisors,Unknown,1,47.66946,-52.730712
Newfoundland and Labrador,Quin-Sea Fisheries,"St. John's, NL A1B 4B4",80,Low Wage,9618,Labourers in fish and seafood processing,Unknown,1,47.558051,-52.741126
Newfoundland and Labrador,St. Mary's Bay Fisheries Inc.,"St. Mary's, NL A0B 3B0",118,Low Wage,9463,Fish and seafood plant workers,Unknown,1,47.056734,-53.381022
Newfoundland and Labrador,St. Mary's Bay Fisheries Inc.,"St. Mary's, NL A0B 3B0",22,Low Wage,9618,Labourers in fish and seafood processing,Unknown,1,47.056734,-53.381022
Newfoundland and Labrador,Topsail Foods Enterprise Inc,"St. John's, NL A1E 2E2",3,Low Wage,6311,Food service supervisors,Unknown,1,47.5236618,-52.7749497
Newfoundland and Labrador,Topsail Foods Enterprise Inc,"St. John's, NL A1E 2E2",4,Low Wage,6711,"Food counter attendants, kitchen helpers and related support occupations",Unknown,1,47.5236618,-52.7749497
Newfoundland and Labrador,Kent Fudge,"Grand Falls-Windsor, NL A2A 2J7",4,Primary Agriculture,8431,General farm workers,Unknown,1,48.948016,-55.676478
Newfoundland and Labrador,Larch Grove Farm Ltd.,"Cormack, NL A8A 2R7",4,Primary Agriculture,8252,"Agricultural service contractors, farm supervisors and specialized livestock workers",Unknown,1,49.282213,-57.420854
Newfoundland and Labrador,Larch Grove Farm Ltd.,"Cormack, NL A8A 2R7",4,Primary Agriculture,8431,General farm workers,Unknown,1,49.282213,-57.420854
Newfoundland and Labrador,Lester's Farm Market,"St. John's, NL A1E 6J4",6,Primary Agriculture,8431,General farm workers,Unknown,2,47.5204756,-52.766562
Newfoundland and Labrador,Lone Pine Farm,"Bishop's Falls, NL A0H 1C0",4,Primary Agriculture,8431,General farm workers,Unknown,1,49.010570526123,-55.4957237243652
Newfoundland and Labrador,M&P Dairy Farm Ltd.,"Goulds, NL A1S 1G7",2,Primary Agriculture,8431,General farm workers,Unknown,1,47.447093,-52.771549
Newfoundland and Labrador,N&N Farm Limited,"Cormack, NL A8A 2R6",5,Primary Agriculture,8252,"Agricultural service contractors, farm supervisors and specialized livestock workers",Unknown,1,49.282213,-57.420854
Newfoundland and Labrador,nemori farms ltd,"Deer Lake, NL A8A 3H9",1,Primary Agriculture,8431,General farm workers,Unknown,1,49.1905838,-57.4548404
Newfoundland and Labrador,New World Dairy Inc,"St. David's, NL A0N 1X0",10,Primary Agriculture,8431,General farm workers,Unknown,1,48.160518,-58.815081
Newfoundland and Labrador,Pinedale Farms Ltd.,"Terra Nova, NL A0C 1L0",2,Primary Agriculture,8431,General farm workers,Unknown,1,48.438006,-54.013769
Newfoundland and Labrador,Rolling Acres Farm,"Bishop's Falls, NL A0H 1C0",4,Primary Agriculture,8431,General farm workers,Unknown,1,49.010570526123,-55.4957237243652
Newfoundland and Labrador,Duxion Motors Inc.,"St. John's, NL A1B 2C7",1,Global Talent Stream,0013,Senior managers ,Unknown,1,47.561038,-52.757918
Prince Edward Island,ALIASGHAR FORGHANI CONSTRUCTION INC.,"Charlottetown, PE C1A 1N3",1,High Wage,2253,Drafting technologists and technicians,Unknown,1,46.234397,-63.130342
Prince Edward Island,BEACH POINT PROCESSING COMPANY,"Beach Point, PE C0A 1V0",1,High Wage,0911,Manufacturing managers,Unknown,1,46.002798,-62.519557
Prince Edward Island,Charlottetown Fresh Casual Restaurants Inc.,"Charlottetown, PE C1A 4M9",2,High Wage,0631,Restaurant and food service managers,Unknown,1,46.24286,-63.1328575
Prince Edward Island,Linkletter's Welding Ltd.,"Summerside, PE C1N 4J9",1,High Wage,7237,Welders and related machine operators,Unknown,1,46.39208,-63.740224
Prince Edward Island,101775 PEI Inc.,"Charlottetown, PE C1A 4B1",1,Low Wage,6322,Cooks,Unknown,1,46.233243,-63.12659
Prince Edward Island,Atlantic Aqua Farms Ltd,"Orwell Cove, PE C0A 2E0",35,Low Wage,8613,Aquaculture and marine harvest labourers,Unknown,1,46.179,-62.884
Prince Edward Island,Atlantic Aqua Farms Ltd,"Orwell Cove, PE C0A 2E0",10,Low Wage,9463,Fish and seafood plant workers,Unknown,1,46.179,-62.884
Prince Edward Island,Business Porters Inc.,"Charlottetown, PE C1E 0E4",1,Low Wage,1241,Administrative assistants,Unknown,1,46.2830841,-63.1398476
Prince Edward Island,By the Water Shellfish (2012) Inc,"Borden Carleton, PE C0B 1X0",25,Low Wage,9618,Labourers in fish and seafood processing,Unknown,1,46.256255,-63.67178
Prince Edward Island,Captain Cooke's Seafood Inc,"Borden Carleton, PE C0B 1X0",60,Low Wage,9463,Fish and seafood plant workers,Unknown,1,46.256255,-63.67178
Prince Edward Island,DW Restaurants Moncton  Inc,"Charlottetown, PE C1A 4B5",4,Low Wage,6311,Food service supervisors,Unknown,2,46.234467,-63.12817
Prince Edward Island,EAST CAPE OYSTER COMPANY,"Charlottetown, PE C1E 2A1",4,Low Wage,9618,Labourers in fish and seafood processing,Unknown,2,46.277048,-63.143529
Prince Edward Island,East Point Potato 2009 Inc.,"Souris, PE C0A 2B0",3,Low Wage,7452,Material handlers,Unknown,1,46.354047,-62.25215
Prince Edward Island,Empire Bagels Inc,"Charlottetown, PE C1A 8K3",1,Low Wage,6311,Food service supervisors,Unknown,1,46.2486419,-63.1366938
Prince Edward Island,Garland Construction Inc.,"Milton Station, PE C1E 0M6",1,Low Wage,7611,Construction trades helpers and labourers,Unknown,1,46.2814334,-63.2002644
Prince Edward Island,L&C Fisheries Inc,"French River, PE C0B 1M0",5,Low Wage,9463,Fish and seafood plant workers,Unknown,1,46.43789,-63.63458
Prince Edward Island,Maritime Select Lobster Inc.,"Alberton, PE C0B 1B0",10,Low Wage,9618,Labourers in fish and seafood processing,Unknown,1,46.837425,-64.113384
Prince Edward Island,Murphy Investments Ltd.,"Charlottetown, PE, PE C1E 2A1",6,Low Wage,6322,Cooks,Unknown,4,46.277048,-63.143529
Prince Edward Island,NORTH ATLANTIC ORGANICS LTD,"Tignish RR#4, PE C0B 2B0",2,Low Wage,9619,"Other labourers in processing, manufacturing and utilities",Unknown,1,46.9756355285645,-64.0738525390625
Prince Edward Island,Perrys Construction Ltd.,"Tignish, PE C0B 2B0",20,Low Wage,7611,Construction trades helpers and labourers,Unknown,1,46.9756355285645,-64.0738525390625
Prince Edward Island,PIZZA DELIGHT,"Montague, PE C0A 1R0",2,Low Wage,6711,"Food counter attendants, kitchen helpers and related support occupations",Unknown,1,46.1637,-62.64674
Prince Edward Island,South Shore Seafoods Ltd.,"Bloomfield, PE C0B 1E0",148,Low Wage,9463,Fish and seafood plant workers,Unknown,3,46.696448,-64.383974
Prince Edward Island,Steerman's Quality Meats Inc.,"Vernon Bridge, PE C0A 2E0",1,Low Wage,9617,"Labourers in food, beverage and associated products processing",Unknown,1,46.179,-62.884
Prince Edward Island,VALLEY HOLDINGS LTD,"CHARLOTTETOWN, PE C1A 1P2",1,Low Wage,1311,Accounting technicians and bookkeepers,Unknown,1,46.2375965,-63.125387
Prince Edward Island,VALLEY HOLDINGS LTD,"CHARLOTTETOWN, PE C1A 1P2",7,Low Wage,3413,"Nurse aides, orderlies and patient service associates",Unknown,1,46.2375965,-63.125387
Prince Edward Island,100556 P.E.I. INC. G W.& R Visser Farms,"Vernon Bridge, PE C0A 2E0",6,Primary Agriculture,8431,General farm workers,Unknown,1,46.179,-62.884
Prince Edward Island,101497 PEI Inc,"Cherry Valley, PE C0A 2E0",15,Primary Agriculture,8431,General farm workers,Unknown,1,46.179,-62.884
Prince Edward Island,14188977 Canada Inc.,"Murray River, PE C0A  1W",5,Primary Agriculture,8611,Harvesting labourers,Corporation,1,,
Prince Edward Island,6219128 Canada Inc,"Montague, PE C0A 1R0",1,Primary Agriculture,8252,"Agricultural service contractors, farm supervisors and specialized livestock workers",Unknown,1,46.1637,-62.64674
Prince Edward Island,Atlantic Grown Organics Inc,"Spring Valley, PE C0B 1M0",2,Primary Agriculture,8431,General farm workers,Unknown,1,46.43789,-63.63458
Prince Edward Island,Birch Farms Ltd.,"Summerside, PE C1N 4J9",8,Primary Agriculture,8431,General farm workers,Unknown,1,46.39208,-63.740224
Prince Edward Island,Brookfield Gardens Inc,"Brookfield, PE C0A 1Y0",2,Primary Agriculture,8431,General farm workers,Unknown,1,46.203797,-63.266232
Prince Edward Island,BUNNY BURROW VEGETABLE CO. LTD,"Kinkora, PE C0B 1N0",2,Primary Agriculture,8431,General farm workers,Unknown,2,46.344061,-63.548072
Prince Edward Island,Cedar Grove Farms,"RichmondRR1, PE C0B 1Y0",2,Primary Agriculture,8431,General farm workers,Unknown,1,46.5138130187988,-63.9548187255859
Prince Edward Island,Dalmeny Farms,"Montague, PE C0A 1R0",2,Primary Agriculture,8431,General farm workers,Unknown,1,46.1637,-62.64674
Prince Edward Island,Eastern Exporters Limited,"Souris, PE C0A 2B0",1,Primary Agriculture,8431,General farm workers,Unknown,1,46.354047,-62.25215
Prince Edward Island,Eastern Farms Ltd.,"Pownal, PE C1B 3S5",4,Primary Agriculture,8431,General farm workers,Unknown,1,46.2083523,-63.0759984
Prince Edward Island,Frizzells Valleyville Farm Inc,"Hunter River, PE C0A 1N0",2,Primary Agriculture,8252,"Agricultural service contractors, farm supervisors and specialized livestock workers",Unknown,1,46.401847,-63.338722
Prince Edward Island,HILLTOP PRODUCE LTD,"Kinkora, PE C0B 1N0",4,Primary Agriculture,8431,General farm workers,Unknown,1,46.344061,-63.548072
Prince Edward Island,Hy-Croft Farms Inc.,"Summerside, PE C1N 4V4",14,Primary Agriculture,8431,General farm workers,Unknown,2,46.423011,-63.800596
Prince Edward Island,Island Acres Produce Ltd.,"North Tryon, PE C0B 1A0",4,Primary Agriculture,8611,Harvesting labourers,Unknown,1,46.318197,-63.558561
Prince Edward Island,Island Seed Farm Inc.,"Kinkora, PE C0B 1N0",1,Primary Agriculture,8431,General farm workers,Unknown,1,46.344061,-63.548072
Prince Edward Island,KINKORA HOLDINGS INC,"Kinkora, PE C0B 1N0",8,Primary Agriculture,8611,Harvesting labourers,Unknown,1,46.344061,-63.548072
Prince Edward Island,Kouwenberg Farm Inc.,"Millview, PE C0A 2E0",3,Primary Agriculture,8252,"Agricultural service contractors, farm supervisors and specialized livestock workers",Unknown,1,46.179,-62.884
Prince Edward Island,Kyle Murray Farms,"Albany, PE C0B 1A0",2,Primary Agriculture,8431,General farm workers,Sole Proprietorship,1,46.318197,-63.558561
Prince Edward Island,Matos Winery Inc.,"St. Catherines, PE C0A 1H1",1,Primary Agriculture,8431,General farm workers,Unknown,1,46.210462,-63.228876
Prince Edward Island,MGS Holdings & Distribution Ltd.,"Alberton, PE C0B 1B0",63,Primary Agriculture,8431,General farm workers,Unknown,4,46.837425,-64.113384
Prince Edward Island,Middleton Farms Ltd,"Kinkora, PE C0B 1N0",4,Primary Agriculture,8431,General farm workers,Unknown,1,46.344061,-63.548072
Prince Edward Island,Mol Farms Inc.,"Kinkora, PE C0B 1N0",4,Primary Agriculture,8431,General farm workers,Unknown,1,46.344061,-63.548072
Prince Edward Island,Newland Farms Inc.,"Hunter River, PE C0A 1N0",2,Primary Agriculture,8431,General farm workers,Unknown,1,46.401847,-63.338722
Prince Edward Island,Port Hill Milking Company,"Tyne Valley, PE C0B 2C0",2,Primary Agriculture,8252,"Agricultural service contractors, farm supervisors and specialized livestock workers",Unknown,2,46.574607,-63.9338
Prince Edward Island,Smith Farms Ltd.,"Kinkora, PE C0B 1N0",1,Primary Agriculture,8431,General farm workers,Unknown,1,46.344061,-63.548072
Prince Edward Island,Valley Grove Enterprises Ltd,"Kensington, PE C0B 1M0",3,Primary Agriculture,8431,General farm workers,Unknown,1,46.43789,-63.63458
Prince Edward Island,Vanco Farms Ltd.,"Mount Albion, PE C1B 0R4",104,Primary Agriculture,8431,General farm workers,Unknown,4,46.22192,-62.971058
Prince Edward Island,Verdant LLC,"Cardigan, PE C0A 1G0",47,Primary Agriculture,8431,General farm workers,Unknown,2,46.23224,-62.6332767
Prince Edward Island,W.P.  Griffin Inc.,"Elmsdale, PE C0B 1K0",6,Primary Agriculture,8431,General farm workers,Unknown,1,46.837426,-64.113384
Nova Scotia,2453196 ONTARIO LTD.,"Glace Bay, NS B1A 2E8",1,High Wage,1522,Storekeepers and partspersons,Unknown,1,46.1591535,-60.1876517
Nova Scotia,3312739 Nova Scotia Limited,"Halifax, NS B3M 3B4",3,High Wage,7291,Roofers and shinglers,Unknown,1,44.681077,-63.666978
Nova Scotia,3324671 Nova Scotia Limited,"Bedford, NS B4A 0C9",1,High Wage,1241,Administrative assistants,Unknown,1,44.703998,-63.679207
Nova Scotia,3335649 Nova Scotia Limited,"Halifax, NS B3M 2K6",1,High Wage,4163,Business development officers and marketing researchers and consultants,Unknown,1,44.677652,-63.649537
Nova Scotia,3341342 NS LTD,"PICTOU, NS B0K 1H0",2,High Wage,6211,Retail sales supervisors,Unknown,1,45.6460571289063,-62.8005790710449
Nova Scotia,4044155 NOVA SCOTIA LIMITED,"FALL RIVER, NS B2T 1E6",1,High Wage,6316,Other services supervisors,Unknown,1,44.806606,-63.6147847
Nova Scotia,Acadian Seaplants Limited,"Dartmouth, NS B3B 1X8",1,High Wage,2221,Biological technologists and technicians,Unknown,1,44.696321,-63.596395
Nova Scotia,Aculocus Health and Beauty,"Halifax, NS B3M 0J9",1,High Wage,1123,"Professional occupations in advertising, marketing and public relations",Unknown,1,44.6796363,-63.6519794
Nova Scotia,Anumandla Accounting Limited,"HALIFAX, NS B3J 3L8",1,High Wage,1111,Financial auditors and accountants,Unknown,1,44.648999,-63.577962
Nova Scotia,Cameron Seafoods Company,"Centreville, NS B0P 1J0",1,High Wage,9213,"Supervisors, food, beverage and associated products processing",Unknown,1,45.195976,-64.680474
Nova Scotia,Craigs Lobster Ltd,"Shelburne County, NS B0W 3B0",3,High Wage,9618,Labourers in fish and seafood processing,Unknown,1,43.506114,-65.718791
Nova Scotia,Dalhousie University,"Halifax, NS B3H 4H2",2,High Wage,4011,University professors and lecturers,Unknown,2,44.640703,-63.608563
Nova Scotia,Dexter Construction Company Ltd.,"Bedford, NS B4A 3Z2",5,High Wage,7521,Heavy equipment operators (except crane),Unknown,1,44.71004,-63.681667
Nova Scotia,Dragon Ebikes Ltd.,"Halifax, NS B3K 3B4",1,High Wage,1311,Accounting technicians and bookkeepers,Unknown,1,44.652437,-63.584041
Nova Scotia,DRIFT RESTAURANT GROUP LIMITED PARTNERSHIP,"Halifax, NS B3J 1S5",1,High Wage,6332,Bakers,Unknown,1,44.648961,-63.572395
Nova Scotia,Eastwater Professional Roofing Services Ltd,"Yarmouth, NS B5A 5H8",3,High Wage,7271,Carpenters,Unknown,1,43.838441,-66.114026
Nova Scotia,Elmsdale Landscaping Limited,"Elmsdale, NS B2S 1K7",6,High Wage,7611,Construction trades helpers and labourers,Unknown,1,44.9617213,-63.4949148
Nova Scotia,Elmsdale Landscaping Limited,"Elmsdale, NS B2S 1K7",2,High Wage,7612,Other trades helpers and labourers,Unknown,1,44.9617213,-63.4949148
Nova Scotia,Emigrance Consulting & Immigration Inc.,"Lakeside, NS B3T 1A2",1,High Wage,1241,Administrative assistants,Unknown,1,44.636774,-63.690551
Nova Scotia,Harvest-Bedford Incorporated,"Bedford, NS B4A 3P1",1,High Wage,1311,Accounting technicians and bookkeepers,Unknown,1,44.714768,-63.678037
Nova Scotia,Irving Shipbuilding Inc,"Halifax, NS B3K 5M7",1,High Wage,0113,Purchasing managers,Unknown,1,44.66274,-63.590281
Nova Scotia,Irving Shipbuilding Inc,"Halifax, NS B3K 5M7",1,High Wage,0114,Other administrative services managers,Unknown,1,44.66274,-63.590281
Nova Scotia,Irving Shipbuilding Inc,"Halifax, NS B3K 5M7",4,High Wage,1122,Professional occupations in business management consulting,Unknown,4,44.66274,-63.590281
Nova Scotia,Irving Shipbuilding Inc,"Halifax, NS B3K 5M7",1,High Wage,2171,Information systems analysts and consultants,Unknown,1,44.66274,-63.590281
Nova Scotia,J. Mason Contracting Limited,"FALL RIVER, NS B2T 1E6",3,High Wage,7282,Concrete finishers,Unknown,1,44.806606,-63.6147847
Nova Scotia,Jack Lee Construction Inc.,"Fall River, NS B2T 1H7",1,High Wage,7271,Carpenters,Unknown,1,44.831853,-63.604057
Nova Scotia,Jack Lee Construction Inc.,"Fall River, NS B2T 1H7",1,High Wage,7611,Construction trades helpers and labourers,Unknown,1,44.831853,-63.604057
Nova Scotia,Kingsport Studios Limited,"Kingsport, NS B0P 1H0",1,High Wage,3232,Practitioners of natural healing,Unknown,1,45.026806,-64.165254
Nova Scotia,MacDonell’s Small Jobs Ltd,"Barrington Passage, NS B0W 1G0",1,High Wage,7271,Carpenters,Unknown,1,43.57519,-65.628997
Nova Scotia,North End Community Day Care Center,"Halifax, NS B3K 1X2",1,High Wage,4214,Early childhood educators and assistants,Unknown,1,44.661388,-63.597316
Nova Scotia,North's Auto Body Ltd.,"Kentville, NS B4N 3V7",2,High Wage,7322,Motor vehicle body repairers,Unknown,1,45.067163,-64.547804
Nova Scotia,Paraza Technologies Inc.,"Halifax, NS B3J 3K8",1,High Wage,2112,Chemists,Unknown,1,44.648408,-63.57472
Nova Scotia,Rainbow Nails Incorporated,"Halifax, NS B3L 4N9",5,High Wage,6562,"Estheticians, electrologists and related occupations",Unknown,1,44.647813,-63.61972
Nova Scotia,Road Riders Express Inc,"halifax, NS B3S 0B9",1,High Wage,1241,Administrative assistants,Unknown,1,44.658753,-63.6851302
Nova Scotia,SANDHYAJI HOTELS NOVA INC.,"Sydney, NS B1S 1A1",1,High Wage,6313,"Accommodation, travel, tourism and related services supervisors",Unknown,1,46.127694,-60.196515
Nova Scotia,Springfield Hotels (Halifax) Incorporated,"Enfield, NS B2T 0A2",1,High Wage,1212,"Supervisors, finance and insurance office workers",Unknown,1,44.86467,-63.542091
Nova Scotia,The Orb Factory Limited,"Halifax, NS B3P 1L3",1,High Wage,1122,Professional occupations in business management consulting,Unknown,1,44.621419,-63.617498
Nova Scotia,THOR   RENOVATION,"Bedford, NS B4A 1P3",1,High Wage,7271,Carpenters,Unknown,1,44.72521,-63.672373
Nova Scotia,TOPAZ TRANSPORT INC.,"BEAVER BANK, NS B4E 3J4",1,High Wage,1525,Dispatchers,Unknown,1,44.8051591,-63.6755635
Nova Scotia,Urbanowski Holdings Limited,"Bedford, NS B4A 2X9",1,High Wage,3223,"Dental technologists, technicians and laboratory assistants",Unknown,1,44.735219,-63.655089
Nova Scotia,Valley Flaxflour Limited,"Middleton,, NS B0S 1P0",2,High Wage,9213,"Supervisors, food, beverage and associated products processing",Unknown,1,45.0103912353516,-65.089225769043
Nova Scotia,12914158 Canada,"Dartmouth, NS B3B 1E5",1,Low Wage,1215,"Supervisors, supply chain, tracking and scheduling co",Unknown,1,44.708507,-63.610222
Nova Scotia,12914158 Canada,"Dartmouth, NS B3B 1E5",1,Low Wage,7511,Transport truck drivers,Unknown,1,44.708507,-63.610222
Nova Scotia,3056092 Nova Scotia Ltd.,"Upper Tantallon, NS B3Z 1H3",1,Low Wage,6322,Cooks,Unknown,1,44.7019648,-63.8553277
Nova Scotia,3094037 Nova Scotia Limited,"BEDFORD, NS B4A 3Y4",2,Low Wage,6322,Cooks,Unknown,1,44.733105,-63.655979
Nova Scotia,3099794 Nova Scotia Ltd.,"Enfield, NS B2T 1C8",2,Low Wage,6731,Light duty cleaners,Unknown,1,44.939685,-63.534989
Nova Scotia,3261813 Nova Scotia Limited,"Dartmouth, NS B3K 4X7",1,Low Wage,6322,Cooks,Unknown,1,44.662188,-63.612817
Nova Scotia,3271160 NS Limited,"Halifax, NS B3J 2C3",4,Low Wage,6322,Cooks,Unknown,1,44.645015,-63.574448
Nova Scotia,3272946 NOVA SCOTIA LIMITED,"Lower Sackville, NS B4C 2S2",1,Low Wage,6513,Food and beverage servers,Unknown,1,44.7670629,-63.6833933
Nova Scotia,3272946 NOVA SCOTIA LIMITED,"Lower Sackville, NS B4C 2S2",1,Low Wage,6711,"Food counter attendants, kitchen helpers and related support occupations",Unknown,1,44.7670629,-63.6833933
Nova Scotia,3274876 Nova Scotia Ltd,"Clarks Harbour, NS B0W 1P0",36,Low Wage,9463,Fish and seafood plant workers,Unknown,1,43.462969,-65.650454
Nova Scotia,3277374 Nova Scotia Limited,"Halifax, NS B3J 2B5",4,Low Wage,6322,Cooks,Unknown,1,44.646362,-63.574407
Nova Scotia,3290188 NS limited,"Halifax, NS B3M 3Y7",1,Low Wage,6322,Cooks,Unknown,1,44.66328,-63.653935
Nova Scotia,3293656 Nova Scotia Limited,"Halifax, NS B3L 1A5",3,Low Wage,6322,Cooks,Unknown,2,44.645173,-63.598083
Nova Scotia,3300590 Nova Scotia Limited,"Halifax, NS B3J 1Y2",2,Low Wage,6322,Cooks,Unknown,2,44.64012,-63.570421
Nova Scotia,3311032 Nova Scotia Limited,"Bedford, NS B4A 0C9",1,Low Wage,6311,Food service supervisors,Unknown,1,44.703998,-63.679207
Nova Scotia,3311051 Nova Scotia Ltd.,"HALIFAX, NS B3J 2G7",1,Low Wage,6322,Cooks,Unknown,1,44.649349,-63.578146
Nova Scotia,3316696 NS Ltd.,"Kentville, NS B4N 2N1",4,Low Wage,6322,Cooks,Unknown,1,45.077297,-64.496703
Nova Scotia,3322016 NOVA SCOTIA LIMITED,"HALIFAX, NS B3K 1K5",2,Low Wage,6322,Cooks,Unknown,1,44.654837,-63.591716
Nova Scotia,3323091 Nova Scotia Ltd.,"Truro, NS B2N 4Z6",4,Low Wage,6321,Chefs,Unknown,1,45.359649,-63.290421
Nova Scotia,3324608 novascotia limited,"halifax, NS B3K 1Z7",1,Low Wage,6711,"Food counter attendants, kitchen helpers and related support occupations",Unknown,1,44.662383,-63.598733
Nova Scotia,3327191 Nova Scotia Limited,"Upper Tantallon, NS B3Z 1E2",1,Low Wage,6311,Food service supervisors,Unknown,1,44.6879635,-63.8757104
Nova Scotia,3327191 Nova Scotia Limited,"Upper Tantallon, NS B3Z 1E2",1,Low Wage,6322,Cooks,Unknown,1,44.6879635,-63.8757104
Nova Scotia,3334892 NOVA SCOTIA LIMITED,"BEDFORD, NS B4B 2E6",1,Low Wage,6711,"Food counter attendants, kitchen helpers and related support occupations",Unknown,1,44.7078571,-63.704372
Nova Scotia,3343574 Nova Scotia Limited,"Halifax, NS B3K 4C1",1,Low Wage,6322,Cooks,Unknown,1,44.653094,-63.590311
Nova Scotia,4025837 NOVA SCOTIA LIMITED,"Halifax, NS B3J 2C3",1,Low Wage,6322,Cooks,Unknown,1,44.645015,-63.574448
Nova Scotia,4198244 NOVA SCOTIA LTD,"Dartmouth, NS B2X 3J7",2,Low Wage,6322,Cooks,Unknown,1,44.700132,-63.538408
Nova Scotia,4347646 Nova Scotia Limited,"Dartmouth, NS B3A 1J7",1,Low Wage,6731,Light duty cleaners,Unknown,1,44.6823,-63.596969
Nova Scotia,Adcor Marketing Limited,"yarmouth, NS B5A 2T6",3,Low Wage,6311,Food service supervisors,Unknown,3,43.8441038,-66.1070988
Nova Scotia,Adcor Marketing Limited,"yarmouth, NS B5A 2T6",12,Low Wage,6711,"Food counter attendants, kitchen helpers and related support occupations",Unknown,3,43.8441038,-66.1070988
Nova Scotia,Advanced Hotels Inc,"Dartmouth, NS B3B 0J3",3,Low Wage,6711,"Food counter attendants, kitchen helpers and related support occupations",Unknown,1,44.6740112304688,-63.5753402709961
Nova Scotia,Advanced Hotels Inc,"Dartmouth, NS B3B 0J3",5,Low Wage,6731,Light duty cleaners,Unknown,1,44.6740112304688,-63.5753402709961
Nova Scotia,Apple Valley Foods Inc,"Kentville, NS B4N 3V7",78,Low Wage,9617,"Labourers in food, beverage and associated products processing",Unknown,2,45.067163,-64.547804
Nova Scotia,Atlantic Oriental Wholesale (AOW) Incorporated.,"Upper Port la Tour, NS B0W 3N0",7,Low Wage,9463,Fish and seafood plant workers,Unknown,2,43.512731,-65.382133
Nova Scotia,Bakeco Management Inc,"Eastern Passage, NS B3G 1M6",1,Low Wage,6311,Food service supervisors,Unknown,1,44.615561,-63.492851
Nova Scotia,BLUEMOUNT GROUP LIMITED,"Dartmouth, NS B3A 1M9",1,Low Wage,6711,"Food counter attendants, kitchen helpers and related support occupations",Unknown,1,44.673086,-63.582885
Nova Scotia,Brycon Construction Limited,"Dartmouth, NS B2Y 4P4",10,Low Wage,7611,Construction trades helpers and labourers,Unknown,1,44.6515295,-63.5430205
Nova Scotia,Brycon Construction Limited,"Dartmouth, NS B2Y 4P4",1,Low Wage,7612,Other trades helpers and labourers,Unknown,1,44.6515295,-63.5430205
Nova Scotia,Buta Ramen Inc.,"Halifax, NS B3J 1B3",1,Low Wage,6322,Cooks,Unknown,1,44.641991,-63.570289
Nova Scotia,Caissieco Enterprises,"Cole Harbour, NS B2W 6E4",6,Low Wage,6211,Retail sales supervisors,Unknown,2,44.674969,-63.491385
Nova Scotia,Christopher Robin's Learning Centre Inc,"Dartmouth, NS B3B 1W4",1,Low Wage,6322,Cooks,Unknown,1,44.707729,-63.595386
Nova Scotia,CRS TRADING LTD,"Greenwood, NS B0P 1N0",1,Low Wage,0631,Restaurant and food service managers,Unknown,1,44.993606,-64.970043
Nova Scotia,d`Eon Boatbuilding Ltd,"Yarmouth, NS B0W 2M0",2,Low Wage,7611,Construction trades helpers and labourers,Unknown,1,43.614492,-65.802918
Nova Scotia,daddy green's pizza & sea food,"Lantz, NS B2S 1P5",1,Low Wage,6322,Cooks,Unknown,1,44.9862566,-63.4840057
Nova Scotia,DANJI RESTAURANT,"Wolfville, NS B4P 1Z9",1,Low Wage,6322,Cooks,Unknown,1,45.0913988,-64.3642577
Nova Scotia,Dartmouth Crossing Hotel Operating Limited Partnership o/a Hampton Inn and Suites by Hilton,"Dartmouth, NS B3B 0G2",5,Low Wage,6731,Light duty cleaners,Unknown,1,44.7017544,-63.5621398
Nova Scotia,DB Embroidery Solutions,"Dartmouth, NS B2W 3T9",1,Low Wage,9442,"Weavers, knitters and other fabric making occupations",Unknown,1,44.698165,-63.493261
Nova Scotia,DC Ventures Inc.,"Dartmouth, NS B2W 3E6",5,Low Wage,6311,Food service supervisors,Unknown,3,44.68081,-63.539707
Nova Scotia,Doraku Foods LTD,"Dartmouth, NS B2W 2L7",1,Low Wage,6322,Cooks,Unknown,1,44.690606,-63.500427
Nova Scotia,Down East Hospitality Incorporated,"Dartmouth, NS B2Y 1N7",9,Low Wage,6711,"Food counter attendants, kitchen helpers and related support occupations",Unknown,1,44.680926,-63.546841
Nova Scotia,Dragon Ebikes Ltd.,"Halifax, NS B3K 3B4",1,Low Wage,6211,Retail sales supervisors,Unknown,1,44.652437,-63.584041
Nova Scotia,East Coast Wild Blueberry Limited,"Great Village, NS B0M 1L0",26,Low Wage,9619,"Other labourers in processing, manufacturing and utilities",Unknown,2,45.369405,-63.662186
Nova Scotia,EBENEZER153 INC,"BEDFORD, NS B4A 3Z5",2,Low Wage,6322,Cooks,Unknown,1,44.731275,-63.659522
Nova Scotia,Fisher Direct LTD,"Shelburne County, NS B0W 3B0",4,Low Wage,9618,Labourers in fish and seafood processing,Unknown,1,43.506114,-65.718791
Nova Scotia,Fishermen's Premium Atlantic Lobster Inc.,"North East Point, NS B0W 2P0",4,Low Wage,9618,Labourers in fish and seafood processing,Unknown,1,43.490149,-65.613993
Nova Scotia,Fox Harb'r Development,"Fox Harbour, NS B0K 1Y0",4,Low Wage,6322,Cooks,Unknown,1,45.79188,-63.520605
Nova Scotia,Fox Harb'r Development,"Fox Harbour, NS B0K 1Y0",4,Low Wage,6513,Food and beverage servers,Unknown,1,45.79188,-63.520605
Nova Scotia,Fox Harb'r Development,"Fox Harbour, NS B0K 1Y0",4,Low Wage,6711,"Food counter attendants, kitchen helpers and related support occupations",Unknown,1,45.79188,-63.520605
Nova Scotia,Fox Harb'r Development,"Fox Harbour, NS B0K 1Y0",4,Low Wage,6731,Light duty cleaners,Unknown,1,45.79188,-63.520605
Nova Scotia,Fox Harb'r Development,"Fox Harbour, NS B0K 1Y0",4,Low Wage,8612,Landscaping and grounds maintenance labourers,Unknown,1,45.79188,-63.520605
Nova Scotia,Fusion Foods Hfx Inc.,"Halifax, NS B3M 2K1",2,Low Wage,6322,Cooks,Unknown,1,44.674524,-63.64676
Nova Scotia,G.B.J. FOOD SERVICES LIMITED,"New Glasgow, NS B2H 2J8",1,Low Wage,6311,Food service supervisors,Unknown,1,45.5777654,-62.6664341
Nova Scotia,G.B.J. FOOD SERVICES LIMITED,"New Glasgow, NS B2H 2J8",4,Low Wage,6711,"Food counter attendants, kitchen helpers and related support occupations",Unknown,1,45.5777654,-62.6664341
Nova Scotia,Global Fine Foods Limited,"Windsor, NS B0N 2T0",2,Low Wage,6311,Food service supervisors,Unknown,1,44.819594,-64.318054
Nova Scotia,GOGA ATLANTIC INC,"STEWIACKE, NS B0N 2J0",1,Low Wage,6322,Cooks,Unknown,1,45.1884755,-63.3253614
Nova Scotia,HABANEROS MODERN TACO BAR LTD.,"Dartmouth, NS B3B 1B5",1,Low Wage,6711,"Food counter attendants, kitchen helpers and related support occupations",Unknown,1,44.693737,-63.600588
Nova Scotia,HALLS HARBOUR RESTAURANT & GIFT SHOP LTD.,"Centreville, NS B0P 1J0",4,Low Wage,6322,Cooks,Unknown,1,45.195976,-64.680474
Nova Scotia,Hotel N.S. Ownership Limited Partnership,"Halifax, NS B3H 2P6",5,Low Wage,6731,Light duty cleaners,Unknown,1,44.639525,-63.568835
Nova Scotia,It Takes a Village Inc.,"Halifax, NS B3S 1P9",1,Low Wage,4214,Early childhood educators and assistants,Unknown,1,44.67182,-63.676146
Nova Scotia,J.M.P Sayles Holdings Inc.,"Windsor, NS B0N 2T0",5,Low Wage,6711,"Food counter attendants, kitchen helpers and related support occupations",Unknown,1,44.819594,-64.318054
Nova Scotia,John Ross & Sons Ltd.,"Halifax, NS B3S 1B3",17,Low Wage,7452,Material handlers,Unknown,1,44.637971,-63.663711
Nova Scotia,KING KONG CLEANING SERVICES,"Halifax, NS B3M 3J3",1,Low Wage,6731,Light duty cleaners,Unknown,1,44.659984,-63.636073
Nova Scotia,Let’s Ko Restaurant Inc,"Bedford, NS B4A 0C1",2,Low Wage,6322,Cooks,Unknown,1,44.723968,-63.670679
Nova Scotia,M.J.N.J Investments Ltd,"Lunenburg, NS B0J 2C0",9,Low Wage,6711,"Food counter attendants, kitchen helpers and related support occupations",Unknown,2,44.37635,-64.309889
Nova Scotia,Madhav Food Inc.,"Dartmouth, NS B2W 3T8",1,Low Wage,0631,Restaurant and food service managers,Unknown,1,44.698124,-63.492276
Nova Scotia,Madhav Food Inc.,"Dartmouth, NS B2W 3T8",2,Low Wage,6322,Cooks,Unknown,1,44.698124,-63.492276
Nova Scotia,Mandox Inc.,"Annapolis Royal, NS B0S 1A0",2,Low Wage,6322,Cooks,Unknown,1,44.74364,-65.51801
Nova Scotia,MCLEAN'S SERVICE CENTER LIMITED,"Newport, NS B0N 2A0",5,Low Wage,6211,Retail sales supervisors,Unknown,2,45.034087,-63.870954
Nova Scotia,MCLEAN'S SERVICE CENTER LIMITED,"Newport, NS B0N 2A0",2,Low Wage,6421,Retail salespersons,Unknown,1,45.034087,-63.870954
Nova Scotia,Middle Eats Lebanese Cuisine Ltd,"Lower Sackville, NS B4E 1S1",2,Low Wage,6322,Cooks,Unknown,1,44.7747288,-63.6939057
Nova Scotia,Monastery PC Limited,"Monastery, NS B0H 1W0",2,Low Wage,6611,Cashiers,Unknown,1,45.605937,-61.66014
Nova Scotia,naan n curry Restaurant LTD,"Halifax, NS B3L 4N2",1,Low Wage,6322,Cooks,Unknown,1,44.644616,-63.599995
Nova Scotia,New Minas Subway Ltd.,"New Minas, NS B4N 3E6",1,Low Wage,6711,"Food counter attendants, kitchen helpers and related support occupations",Unknown,1,45.0677622,-64.4580487
Nova Scotia,Northeast Nutrition Inc,"Truro, NS B2N 6X8",8,Low Wage,9461,"Process control and machine operators, food, beverage and associated products processing",Unknown,1,45.343257,-63.293901
Nova Scotia,Ocean Pride Fisheries Ltd.,"Lower Wedgeport, NS B0W 2B0",22,Low Wage,9618,Labourers in fish and seafood processing,Unknown,1,43.717172,-65.97528
Nova Scotia,OCEANS EDGE SEAFOODS LTD.,"SALMON RIVER, NS B0W 2Y0",12,Low Wage,9618,Labourers in fish and seafood processing,Unknown,1,44.169749,-65.756352
Nova Scotia,Platinum Hospitality Inc,"Halifax, NS B3J 2A3",4,Low Wage,6322,Cooks,Unknown,1,44.6463101,-63.5736177
Nova Scotia,Quality Seafoods Limited,"Yarmouth, NS B5A 4B3",2,Low Wage,9618,Labourers in fish and seafood processing,Unknown,1,43.835289,-66.120629
Nova Scotia,R&G MacDonald Enterprises Ltd.,"Port Hawkesbury, NS B9A 2M4",1,Low Wage,0631,Restaurant and food service managers,Unknown,1,45.624118,-61.347106
Nova Scotia,R&G MacDonald Enterprises Ltd.,"Port Hawkesbury, NS B9A 2M4",4,Low Wage,6311,Food service supervisors,Unknown,3,45.624118,-61.347106
Nova Scotia,Royal Environmental Inc.,"Bedford, NS B4A 3Z2",15,Low Wage,7621,Public works and maintenance labourers,Corporation,1,44.71004,-63.681667
Nova Scotia,Salt Shaker Deli Ltd,"Lunenburg, NS B0J 2C0",2,Low Wage,6711,"Food counter attendants, kitchen helpers and related support occupations",Unknown,1,44.37635,-64.309889
Nova Scotia,Scotia Curry LTD.,"Hubbards, NS B0J 1T0",2,Low Wage,6322,Cooks,Unknown,1,44.643217,-64.05186
Nova Scotia,Sea Crest Fisheries Ltd,"Comeauville, NS B0W 2Z0",100,Low Wage,9463,Fish and seafood plant workers,Unknown,1,44.2643127441406,-66.1162567138672
Nova Scotia,Sea Crest Fisheries Ltd,"Comeauville, NS B0W 2Z0",10,Low Wage,9618,Labourers in fish and seafood processing,Unknown,1,44.2643127441406,-66.1162567138672
Nova Scotia,Sherlock Clothing Limited,"Halifax, NS B3S 0G4",2,Low Wage,7452,Material handlers,Unknown,1,44.6445308,-63.6677131
Nova Scotia,Sobeys Capital Incorporée,"Stellarton, NS B0K 1S0",1,Low Wage,6331,"Butchers, meat cutters and fishmongers ",Unknown,1,45.5583249,-62.6623249
Nova Scotia,Sobeys Inc.,"Stellarton, NS B0K 0A2",1,Low Wage,6211,Retail sales supervisors,Unknown,1,45.574316,-62.656599
Nova Scotia,Sobeys Inc.,"Stellarton, NS B0K 0A2",1,Low Wage,9462,"Industrial butchers and meat cutters, poultry preparers and related workers",Unknown,1,45.574316,-62.656599
Nova Scotia,Song's Korean Restaurant,"Halifax, NS B3L 1A4",1,Low Wage,6322,Cooks,Unknown,1,44.645526,-63.596843
Nova Scotia,Springfield Hotels (Halifax) Incorporated,"Enfield, NS B2T 0A2",5,Low Wage,6731,Light duty cleaners,Unknown,1,44.86467,-63.542091
Nova Scotia,Szechuan Restaurant Limited,"Bedford, NS B4A 4B5",1,Low Wage,6711,"Food counter attendants, kitchen helpers and related support occupations",Unknown,1,44.715896,-63.678123
Nova Scotia,TAKO SUSHI & RAMEN RESTAURANT LIMITED,"Bedford, NS B4A 0B8",1,Low Wage,6711,"Food counter attendants, kitchen helpers and related support occupations",Unknown,1,44.723968,-63.670679
Nova Scotia,The Popular Place Bakery Inc,"River Denys, NS B0E 2Y0",1,Low Wage,6711,"Food counter attendants, kitchen helpers and related support occupations",Unknown,1,45.804503,-61.012528
Nova Scotia,The Port Bistro Inc,"Port Williams, NS B0P 1T0",2,Low Wage,6322,Cooks,Unknown,1,45.159695,-64.362715
Nova Scotia,Tomcat Holdings Ltd.,"Upper Tantallon, NS B3Z 4R2",5,Low Wage,6711,"Food counter attendants, kitchen helpers and related support occupations",Unknown,1,44.7042178,-63.8558088
Nova Scotia,Vale Packaging Ltd.,"Hubbards, NS B0J 1T0",3,Low Wage,9422,Plastics processing machine operators,Unknown,1,44.643217,-64.05186
Nova Scotia,Valley Flaxflour Limited,"Middleton,, NS B0S 1P0",3,Low Wage,9617,"Labourers in food, beverage and associated products processing",Unknown,1,45.0103912353516,-65.089225769043
Nova Scotia,Victoria Co-operative Fisheries Ltd.,"Neil's Harbour, NS B0C 1N0",24,Low Wage,9463,Fish and seafood plant workers,Unknown,1,46.762745,-60.343878
Nova Scotia,WOW! Food Systems Incorporated,"Truro, NS B2N 6M5",1,Low Wage,6322,Cooks,Unknown,1,45.379159,-63.251277
Nova Scotia,Archibald Dairy Inc,"NewTown, Guysborough County, NS B2H 5C8",2,Primary Agriculture,8252,"Agricultural service contractors, farm supervisors and specialized livestock workers",Unknown,1,45.597419,-62.632811
Nova Scotia,Atlantic Poultry Incorporated,"Port Williams, NS B0P 1T0",1,Primary Agriculture,0821,Managers in agriculture,Corporation,1,45.159695,-64.362715
Nova Scotia,Atlantic Poultry Incorporated,"Port Williams, NS B0P 1T0",5,Primary Agriculture,8431,General farm workers,Corporation,1,45.159695,-64.362715
Nova Scotia,Barteaux Farms Ltd,"Moschelle, NS B0S 1A0",8,Primary Agriculture,8431,General farm workers,Corporation,1,44.74364,-65.51801
Nova Scotia,"Basinview Farms,LTD.","Canning, NS B0P 1H0",11,Primary Agriculture,8431,General farm workers,Unknown,1,45.026806,-64.165254
Nova Scotia,Birchleigh Farms LTD.,"Berwick, NS B0P 1E0",9,Primary Agriculture,8431,General farm workers,Unknown,1,45.090922,-64.823309
Nova Scotia,Black Avon Farms Ltd,"Antigonish, NS B0H 1R0",4,Primary Agriculture,8252,"Agricultural service contractors, farm supervisors and specialized livestock workers",Unknown,2,45.535195,-61.826747
Nova Scotia,Bragg Lumber Company,"Collingwood, NS B0M 1P0",10,Primary Agriculture,8431,General farm workers,Unknown,2,45.810473,-63.849946
Nova Scotia,Canard Orchards Ltd,"Centreville, NS B0P 1J0",22,Primary Agriculture,8431,General farm workers,Unknown,1,45.195976,-64.680474
Nova Scotia,CAP Farms Inc,"Grafton, NS B0P 1V0",4,Primary Agriculture,8431,General farm workers,Unknown,2,45.1708349,-64.7669826
Nova Scotia,Charles Keddy Farms Limited,"Lakeville, NS B4N 3V7",42,Primary Agriculture,8431,General farm workers,Unknown,2,45.067163,-64.547804
Nova Scotia,D & M Lightfoot Farms Ltd,"Wolfvllle, NS B4P  2S",8,Primary Agriculture,8431,General farm workers,Corporation,1,,
Nova Scotia,DeLong Farm Products Limited,"New Germany, NS B0R 1E0",20,Primary Agriculture,8432,Nursery and greenhouse workers,Unknown,1,44.469069,-64.620343
Nova Scotia,Eco Ponds Organics,"Lockhartville, NS B0P 1P0",4,Primary Agriculture,8431,General farm workers,Unknown,1,45.067011,-64.174361
Nova Scotia,Eisses Farms Ltd,"Northville, NS B0P 1J0",18,Primary Agriculture,8431,General farm workers,Unknown,1,45.195976,-64.680474
Nova Scotia,Elmridge Farm Ltd,"RR2 Centreville, NS B0P 1J0",8,Primary Agriculture,8431,General farm workers,Unknown,2,45.195976,-64.680474
Nova Scotia,Eyking Brothers Farm Ltd,"Millville, NS B1Y 2E2",3,Primary Agriculture,8431,General farm workers,Unknown,1,46.27095,-60.379651
Nova Scotia,Forest Hills Farms Ltd,"Great Village, NS B0M 1L0",18,Primary Agriculture,8431,General farm workers,Unknown,1,45.369405,-63.662186
Nova Scotia,G & C Hughes Enterprises Limited,"New Ross, NS B0J 2M0",40,Primary Agriculture,8432,Nursery and greenhouse workers,Unknown,1,44.7657928466797,-64.4158172607422
Nova Scotia,G.A.R. Tree Farms Ltd,"Barss Corner, NS B0R 1A0",10,Primary Agriculture,8432,Nursery and greenhouse workers,Unknown,1,44.6241188049316,-64.6746444702148
Nova Scotia,Gouchers Farm And Market Limited,"Kingston, NS B0P 1R0",12,Primary Agriculture,8431,General farm workers,Unknown,1,45.074551,-64.720682
Nova Scotia,High Point Orchards LTD.,"Kentville, NS B4N 3V7",30,Primary Agriculture,8431,General farm workers,Unknown,2,45.067163,-64.547804
Nova Scotia,Indian Garden Farms,"Hebbville, NS B4V 9E6",4,Primary Agriculture,8431,General farm workers,Unknown,1,44.351018,-64.539282
Nova Scotia,J & M Reeves Christmas Greens Limited,"New Ross, NS B0J 2M0",4,Primary Agriculture,8432,Nursery and greenhouse workers,Unknown,1,44.7657928466797,-64.4158172607422
Nova Scotia,Kilany Farms Ltd.,"Port Williams, NS B0P 1T0",4,Primary Agriculture,8431,General farm workers,Unknown,1,45.159695,-64.362715
Nova Scotia,Kimberlee Farms,"Centreville, NS B0P 1J0",11,Primary Agriculture,8431,General farm workers,Unknown,1,45.195976,-64.680474
Nova Scotia,M. KEDDY FARM & FOREST LTD.,"New Ross, NS B0J 2M0",6,Primary Agriculture,8432,Nursery and greenhouse workers,Unknown,1,44.7657928466797,-64.4158172607422
Nova Scotia,Melvin Farms Limited,"Canning, NS B0P 1H0",28,Primary Agriculture,8431,General farm workers,Unknown,3,45.026806,-64.165254
Nova Scotia,Northridge Farms N.S. Limited,"Aylesford, NS B0P 1C0",6,Primary Agriculture,8431,General farm workers,Unknown,1,45.066995,-64.800737
Nova Scotia,Oostdale Farm,"Antigonish, NS B2G 2J1",1,Primary Agriculture,8252,"Agricultural service contractors, farm supervisors and specialized livestock workers",Unknown,1,45.6124287,-61.9754247
Nova Scotia,Oxford Berry Farm,"Oxford, NS B0M 1P0",18,Primary Agriculture,8431,General farm workers,Unknown,1,45.810473,-63.849946
Nova Scotia,Perfect Berries Ltd.,"Berwick, NS B0P 1E0",17,Primary Agriculture,8431,General farm workers,Unknown,3,45.090922,-64.823309
Nova Scotia,Power Farms Inc.,"Canning, NS B0P 1H0",10,Primary Agriculture,8431,General farm workers,Unknown,1,45.026806,-64.165254
Nova Scotia,Randsland Farms Inc,"Canning, NS B0P 1H0",37,Primary Agriculture,8431,General farm workers,Unknown,3,45.026806,-64.165254
Nova Scotia,River Breeze Farm Limited,"Upper Onslow, NS B6L 6Y3",6,Primary Agriculture,8431,General farm workers,Unknown,1,45.3961213,-63.2848257
Nova Scotia,Sanhaven Farms Ltd,"Antigonish, NS B2G 2K9",2,Primary Agriculture,8252,"Agricultural service contractors, farm supervisors and specialized livestock workers",Unknown,1,45.6396,-62.04642
Nova Scotia,Sarsfield Farms Incorporated,"Kentville, NS B4N 3V7",26,Primary Agriculture,8431,General farm workers,Unknown,4,45.067163,-64.547804
Nova Scotia,Sawler Gardens Ltd.,"Somerset, NS B0P 1E0",8,Primary Agriculture,8431,General farm workers,Unknown,1,45.090922,-64.823309
Nova Scotia,Scothorn Farms Ltd,"Hardwood Lands, NS B0N 1Y0",5,Primary Agriculture,8252,"Agricultural service contractors, farm supervisors and specialized livestock workers",Unknown,2,44.9946916,-63.3453807
Nova Scotia,Skips General Maintenance,"wolfville, NS B4P 2R3",4,Primary Agriculture,8431,General farm workers,Unknown,1,45.068884,-64.348807
Nova Scotia,Stirlings Mountainside Farms 2017 Ltd,"Centreville, NS B0P 1J0",24,Primary Agriculture,8431,General farm workers,Unknown,1,45.195976,-64.680474
Nova Scotia,T. E. Boyle Farm & Forestry Limited,"Antigonish County, NS B0H 1A0",5,Primary Agriculture,8431,General farm workers,Unknown,1,45.60221,-61.744775
Nova Scotia,T.K. Palmer & Sons Contracting Inc.,"Greenwood, NS B0P 1R0",5,Primary Agriculture,8431,General farm workers,Unknown,1,45.074551,-64.720682
Nova Scotia,Vermeulen Farms Limited,"Canning, NS B0P 1H0",72,Primary Agriculture,8431,General farm workers,Unknown,2,45.026806,-64.165254
Nova Scotia,Vital Berry Farms,"Sheffield Mills, NS B0P 1J0",30,Primary Agriculture,8431,General farm workers,Unknown,2,45.195976,-64.680474
Nova Scotia,Walsh Farms Inc.,"Rockland, NS B0P 1E0",12,Primary Agriculture,8431,General farm workers,Corporation,1,45.090922,-64.823309
Nova Scotia,Webster Farms Limited,"Cambridge, NS B0P 1G0",36,Primary Agriculture,8431,General farm workers,Unknown,2,45.0180485,-64.6008165
Nova Scotia,Wildroot Farm Limited,"Waterville, NS B0P 1V0",4,Primary Agriculture,8431,General farm workers,Unknown,1,45.1708349,-64.7669826
Nova Scotia,Wohlgemuth Farms Ltd.,"Aylesford, NS B0P 1C0",1,Primary Agriculture,8431,General farm workers,Unknown,1,45.066995,-64.800737
Nova Scotia,ADM Systems Engineering Ltd.,"Bedford, NS B4A 0C1",1,Global Talent Stream,2147,Computer engineers (except software engineers and designers),Unknown,1,44.723968,-63.670679
Nova Scotia,Daxsonics Ultrasound Inc.,"Halifax, NS B3H 0A2",1,Global Talent Stream,2147,Computer engineers (except software engineers and designers),Unknown,1,44.639415,-63.580434
Nova Scotia,DeNova Inc.,"Halifax, NS B3K  1S",1,Global Talent Stream,2121,Biologists and related scientists,Corporation,1,,
Nova Scotia,Emera Energy Incorporated,"Halifax, NS B3J  1A",1,Global Talent Stream,2171,Information systems analysts and consultants,Corporation,1,,
Nova Scotia,Eyeread Inc.,"Halifax, NS B3K 3A9",1,Global Talent Stream,5131,"Producers, directors, choreographers and related occupations",Unknown,1,44.650647,-63.581341
Nova Scotia,Marinus Services ULC,"Halifax, NS B3L  2C",3,Global Talent Stream,0213,Computer and information systems managers,Corporation,3,,
Nova Scotia,Marinus Services ULC,"Halifax, NS B3L  2C",3,Global Talent Stream,2171,Information systems analysts and consultants,Corporation,3,,
Nova Scotia,Modest Tree Media Inc,"Halifax, NS B3K 2R6",1,Global Talent Stream,2173,Software engineers and designers,Unknown,1,44.665253,-63.613967
Nova Scotia,Nova Scotia Power Inc.,"Halifax, NS B3J 3S8",1,Global Talent Stream,2171,Information systems analysts and consultants,Unknown,1,44.64141,-63.568235
Nova Scotia,Rayleigh Solar Tech Inc.,"Dartmouth, NS B2Y 4M9",1,Global Talent Stream,2111,Physicists and astronomers,Corporation,1,44.660305,-63.542698
Nova Scotia,ResMed Halifax ULC,"Halifax, NS B3S 0H1",1,Global Talent Stream,0213,Computer and information systems managers,Corporation,1,44.656609,-63.668117
Nova Scotia,Ubisoft Entertainment Inc.,"Halifax, NS B3J 3R5",1,Global Talent Stream,5131,"Producers, directors, choreographers and related occupations",Unknown,1,44.645046,-63.57027
New Brunswick,707205 N.B. LTD.,"Saint John, NB E2J 3W9",1,High Wage,2282,User support technicians,Unknown,1,45.310191,-66.015935
New Brunswick,A.P. Concrete Fredericton  Inc.,"Richibucto Road, NB E3A 9X5",4,High Wage,9414,"Concrete, clay and stone forming operators",Unknown,1,45.9529954,-66.58262
New Brunswick,A.R. Rietzel Landscaping Ltd.,"Lutes Mountain, NB E1G 2T5",1,High Wage,7511,Transport truck drivers,Unknown,1,46.1198453,-64.9106755
New Brunswick,Benchmark Fabricators Inc.,"Moncton, NB E1H 0E2",2,High Wage,9417,Machining tool operators,Unknown,1,46.1945501,-64.7356195
New Brunswick,Birch Hill Construction Ltd.,"Moncton, NB E1C 9T2",6,High Wage,7521,Heavy equipment operators (except crane),Unknown,1,46.0956837,-64.8116141
New Brunswick,Clad-Tech Inc.,"Dieppe, NB E1A 0Z7",16,High Wage,7271,Carpenters,Unknown,2,46.079715,-64.72179
New Brunswick,ELEPHANT TRANSPORT INC,"Scoudouc, NB E4P 1A9",2,High Wage,7511,Transport truck drivers,Unknown,1,46.117245,-64.499995
New Brunswick,Forest Protection Limited,"Lincoln, NB E3B 7E6",2,High Wage,2271,"Air pilots, flight engineers and flying instructors",Unknown,2,45.87544,-66.53181
New Brunswick,Greenhaven Management Inc.,"Moncton, NB E1G 2K2",5,High Wage,7511,Transport truck drivers,Unknown,1,46.113755,-64.865156
New Brunswick,Horizon Health Network,"Miramichi, NB E1V 3G5",4,High Wage,3111,Specialist physicians,Unknown,3,47.00234,-65.546196
New Brunswick,Horizon Health Network,"Miramichi, NB E1V 3G5",1,High Wage,3112,General practitioners and family physicians,Unknown,1,47.00234,-65.546196
New Brunswick,"J.D. Irving, Limited - Woodlands Division","Saint John, NB E2L 4Z2",50,High Wage,8241,Logging machinery operators,Unknown,2,45.275652,-66.055638
New Brunswick,"J.D. Irving, Limited - Woodlands Division","Saint John, NB E2L 4Z2",25,High Wage,8422,Silviculture and forestry workers,Unknown,1,45.275652,-66.055638
New Brunswick,Jayprabhu Hospitality Inc.,"St Andrews, NB E5B 1A3",1,High Wage,6313,"Accommodation, travel, tourism and related services supervisors",Unknown,1,45.069209,-67.043047
New Brunswick,Jayprabhu Hospitality Inc.,"St Andrews, NB E5B 1A3",1,High Wage,7241,Electricians (except industrial and power system),Unknown,1,45.069209,-67.043047
New Brunswick,JPS Trucking Ltd,"Northampton, NB E7N 1E4",6,High Wage,7511,Transport truck drivers,Unknown,1,46.05162,-67.54977
New Brunswick,Leachmans Plumbing & Heating Ltd.,"Fredericton, NB E3A 3X9",1,High Wage,1123,"Professional occupations in advertising, marketing and public relations",Unknown,1,45.951608,-66.623256
New Brunswick,M.R.Enterprises Ltd.,"Richibucto Road, NB E3A 6X7",1,High Wage,1525,Dispatchers,Unknown,1,45.9512936,-66.5785261
New Brunswick,Murray Enterprises Ltd.,"Sussex Corner, NB E4E 2Y5",2,High Wage,7511,Transport truck drivers,Unknown,1,45.7100729,-65.4774611
New Brunswick,Neko Bobatee Inc.,"Fredericton, NB E3B 6J6",1,High Wage,0631,Restaurant and food service managers,Corporation,1,45.935245,-66.628837
New Brunswick,PRAMUKH96 INC.,"RENOUS, NB E9E 2E4",1,High Wage,0114,Other administrative services managers,Unknown,1,46.8156471252441,-65.7981719970703
New Brunswick,Simpson's Truck & Tractor Parts Ltd,"Saint John, NB E2M 0H4",1,High Wage,9211,"Supervisors, mineral and metal processing",Unknown,1,45.256545,-66.102786
New Brunswick,SWAN INTERNATIONAL HOLDINGS LTD.,"SAINT JOHN, NB E2J 1C7",1,High Wage,0124,"Advertising, marketing and public relations managers",Unknown,1,45.282456,-66.035508
New Brunswick,SWAN INTERNATIONAL HOLDINGS LTD.,"SAINT JOHN, NB E2J 1C7",1,High Wage,1211,"Supervisors, general office and administrative support workers",Unknown,1,45.282456,-66.035508
New Brunswick,Twin River Timber Inc.,"Bouctouche, NB E4S 3G3",1,High Wage,7312,Heavy,Unknown,1,46.483564,-64.731538
New Brunswick,Twin River Timber Inc.,"Bouctouche, NB E4S 3G3",2,High Wage,8241,Logging machinery operators,Unknown,1,46.483564,-64.731538
New Brunswick,Wildwood Masonry Ltd,"Saint John, NB E2L 3V9",1,High Wage,7205,"Contractors and supervisors, other construction trades, installers, repairers and servicers",Unknown,1,45.286739,-66.046267
New Brunswick,Yohan Enterprises Limited,"Fredericton, NB E3B 8P4",1,High Wage,0621,Retail and wholesale trade managers,Unknown,1,45.919542,-66.59722
New Brunswick,Yohan Enterprises Limited,"Fredericton, NB E3B 8P4",1,High Wage,1311,Accounting technicians and bookkeepers,Unknown,1,45.919542,-66.59722
New Brunswick,050523 NB Ltd,"Woodstock, NB E7M 5G5",9,Low Wage,6711,"Food counter attendants, kitchen helpers and related support occupations",Unknown,3,46.165002,-67.595162
New Brunswick,11656520 Canada Inc.,"Pointe Sapin, NB E9A 1V1",3,Low Wage,9213,"Supervisors, food, beverage and associated products processing",Unknown,1,47.0270462036133,-65.0327301025391
New Brunswick,11656520 Canada Inc.,"Pointe Sapin, NB E9A 1V1",120,Low Wage,9463,Fish and seafood plant workers,Unknown,1,47.0270462036133,-65.0327301025391
New Brunswick,11656520 Canada Inc.,"Pointe Sapin, NB E9A 1V1",7,Low Wage,9465,"Testers and graders, food, beverage and associated products processing",Unknown,1,47.0270462036133,-65.0327301025391
New Brunswick,11656520 Canada Inc.,"Pointe Sapin, NB E9A 1V1",25,Low Wage,9618,Labourers in fish and seafood processing,Unknown,1,47.0270462036133,-65.0327301025391
New Brunswick,12048779 Canada Inc.,"Bubartown, NB E7P 2J7",1,Low Wage,6525,Hotel front desk clerks,Unknown,1,46.370949,-67.44498
New Brunswick,1919599 Ontario Limited,"St John, NB E2J 0J2",1,Low Wage,6311,Food service supervisors,Unknown,1,45.260046,-65.9522479
New Brunswick,1974253 Ontario Limited,"Fredericton, NB E3C 0B8",1,Low Wage,6311,Food service supervisors,Unknown,1,45.9295417,-66.6645196
New Brunswick,2 Pats Enterprises Inc.,"Fredericton, NB E3B 1G1",27,Low Wage,6711,"Food counter attendants, kitchen helpers and related support occupations",Unknown,5,45.960108,-66.639381
New Brunswick,3 gringos restaurants Inc.,"Edmundston, NB E3V 2H5",2,Low Wage,6322,Cooks,Unknown,1,47.369728,-68.324437
New Brunswick,507267 NB,"BATHURST, NB E2A 2M6",2,Low Wage,6311,Food service supervisors,Unknown,1,47.620815,-65.667401
New Brunswick,611179 NB Inc.,"Moncton, NB E1G 2W5",2,Low Wage,6312,Executive housekeepers,Unknown,1,46.133307,-64.88621
New Brunswick,645527 NB Inc.,"Edmundston, NB E3V 2S7",4,Low Wage,6322,Cooks,Unknown,1,47.374235,-68.315512
New Brunswick,658711 NB LTD.,"Miramichi, NB E1V 1X4",1,Low Wage,6322,Cooks,Unknown,1,47.002659,-65.565487
New Brunswick,659533 NB Inc.,"Miramichi, NB E1N 3V4",1,Low Wage,8612,Landscaping and grounds maintenance labourers,Unknown,1,47.049672,-65.450023
New Brunswick,666453 NB LTD,"Dieppe, NB E1A 2C1",8,Low Wage,6722,"Operators and attendants in amusement, recreation and sport",Unknown,1,46.079715,-64.72179
New Brunswick,671102 NB Inc.,"Moncton, NB E1G 0N3",2,Low Wage,6322,Cooks,Unknown,1,46.125683,-64.83075
New Brunswick,692059 N.B.Inc.,"Moncton, NB E1C 1C8",1,Low Wage,6311,Food service supervisors,Unknown,1,46.089418,-64.774155
New Brunswick,692059 N.B.Inc.,"Moncton, NB E1C 1C8",2,Low Wage,6322,Cooks,Unknown,1,46.089418,-64.774155
New Brunswick,695716 NB Ltd,"Oromocto, NB E2V 2H5",1,Low Wage,6322,Cooks,Unknown,1,45.843188,-66.5046915
New Brunswick,699756 NB INC.,"Moncton, NB E1G 1A4",1,Low Wage,6322,Cooks,Unknown,1,46.115449,-64.838839
New Brunswick,700827 NB Inc.,"Fredericton, NB E3B 1B2",2,Low Wage,6322,Cooks,Unknown,2,45.962829,-66.642999
New Brunswick,701664 NB Inc,"Dieppe, NB E1A 1P2",2,Low Wage,6322,Cooks,Unknown,2,46.0958,-64.746912
New Brunswick,704483 N.B Inc,"Moncton, NB E1A 7B3",2,Low Wage,6211,Retail sales supervisors,Unknown,1,46.126308,-64.701651
New Brunswick,707326 NB Inc.,"Moncton, NB E1G 1A5",2,Low Wage,6322,Cooks,Unknown,1,46.117634,-64.84099
New Brunswick,723018 NB INC.,"Dieppe, NB E1A 9G5",1,Low Wage,6322,Cooks,Unknown,1,46.079715,-64.7217899
New Brunswick,736413 NB Inc.,"Sackville, NB E4L 4C3",2,Low Wage,6711,"Food counter attendants, kitchen helpers and related support occupations",Unknown,1,45.907817,-64.370936
New Brunswick,739155 NB Inc.,"Moncton, NB E1C 1E9",2,Low Wage,6322,Cooks,Unknown,1,46.088394,-64.778097
New Brunswick,739492 NB Inc.,"Moncton, NB E1A 8R5",1,Low Wage,6322,Cooks,Unknown,1,46.115071,-64.773157
New Brunswick,Academy Powerplay Daycare,"Moncton, NB E1G 2V6",1,Low Wage,4214,Early childhood educators and assistants,Unknown,1,46.103545,-64.862392
New Brunswick,Adrice Cormier Ltd.,"Cap-Pele, NB E4N 1J2",7,Low Wage,9618,Labourers in fish and seafood processing,Unknown,1,46.131531,-64.189808
New Brunswick,Allen's Enterprises Ltd.,"Timber River, NB E4M 3A1",1,Low Wage,6211,Retail sales supervisors,Unknown,1,46.210871,-64.256628
New Brunswick,AllTech Consulting Services Inc.,"Saint John, NB E2L 4S6",1,Low Wage,1311,Accounting technicians and bookkeepers,Corporation,1,45.281181,-66.053192
New Brunswick,Amco Fisheries Ltd,"Cap-Pelé, NB E4N 3B3",2,Low Wage,9463,Fish and seafood plant workers,Unknown,1,46.2154693603516,-64.2717361450195
New Brunswick,Baie Ste Anne Seafoods (2014) Inc.,"Escuminac, NB E9A 1V6",80,Low Wage,9463,Fish and seafood plant workers,Unknown,1,47.0689468383789,-64.9073638916016
New Brunswick,Baie Ste Anne Seafoods (2014) Inc.,"Escuminac, NB E9A 1V6",6,Low Wage,9465,"Testers and graders, food, beverage and associated products processing",Unknown,1,47.0689468383789,-64.9073638916016
New Brunswick,Baie Ste Anne Seafoods (2014) Inc.,"Escuminac, NB E9A 1V6",30,Low Wage,9618,Labourers in fish and seafood processing,Unknown,1,47.0689468383789,-64.9073638916016
New Brunswick,BKR Management Inc.,"Woodstock, NB E7M 5G5",2,Low Wage,6311,Food service supervisors,Unknown,1,46.165002,-67.595162
New Brunswick,BKR Management Inc.,"Woodstock, NB E7M 5G5",33,Low Wage,6711,"Food counter attendants, kitchen helpers and related support occupations",Unknown,11,46.165002,-67.595162
New Brunswick,BOLERO Shellfish Processing Inc.,"St.-Simon, NB E8P 2B2",50,Low Wage,9463,Fish and seafood plant workers,Unknown,1,47.624341,-65.230642
New Brunswick,Botsford Fisheries Ltd.,"Petit-Cap, NB E4N 2J8",17,Low Wage,9463,Fish and seafood plant workers,Unknown,2,46.223794,-64.538469
New Brunswick,Bouctouche Bay Inn Inc.,"Lincoln, NB E3B 9J1",1,Low Wage,6322,Cooks,Unknown,1,45.879402,-66.681903
New Brunswick,Britts Pub Limited,"Saint John, NB E2L 1K2",2,Low Wage,6322,Cooks,Unknown,1,45.271315,-66.061731
New Brunswick,BWS Manufacturing Ltd,"Centreville, NB E7K 1A4",8,Low Wage,7612,Other trades helpers and labourers,Unknown,1,46.430804,-67.711629
New Brunswick,C&A Toner Ltd,"Grand Falls, NB E3Z 2W1",4,Low Wage,6311,Food service supervisors,Unknown,3,47.0454504,-67.7448011
New Brunswick,Cafe JEG Ruest Inc.,"Saint Leonard, NB E7E 2B6",2,Low Wage,6711,"Food counter attendants, kitchen helpers and related support occupations",Unknown,1,47.173416,-67.92347
New Brunswick,Cap Pele Bait Inc,"Cap-Pele, NB E4N 1Z7",61,Low Wage,9463,Fish and seafood plant workers,Unknown,2,46.208204,-64.28212
New Brunswick,Central Garage Limited,"Atholville, NB E3N 3Z2",2,Low Wage,7321,"Automotive service technicians, truck and bus mechanics and mechanical repairers",Unknown,1,47.983828,-66.737883
New Brunswick,Central Garage Limited,"Atholville, NB E3N 3Z2",2,Low Wage,7322,Motor vehicle body repairers,Unknown,2,47.983828,-66.737883
New Brunswick,Chef Quang Tran Holdings LTD,"Dieppe, NB E1A 1P4",1,Low Wage,6322,Cooks,Unknown,1,46.098038,-64.73566
New Brunswick,Delhi Indian Bistro Inc.,"Moncton, NB E1G 4Y1",1,Low Wage,6322,Cooks,Unknown,1,46.112757,-64.851399
New Brunswick,Despres Fisheries Ltd.,"Petit-Cap, NB E4N 2G6",7,Low Wage,9463,Fish and seafood plant workers,Unknown,1,46.223774,-64.538469
New Brunswick,DILLI DELIGHT INC.,"Bathurst, NB E2A 1A9",2,Low Wage,6322,Cooks,Unknown,1,47.620472,-65.651146
New Brunswick,Duguay Fish Packers Ltd,"cap-pele, NB E4N 1K9",8,Low Wage,9618,Labourers in fish and seafood processing,Unknown,2,46.229781,-64.250208
New Brunswick,Elphege & Norbert Leblanc Ltd,"Petit Cap, NB E4N 2E8",20,Low Wage,9463,Fish and seafood plant workers,Unknown,2,46.314749,-64.515918
New Brunswick,Fancy Pokket Corporation,"Moncton, NB E1E 4K7",7,Low Wage,9617,"Labourers in food, beverage and associated products processing",Unknown,1,46.080337,-64.833167
New Brunswick,FARAH AUTO BODY LTD,"SACKVILLE, NB E4L 1J3",2,Low Wage,6732,Specialized cleaners,Unknown,1,45.902519,-64.355935
New Brunswick,FMI Atlantic Inc.,"Woodstock, NB E7M 5G5",2,Low Wage,0631,Restaurant and food service managers,Unknown,2,46.165002,-67.595162
New Brunswick,FMI Atlantic Inc.,"Woodstock, NB E7M 5G5",7,Low Wage,6311,Food service supervisors,Unknown,6,46.165002,-67.595162
New Brunswick,FMI Atlantic Inc.,"Woodstock, NB E7M 5G5",134,Low Wage,6711,"Food counter attendants, kitchen helpers and related support occupations",Unknown,57,46.165002,-67.595162
New Brunswick,FMI National Inc,"Woodstock, NB E7M 5G5",1,Low Wage,0631,Restaurant and food service managers,Unknown,1,46.165002,-67.595162
New Brunswick,FMI National Inc,"Woodstock, NB E7M 5G5",1,Low Wage,6311,Food service supervisors,Unknown,1,46.165002,-67.595162
New Brunswick,FMI National Inc,"Woodstock, NB E7M 5G5",8,Low Wage,6711,"Food counter attendants, kitchen helpers and related support occupations",Unknown,6,46.165002,-67.595162
New Brunswick,Future nets & Supplies Ltd.,"Pennfield, NB E5H 1W7",4,Low Wage,8613,Aquaculture and marine harvest labourers,Unknown,1,45.125452,-66.750189
New Brunswick,GANESH RESTAURANT INC.,"Sackville, NB E4L 4B5",1,Low Wage,0631,Restaurant and food service managers,Unknown,1,45.900852,-64.372932
New Brunswick,Grass Home Ltd,"Riverview, NB E1B 3K9",1,Low Wage,3413,"Nurse aides, orderlies and patient service associates",Unknown,1,46.0619609,-64.8127517
New Brunswick,Huitres Aquador Inc.,"Aldouane, NB E4W 5L9",2,Low Wage,9463,Fish and seafood plant workers,Unknown,1,46.707454,-65.143635
New Brunswick,Jubilee Hospitality Ltd.,"Moncton, NB E1G 1B4",1,Low Wage,6311,Food service supervisors,Unknown,1,46.126634,-64.865198
New Brunswick,Juniper Organics Limited,"Saint John, NB E2L 4Z2",5,Low Wage,8431,General farm workers,Unknown,1,45.275652,-66.055638
New Brunswick,Knocean Foods Ltd.,"Scoudouc, NB E4P 3N6",1,Low Wage,9463,Fish and seafood plant workers,Unknown,1,46.169365,-64.583078
New Brunswick,Landco Construction Ltd.,"Trois Ruisseaux, NB E4N 2V7",12,Low Wage,7611,Construction trades helpers and labourers,Unknown,1,46.223835,-64.538469
New Brunswick,Les Tourbières Berger Ltee,"Escuminac, NB E9A 1G4",1,Low Wage,9421,Chemical plant machine operators,Unknown,1,47.0666897,-64.976176
New Brunswick,Leslie Leger & Sons Ltd,"Cap Pele, NB E4N 3B3",114,Low Wage,9463,Fish and seafood plant workers,Unknown,2,46.2154693603516,-64.2717361450195
New Brunswick,MANAWA HOLDINGS LTD. O/a Tim Hortons,"Bathurst, NB E2A 4P4",2,Low Wage,6711,"Food counter attendants, kitchen helpers and related support occupations",Unknown,1,47.638411,-65.673938
New Brunswick,Mario Richard Roofing LTD,"Saint Antoine, NB E4V 1K3",4,Low Wage,7611,Construction trades helpers and labourers,Unknown,1,46.3724075,-64.7576635
New Brunswick,Michel & Charles LeBlanc Fisheries Ltd,"Cap-Pele, NB E4N 1V2",14,Low Wage,9463,Fish and seafood plant workers,Unknown,2,46.233567,-64.258002
New Brunswick,Mitton's Food Service Inc.,"Riverview, NB E1B 3J2",1,Low Wage,0631,Restaurant and food service managers,Unknown,1,46.0686143,-64.7925265
New Brunswick,Murphy QSR Ltd.,"Saint John, NB E2L 1G4",5,Low Wage,6311,Food service supervisors,Unknown,1,45.273168,-66.060486
New Brunswick,Nam & Rim Inc.,"St. George, NB E5C 1A9",1,Low Wage,6322,Cooks,Unknown,1,45.13017,-66.8409
New Brunswick,"NOCA Canadian Seafood Buyer, Inc.","Grande-Digue NB, NB E4R 4H7",157,Low Wage,9463,Fish and seafood plant workers,Unknown,1,46.321068,-64.536383
New Brunswick,"NOCA Canadian Seafood Buyer, Inc.","Grande-Digue NB, NB E4R 4H7",70,Low Wage,9618,Labourers in fish and seafood processing,Unknown,1,46.321068,-64.536383
New Brunswick,Ocean Pier Inc,"Scoudouc, NB E4P 3R4",225,Low Wage,9463,Fish and seafood plant workers,Unknown,1,46.167616,-64.584942
New Brunswick,Ontask Hospitality Group Inc,"Shediac, NB E4P 2N1",4,Low Wage,3413,"Nurse aides, orderlies and patient service associates",Unknown,1,46.217125,-64.536255
New Brunswick,Ontask Hospitality Group Inc,"Shediac, NB E4P 2N1",1,Low Wage,6322,Cooks,Unknown,1,46.217125,-64.536255
New Brunswick,Pêcheries Bas-Caraquet Fisheries Inc.,"Bas-Caraquet, NB E1W 5Z2",42,Low Wage,9463,Fish and seafood plant workers,Unknown,1,47.541565,-64.919881
New Brunswick,Petit-Cap Fisheries Ltd.,"Petit-Cap, NB E4N 2J6",9,Low Wage,9618,Labourers in fish and seafood processing,Unknown,1,46.223792,-64.538469
New Brunswick,Pettingill Manor Special Care Home,"Quispamsis, NB E2E 3R9",2,Low Wage,4412,"Home support workers, housekeepers and related occupations",Unknown,1,45.41331,-65.973372
New Brunswick,POISSONNERIE LEGER FISHERIES LTEE/LTD,"Trois-Ruisseaux, NB E4N 2V7",3,Low Wage,9463,Fish and seafood plant workers,Unknown,1,46.223835,-64.538469
New Brunswick,Premium Caulking Inc.,"Memramcook, NB E4K 3X6",3,Low Wage,7611,Construction trades helpers and labourers,Unknown,1,46.022913,-64.603505
New Brunswick,Price Contractors Ltd,"Lutes Mountain, NB E1G 2M2",6,Low Wage,2225,Landscape and horticulture technicians and specialists,Unknown,1,46.133768,-64.902006
New Brunswick,Provincial Bandag Tires Ltée,"Edmundston, NB E3V 1G6",1,Low Wage,7535,Other automotive mechanical installers and servicers,Unknown,1,47.359573,-68.347167
New Brunswick,Red Satay Dieppe Inc.,"Dieppe, NB E1A 9G5",1,Low Wage,6322,Cooks,Unknown,1,46.079715,-64.7217899
New Brunswick,Red Satay Dieppe Inc.,"Dieppe, NB E1A 9G5",2,Low Wage,6711,"Food counter attendants, kitchen helpers and related support occupations",Unknown,1,46.079715,-64.7217899
New Brunswick,Richibucto Food Services Inc.,"Salisbury, NB E4J 0E7",2,Low Wage,6311,Food service supervisors,Unknown,1,46.043072,-65.035266
New Brunswick,Richibucto Food Services Inc.,"Salisbury, NB E4J 0E7",2,Low Wage,6322,Cooks,Unknown,1,46.043072,-65.035266
New Brunswick,Richibucto Food Services Inc.,"Salisbury, NB E4J 0E7",1,Low Wage,6611,Cashiers,Unknown,1,46.043072,-65.035266
New Brunswick,Robin&Grace Retail Ltd.,"Scoudouc, NB E4P 3S1",1,Low Wage,6211,Retail sales supervisors,Unknown,1,46.144671,-64.564878
New Brunswick,ROLAND RIOUX LTEE,"CARAQUET, NB E1W 1B6",3,Low Wage,6711,"Food counter attendants, kitchen helpers and related support occupations",Unknown,1,47.792901,-64.941791
New Brunswick,ROLAND RIOUX LTEE,"PAQUETVILLE, NB E8R 1J6",3,Low Wage,6711,"Food counter attendants, kitchen helpers and related support occupations",Unknown,1,47.738865,-64.710237
New Brunswick,Shediac Lobster Shop Ltd.,"Shediac, NB E4P 2A6",8,Low Wage,9463,Fish and seafood plant workers,Unknown,1,46.21997,-64.53642
New Brunswick,South Shore Trading Co. Ltd.,"Port Elgin, NB E4M 3Y9",3,Low Wage,9463,Fish and seafood plant workers,Unknown,1,46.050788,-64.088216
New Brunswick,Sunnymel LP,"Clair, NB E7A 2G6",25,Low Wage,9617,"Labourers in food, beverage and associated products processing",Unknown,1,47.2667812,-68.599531
New Brunswick,Thaddee & Alverie Fisheries Ltd,"Petit-Cap, NB E4N 2G7",5,Low Wage,9463,Fish and seafood plant workers,Unknown,1,46.223775,-64.538469
New Brunswick,THAI MANAO INC,"Fredericton, NB E3C 0B8",1,Low Wage,6711,"Food counter attendants, kitchen helpers and related support occupations",Unknown,1,45.9295417,-66.6645196
New Brunswick,Thankful Too Seafood,"Alma, NB E4H 1K4",3,Low Wage,6322,Cooks,Unknown,1,45.601237,-64.941134
New Brunswick,TLC PIZZA (2010) INC.,"Oromocto, NB E2V 1B8",1,Low Wage,6711,"Food counter attendants, kitchen helpers and related support occupations",Unknown,1,45.852507,-66.468831
New Brunswick,W. J. Allen & Sons Inc.,"Aulac, NB E4L 2X2",3,Low Wage,6322,Cooks,Unknown,1,45.882979,-64.296257
New Brunswick,W. J. Allen & Sons Inc.,"Aulac, NB E4L 2X2",2,Low Wage,6511,Maîtres d'hôtel and hosts/hostesses,Unknown,1,45.882979,-64.296257
New Brunswick,W. J. Allen & Sons Inc.,"Aulac, NB E4L 2X2",6,Low Wage,6711,"Food counter attendants, kitchen helpers and related support occupations",Unknown,2,45.882979,-64.296257
New Brunswick,W. J. Allen & Sons Inc.,"Aulac, NB E4L 2X2",2,Low Wage,6731,Light duty cleaners,Unknown,1,45.882979,-64.296257
New Brunswick,Willowgrove Convenience Pizza Shack,"Willow Grove, NB E2S 1G7",1,Low Wage,6322,Cooks,Unknown,1,45.3327876,-65.8367332
New Brunswick,Wing'n It Moncton Inc.,"Moncton, NB E1H 2G9",2,Low Wage,6322,Cooks,Unknown,1,46.126746,-64.770622
New Brunswick,Wing'n It Moncton Inc.,"Moncton, NB E1H 2G9",1,Low Wage,6711,"Food counter attendants, kitchen helpers and related support occupations",Unknown,1,46.126746,-64.770622
New Brunswick,Yanakee Restaurant Ltd,"Moncton, NB E1A 6V2",1,Low Wage,6322,Cooks,Unknown,1,46.11375,-64.773581
New Brunswick,Zhang's Restaurant Inc.,"Oromocto, NB E2V 2H5",1,Low Wage,6322,Cooks,Unknown,1,45.843188,-66.5046915
New Brunswick,Zoa Mansu B.B.Q Inc,"Dieppe, NB E1A 1G1",1,Low Wage,6322,Cooks,Unknown,1,46.088634,-64.736314
New Brunswick,624899 N.-B. ltée,"St-Quentin, NB E8A 1N9",1,Primary Agriculture,8431,General farm workers,Unknown,1,47.512945,-67.393641
New Brunswick,662100,"Grande-Anse, NB E8N 1A1",7,Primary Agriculture,8431,General farm workers,Unknown,2,47.802081,-65.210546
New Brunswick,690487NB Inc.,"Prince William, NB E6K 3T3",6,Primary Agriculture,8431,General farm workers,Unknown,1,45.89115,-67.00802
New Brunswick,694758 N.B. Inc.,"Baie de Bouctouche, NB E4S 4P5",5,Primary Agriculture,8431,General farm workers,Unknown,1,46.521577,-64.686015
New Brunswick,Acadian Exotic Mushrooms Ltd.,"Eel River Crossing, NB E8E 1R5",1,Primary Agriculture,8431,General farm workers,Unknown,1,48.010957,-66.416966
New Brunswick,Acadian Exotic Mushrooms Ltd.,"Eel River Crossing, NB E8E 1R5",1,Primary Agriculture,8611,Harvesting labourers,Unknown,1,48.010957,-66.416966
New Brunswick,B. McGrath & Son's Ltd,"LWR KNOXFORD, NB E7K 2R2",14,Primary Agriculture,8611,Harvesting labourers,Unknown,1,46.520918,-67.376507
New Brunswick,Bon Accord Elite Seed Potato Centre Inc.,"Grand Falls, NB E3Z  3E",2,Primary Agriculture,8611,Harvesting labourers,Non-Profit Organization,1,,
New Brunswick,Cavendish Farms Corporation,"Dieppe, NB E1A 6X4",4,Primary Agriculture,8431,General farm workers,Unknown,1,46.103269,-64.710436
New Brunswick,Cavendish Farms Corporations,"Dieppe, NB E1A 6X4",8,Primary Agriculture,8431,General farm workers,Corporation,2,46.103269,-64.710436
New Brunswick,Érablière Laplante et Fils inc.,"Saint-Quentin, NB E8A  2K",4,Primary Agriculture,8431,General farm workers,Co-operative,1,,
New Brunswick,Erabliere Le SiRoytier Inc,"Saint-Quentin, NB E8A 2E2",2,Primary Agriculture,8431,General farm workers,Corporation,1,47.644185,-67.343552
New Brunswick,ETRT Production Inc.,"DSL Drummond, NB E3Y 2V2",1,Primary Agriculture,8252,"Agricultural service contractors, farm supervisors and specialized livestock workers",Unknown,1,47.057085,-67.749476
New Brunswick,Ferme Bancourt ltée,"St-Quentin, NB E8A 2L3",3,Primary Agriculture,8252,"Agricultural service contractors, farm supervisors and specialized livestock workers",Unknown,1,47.513371,-67.3556478
New Brunswick,Ferme Semence Côté Seed Farm Inc.,"Drummond, NB E3Y  2S",6,Primary Agriculture,8431,General farm workers,Corporation,1,,
New Brunswick,"J.D. Irving, Limited - Woodlands Division","Saint John, NB E2L 4Z2",8,Primary Agriculture,8432,Nursery and greenhouse workers,Unknown,1,45.275652,-66.055638
New Brunswick,La Ferme Michaud Ltée / Michaud Farm Ltd.,"Baie de Bouctouche, NB E4S 4N9",6,Primary Agriculture,8431,General farm workers,Unknown,1,46.482892,-64.695008
New Brunswick,Les Fermes PL Levesque Ltee,"SAINT-ANDRE, NB E3Y 2W6",1,Primary Agriculture,8611,Harvesting labourers,Unknown,1,47.101463,-67.71015
New Brunswick,Les Petits Fruits de Pré-d'en-Haut Inc.,"Memramcook, NB E4K 1K8",56,Primary Agriculture,8431,General farm workers,Unknown,3,45.968083,-64.605089
New Brunswick,M&S Wild Blueberry Farms Ltd.,"Kouchibouguac, NB E4X 1L7",12,Primary Agriculture,8431,General farm workers,Unknown,1,46.7804571,-65.0902361
New Brunswick,Maple A.L. inc,"Kedgwick River, NB E8B 1V6",4,Primary Agriculture,8431,General farm workers,Unknown,1,47.680908203125,-67.1944961547852
New Brunswick,Maritime Pride Poultry Inc.,"St-François, NB E7A  1A",6,Primary Agriculture,8431,General farm workers,Corporation,1,,
New Brunswick,Meunerie Nord-Est(1990) Limitee,"Penobsquis, NB E4G 2Z4",3,Primary Agriculture,8252,"Agricultural service contractors, farm supervisors and specialized livestock workers",Unknown,1,45.796334,-65.26883
New Brunswick,MOXON'S COUNTRY PUMPKIN LTD,"Maugerville, NB E3A 8K8",10,Primary Agriculture,8431,General farm workers,Unknown,2,45.86769,-66.46758
New Brunswick,Orchard Shade Farms Ltd.,"NORTHAMPTON, NB E7N 1E2",8,Primary Agriculture,8431,General farm workers,Unknown,2,46.008901,-67.723568
New Brunswick,Robert S. Bates/Bates Landing,"Kiersteadville, NB E5T 3N7",7,Primary Agriculture,8431,General farm workers,Unknown,1,45.6313197,-65.8637347
New Brunswick,Roelridge Dairy Farm Ltd,"Mapledale, NB E7M 4T7",1,Primary Agriculture,8252,"Agricultural service contractors, farm supervisors and specialized livestock workers",Unknown,1,46.098483,-67.6742794
New Brunswick,Shadowave Holsteins Inc,"Second North River, NB E4J 2V9",11,Primary Agriculture,8431,General farm workers,Unknown,1,46.048894,-65.10039
New Brunswick,Silver Valley Farm's,"fredericton, NB E3E 1A5",6,Primary Agriculture,8431,General farm workers,Unknown,1,45.96419,-66.68003
New Brunswick,Slocum's Farm Fresh Produce Ltd.,"Waterborough, NB E4C 2Y3",5,Primary Agriculture,8431,General farm workers,Unknown,1,45.92795,-65.98819
New Brunswick,Strawberry Hill Farm,"Pembroke, NB E7N 1S7",6,Primary Agriculture,8431,General farm workers,Unknown,1,45.876725,-67.553391
New Brunswick,The Bates Family Orchard Inc.,"Kars, NB E5T 3G1",2,Primary Agriculture,8431,General farm workers,Corporation,1,45.5649615,-65.99111
New Brunswick,Toner Produce Ltd.,"Grand Falls, NB E3Z 1P9",4,Primary Agriculture,8431,General farm workers,Unknown,2,47.042395,-67.742005
New Brunswick,Tuddenham Farms Ltd,"St. Stephen, NB E3L 2X1",14,Primary Agriculture,8431,General farm workers,Unknown,1,45.216314,-67.163185
New Brunswick,12916134 Canada Inc.,"Moncton, NB E1G 0R8",1,Global Talent Stream,2174,Computer programmers and interactive media developers,Unknown,1,46.196012,-64.948052
New Brunswick,IGT Solutions Canada ULC,"Moncton, NB E1H 2R6",1,Global Talent Stream,2173,Software engineers and designers,Unknown,1,46.131267,-64.744966
Quebec,10036099 Canada Inc.,"Montreal, QC H2L 1K2",2,High Wage,2173,Software engineers and designers,Unknown,2,45.518684,-73.566679
Quebec,10271292 Canada Inc.,"Québec, QC G1K 7R1",1,High Wage,2132,Mechanical engineers,Unknown,1,46.816727,-71.213123
Quebec,11103253 CANADA INC.,"Montréal, QC H2K 1C3",1,High Wage,1224,Property administrators,Unknown,1,45.531061,-73.562907
Quebec,11535811 canada inc,"Gatineau, QC J9A 3C3",1,High Wage,1311,Accounting technicians and bookkeepers,Unknown,1,45.4453252,-75.7854617
Quebec,11835530 Canada Inc.,"Montréal, QC H2V 2K3",1,High Wage,6322,Cooks,Corporation,1,45.526713,-73.58968
Quebec,141200 Canada Ltd.,"St-Leonard, QC H1P 1Z3",1,High Wage,7321,"Automotive service technicians, truck and bus mechanics and mechanical repairers",Unknown,1,45.603962,-73.592401
Quebec,168711 CANADA INC,"Gatineau, QC J8T 8N7",1,High Wage,2175,Web designers and developers,Unknown,1,45.479205,-75.697993
Quebec,2310-2098 Québec Inc. (Les Toitures B.L.P. ENR.),"Sept-îles, QC G4R 3K2",2,High Wage,7291,Roofers and shinglers,Corporation,1,50.21187,-66.364298
Quebec,2332-3983 QUÉBEC INC.,"Contrecoeur, QC J0L 1C0",1,High Wage,7321,"Automotive service technicians, truck and bus mechanics and mechanical repairers",Unknown,1,45.933964,-73.203894
Quebec,2645-3530 Québec Inc.,"Amos, QC J9T 3A2",2,High Wage,7321,"Automotive service technicians, truck and bus mechanics and mechanical repairers",Corporation,1,48.560137,-78.118985
Quebec,2697602 CANADA Inc.,"Montreal, QC H1R 1A1",1,High Wage,7381,Printing press operators,Corporation,1,45.58435,-73.622902
Quebec,2701545 CANADA INC,"Lachine, QC H8R 1H3",1,High Wage,2175,Web designers and developers,Unknown,1,45.4474297,-73.6353617
Quebec,2701545 CANADA INC,"Lachine, QC H8R 1H3",3,High Wage,7321,"Automotive service technicians, truck and bus mechanics and mechanical repairers",Unknown,1,45.4474297,-73.6353617
Quebec,2701545 CANADA INC,"Lachine, QC H8R 1H3",33,High Wage,7511,Transport truck drivers,Unknown,5,45.4474297,-73.6353617
Quebec,2736314 Canada inc.,"Montréal, QC H3A 1G9",1,High Wage,0631,Restaurant and food service managers,Corporation,1,,
Quebec,2754-8155 Québec Inc.,"Baie-Saint-Paul, QC G3Z 3B2",1,High Wage,2132,Mechanical engineers,Unknown,1,47.54626,-70.54052
Quebec,2818876 CANADA INC.,"Longueuil, QC J4K 2X6",1,High Wage,1223,Human resources and recruitment officers,Corporation,1,45.513521,-73.502226
Quebec,2818876 CANADA INC.,"Longueuil, QC J4K 2X6",4,High Wage,7233,Sheet metal workers,Corporation,1,45.513521,-73.502226
Quebec,2859-2491 Québec Inc.,"Blanc Sablon, QC G0G 1W0",1,High Wage,7511,Transport truck drivers,Corporation,1,51.412024,-57.203117
Quebec,2950-0519 Québec inc.,"Rouyn-Noranda, QC J9X 6T3",1,High Wage,2233,Industrial engineering and manufacturing technologists and technicians,Unknown,1,48.220763,-79.01197
Quebec,2950-0519 Québec inc.,"Rouyn-Noranda, QC J9X 6T3",2,High Wage,7237,Welders and related machine operators,Unknown,2,48.220763,-79.01197
Quebec,2952-5656 Québec Inc.,"Québec, QC G1T  1Z",1,High Wage,6322,Cooks,Corporation,1,,
Quebec,2956-3632 Québec Inc.,"Montréal, QC H1Z 3B7",1,High Wage,7322,Motor vehicle body repairers,Unknown,1,45.5658785,-73.6161918
Quebec,2969-6366 Québec Inc,"Grand Remous, QC J0W 1E0",3,High Wage,7312,Heavy,Unknown,1,46.781744,-75.867193
Quebec,3180751 CANADA INC,"LÉVIS, QC G6Y 0C2",1,High Wage,9523,"Electronics assemblers, fabricators, inspectors and testers",Unknown,1,,
Quebec,3767396 Canada Inc.,"Salaberry-Valleyfield, QC J6T 6M6",2,High Wage,7237,Welders and related machine operators,Corporation,1,45.23089,-74.115877
Quebec,3785408 CANADA INC,"CANTLEY, QC J8V 0G6",1,High Wage,7321,"Automotive service technicians, truck and bus mechanics and mechanical repairers",Corporation,1,45.5355915,-75.7693396
Quebec,3903214 Canada Inc,"Montréal, QC H1C 2A2",1,High Wage,7312,Heavy,Unknown,1,45.652952,-73.557529
Quebec,4042077 Canada Inc. (De Sousa Inc.),"Laval, QC H7E 1A1",2,High Wage,7321,"Automotive service technicians, truck and bus mechanics and mechanical repairers",Corporation,1,45.61416,-73.668973
Quebec,4473191 Canada Inc.,"Montréal, QC H3C 5X5",1,High Wage,1123,"Professional occupations in advertising, marketing and public relations",Unknown,1,45.510061,-73.55053
Quebec,6173306 Canada Inc.,"Amos, QC J9T 1H3",1,High Wage,0631,Restaurant and food service managers,Corporation,1,48.5716997,-78.1157926
Quebec,6565603 CANADA INC,"GATINEAU, QC J9J 3K5",3,High Wage,7312,Heavy,Unknown,1,45.451737,-75.807327
Quebec,7308850 Canada Inc. (Altitude Gym),"Gatineau, QC J8Y 1R5",1,High Wage,6532,Outdoor sport and recreational guides,Corporation,1,45.447297,-75.737587
Quebec,7349921 Canada Inc.,"Cantley, QC J8V 3W6",1,High Wage,2225,Landscape and horticulture technicians and specialists,Unknown,1,45.538322,-75.762121
Quebec,8003149 Canada inc.,"Montréal, QC H1J 2X9",1,High Wage,2263,Inspectors in public and environmental health and occupational health and safety,Unknown,1,45.620368,-73.560934
Quebec,8351414 Canada Inc. Restaurant 3 Amigos,"Montréal, QC H3H 1L9",1,High Wage,6322,Cooks,Corporation,1,45.522219,-73.55271
Quebec,8394687 CANADA INC.,"Châteauguay, QC J6J 4Z2",3,High Wage,7322,Motor vehicle body repairers,Unknown,2,45.345898,-73.693888
Quebec,8422273 Canada inc,"Saint-Constant, QC J5A 2C9",2,High Wage,7321,"Automotive service technicians, truck and bus mechanics and mechanical repairers",Corporation,1,45.3895294,-73.5715898
Quebec,9000-1959 Québec Inc.,"Val-d'Or, QC J9P 0B9",3,High Wage,7312,Heavy,Corporation,1,48.1454364,-77.8050941
Quebec,9010033 CANADA INC.,"Montréal, QC H3B 1B7",1,High Wage,6321,Chefs,Corporation,1,45.503728,-73.569264
Quebec,9017-7189 Québec Inc.,"SAINT-HENRI, QC G0R 3E0",3,High Wage,7322,Motor vehicle body repairers,Corporation,2,46.825966,-71.153383
Quebec,9019-6452 Qc inc,"Mont-Tremblant, QC J8E 1E1",4,High Wage,6322,Cooks,Unknown,1,46.209869,-74.589412
Quebec,9041-7569 Québec inc. (Pro-Spec),"Montréal, QC H2H 1S9",1,High Wage,1226,Conference and event planners,Corporation,1,45.531689,-73.571892
Quebec,9048-9493 Québec Inc.,"St-BENOIT LABRE, QC G0M 1P0",2,High Wage,7511,Transport truck drivers,Unknown,2,45.843699,-70.570819
Quebec,9056-6696 Québec inc,"Québec, QC G1P 3T6",1,High Wage,7322,Motor vehicle body repairers,Unknown,1,46.787054,-71.305794
Quebec,9062-5302 QUEBEC INC.,"RIVIERE-DU-LOUP, QC G5R 4C2",1,High Wage,2281,Computer network technicians,Unknown,1,47.824863,-69.546015
Quebec,9076-0406 Québec Inc.,"Laval, QC H7A 4C6",1,High Wage,6314,Customer and information services supervisors,Co-operative,1,45.695632,-73.56864
Quebec,9083-7436 Québec Inc. Drytec Trans-Canada,"Terrebonne, QC J6Y 1T3",1,High Wage,7452,Material handlers,Partnership,1,45.657395,-73.778088
Quebec,9083-7436 Québec Inc. Drytec Trans-Canada,"Terrebonne, QC J6Y 1T3",2,High Wage,9536,"Industrial painters, coaters and metal finishing process operators",Partnership,1,45.657395,-73.778088
Quebec,9088-5625 QUEBEC INC,"St-Hubert, QC J3Y 7B1",1,High Wage,2241,Electrical and electronics engineering technologists and technicians,Unknown,1,45.5000583,-73.4462477
Quebec,9090-5092 Québec inc,"Lavaltrie, QC J5T 2H1",1,High Wage,7321,"Automotive service technicians, truck and bus mechanics and mechanical repairers",Unknown,1,45.889737,-73.287586
Quebec,9104-4958 QUEBEC INC.,"Laval, QC H7P 0G9",1,High Wage,6322,Cooks,Corporation,1,45.57732,-73.802474
Quebec,9108-1802 Québec Inc.,"Victoriaville, QC G6P 7E8",1,High Wage,7312,Heavy,Corporation,1,46.068277,-71.963039
Quebec,9113-0476 Québec inc,"LaBaie, QC G7B 3P3",1,High Wage,2232,Mechanical engineering technologists and technicians,Unknown,1,48.341343,-70.882086
Quebec,9131-8501 Québec inc.,"Québec, QC G1R 3X3",1,High Wage,6321,Chefs,Corporation,1,46.813251,-71.21175
Quebec,9134-1651 quebec inc.,"Berthierville, QC J0K 1A0",1,High Wage,7321,"Automotive service technicians, truck and bus mechanics and mechanical repairers",Unknown,1,46.066779,-73.187236
Quebec,9134-1651 quebec inc.,"Berthierville, QC J0K 1A0",4,High Wage,7511,Transport truck drivers,Unknown,1,46.066779,-73.187236
Quebec,9135-0736 Québec Inc.,"Montréal, QC H3G 0B9",1,High Wage,6321,Chefs,Corporation,1,45.501974,-73.581088
Quebec,9152-2458 Quebec Inc,"Paspebiac, QC G0C 2K0",1,High Wage,2281,Computer network technicians,Unknown,1,48.060360,-65.250412
Quebec,9160-4835 Québec inc.,"Mont-Tremblant, QC J8E 1E9",1,High Wage,6322,Cooks,Unknown,1,46.193399,-74.630946
Quebec,9167-3772 Québec Inc.,"Drummondville, QC J2B 1R6",1,High Wage,2281,Computer network technicians,Unknown,1,45.876321,-72.485003
Quebec,9171-0491 Québec Inc.,"Blainville, QC J7C 5L8",1,High Wage,7322,Motor vehicle body repairers,Corporation,1,45.669104,-73.855144
Quebec,9171-2604 QUÉBEC INC.,"Québec, QC G1M 3V9",1,High Wage,6321,Chefs,Corporation,1,46.821553,-71.267412
Quebec,9180-0193 Québec Inc. - Zento Sushi,"L'Île Perrot, QC J7V 4X4",6,High Wage,6311,Food service supervisors,Corporation,1,45.39028,-73.962627
Quebec,9182-0969 Québec Inc.,"Montréal, QC H4K 2K5",1,High Wage,7511,Transport truck drivers,Corporation,1,45.5248,-73.726803
Quebec,9185-0321 Québec inc,"Mont-Tremblant, QC J8X 2X4",1,High Wage,6311,Food service supervisors,Unknown,1,45.432201,-75.720287
Quebec,9192-1353 Québec Inc.,"Lavaltrie, QC J5T  3C",1,High Wage,2281,Computer network technicians,Corporation,1,,
Quebec,9201-0800 Québec Inc.,"Québec, QC G2E 5X6",5,High Wage,7291,Roofers and shinglers,Corporation,1,46.797322,-71.329248
Quebec,9205-2232 Québec Inc.,"Montréal, QC H3A 1E4",1,High Wage,1223,Human resources and recruitment officers,Corporation,1,45.505599,-73.572919
Quebec,9206-9624 INC. (Volkswagen),"Drummondville, QC J2C 5W4",1,High Wage,1123,"Professional occupations in advertising, marketing and public relations",Corporation,1,45.892559,-72.522883
Quebec,9208-4144 qc inc,"Sherbrooke, QC J1C 0W2",1,High Wage,7311,Construction millwrights and industrial mechanics,Unknown,1,45.467054,-71.940986
Quebec,9208-4144 qc inc,"Sherbrooke, QC J1C 0W2",2,High Wage,7333,Electrical mechanics,Unknown,2,45.467054,-71.940986
Quebec,9213-9286 quebec inc,"Rouyn-Noranda, QC J9X 6M6",2,High Wage,7321,"Automotive service technicians, truck and bus mechanics and mechanical repairers",Unknown,1,48.2241791,-78.9952004
Quebec,9216-8087 QUEBEC INC.,"Québec, QC G1R 1P9",1,High Wage,6562,"Estheticians, electrologists and related occupations",Unknown,1,46.81131,-71.217242
Quebec,9219-1485 Québec Inc,"Boisbriand, QC J7E 4H5",3,High Wage,7237,Welders and related machine operators,Unknown,1,45.679517,-73.82552
Quebec,9222-2157 QUEBEC INC,"Ste-Agathe-des-Monts, QC J8C 2A7",1,High Wage,6322,Cooks,Unknown,1,46.0502038,-74.2887858
Quebec,9225-2915 QUEBEC INC,"LEVIS, QC G6W 8B6",1,High Wage,7322,Motor vehicle body repairers,Unknown,1,46.748573,-71.171369
Quebec,9228-7457 Québec Inc.,"Mont-Royal, QC H4P 1J3",1,High Wage,7322,Motor vehicle body repairers,Corporation,1,45.496936,-73.663058
Quebec,9231 9110 Quebec Inc.,"Laval, QC H7V 5B7",1,High Wage,1221,Administrative officers,Unknown,1,45.557614,-73.696535
Quebec,9245-1855 Québec inc. - Gologic,"Montréal, QC H2T 2A4",2,High Wage,2171,Information systems analysts and consultants,Corporation,2,45.527505,-73.597029
Quebec,9245-1855 Québec inc. - Gologic,"Montréal, QC H2T 2A4",1,High Wage,2174,Computer programmers and interactive media developers,Corporation,1,45.527505,-73.597029
Quebec,9247-6654 Québec Inc.,"Châteauguay, QC J6J 4Z2",1,High Wage,7521,Heavy equipment operators (except crane),Corporation,1,45.345898,-73.693888
Quebec,9249-2206 QUÉBEC INC,"RADISSON (Baie-James), QC J0Y 2X0",1,High Wage,7321,"Automotive service technicians, truck and bus mechanics and mechanical repairers",Unknown,1,53.791815,-77.617139
Quebec,9252-7266 QUÉBEC INC.,"MONTRÉAL, QC H3T  1Y",1,High Wage,1241,Administrative assistants,Sole Proprietorship,1,,
Quebec,9253-2373 Québec Inc,"MONTRÉAL, QC H3W 1H8",3,High Wage,6322,Cooks,Corporation,1,45.496091,-73.636161
Quebec,9256-6918 Québec Inc,"Alma, QC G8B 7H9",1,High Wage,2171,Information systems analysts and consultants,Unknown,1,48.554871,-71.635517
Quebec,9258-0414 QUÉBEC INC,"Terrebonne, QC J6W 2H5",2,High Wage,7322,Motor vehicle body repairers,Unknown,1,45.704066,-73.630207
Quebec,9258-4739 QUÉBEC INC.,"Terrebonne, QC J6X 4R3",1,High Wage,9213,"Supervisors, food, beverage and associated products processing",Unknown,1,45.699153,-73.676632
Quebec,9263-7974 Québec inc,"Laval, QC H7T 1V6",1,High Wage,7311,Construction millwrights and industrial mechanics,Unknown,1,45.556932,-73.766633
Quebec,9264-5571 Québec Inc.,"Verdun, QC H3E 1T8",1,High Wage,6321,Chefs,Corporation,1,45.468251,-73.543628
Quebec,9269-1419 Québec inc.,"Terrebonne, QC J6Y 0J9",1,High Wage,0211,Engineering managers,Corporation,1,45.7021889,-73.716806
Quebec,9272-7056 Québec Inc.,"Montréal, QC H3B 1S6",1,High Wage,1123,"Professional occupations in advertising, marketing and public relations",Corporation,1,45.50376,-73.566803
Quebec,9278-5823 Québec Inc,"Laval, QC H7G 2W2",1,High Wage,6321,Chefs,Partnership,1,45.579508,-73.702501
Quebec,9281-1413 Québec Inc,"Rouyn-Noranda, QC J9X 4K9",2,High Wage,7322,Motor vehicle body repairers,Unknown,1,48.224205,-78.995329
Quebec,9282-2154 Québec inc.,"Sainte-Adèle, QC J8B 2M8",1,High Wage,6321,Chefs,Unknown,1,45.946974,-74.132131
Quebec,9289-7602 Québec inc.,"Montréal, QC H2T 1V2",1,High Wage,1221,Administrative officers,Corporation,1,45.524435,-73.594264
Quebec,9290-6775 Québec Inc.,"Mont-Laurier, QC J9L  0H",1,High Wage,7322,Motor vehicle body repairers,Corporation,1,,
Quebec,9297-8261 Québec inc,"Laval, QC H7L 3H7",1,High Wage,7251,Plumbers,Unknown,1,45.580716,-73.766987
Quebec,9301-7275 Québec inc.,"saint-hubert, QC J3Y 7Y8",1,High Wage,1221,Administrative officers,Unknown,1,45.495342,-73.428446
Quebec,9318-6468 QUEBEC INC.,"Lasalle, QC H8N 2X2",1,High Wage,2264,Construction inspectors,Unknown,1,45.4417223,-73.629931
Quebec,9320-9054 Québec Inc.,"Sherbrooke, QC J1K 1B9",1,High Wage,2241,Electrical and electronics engineering technologists and technicians,Corporation,1,45.390717,-71.935093
Quebec,9323-3534 Québec Inc.,"Montréal, QC H2V  4E",1,High Wage,0631,Restaurant and food service managers,Corporation,1,,
Quebec,9327-5436 Québec Inc,"Montreal, QC H1P 1J4",1,High Wage,7321,"Automotive service technicians, truck and bus mechanics and mechanical repairers",Unknown,1,45.598181,-73.58766
Quebec,9327-6806 Quebec Inc,"Montreal, QC H2K 1C3",1,High Wage,2133,Electrical and electronics engineers,Unknown,1,45.531061,-73.562907
Quebec,9328513 Canada inc.,"Ste-Catherine, QC J5C 1C2",1,High Wage,7246,Telecommunications installation and repair workers,Unknown,1,45.400823,-73.592957
Quebec,9328-5161 QUÉBEC INC,"Varennes, QC J3X 1P7",1,High Wage,6552,Other customer and information services representatives,Unknown,1,45.665405,-73.38258
Quebec,9330-2230 Québec Inc.,"Magog, QC J1X 2T3",1,High Wage,0631,Restaurant and food service managers,Sole Proprietorship,1,45.2737848,-72.1354067
Quebec,9331-9416 Québec inc,"BEAUCEVILLE, QC G5X 2S8",1,High Wage,2231,Civil engineering technologists and technicians,Unknown,1,46.222326,-70.792823
Quebec,9334-4760 Québec inc,"Mirabel, QC J7N 1L6",1,High Wage,1215,"Supervisors, supply chain, tracking and scheduling co",Corporation,1,45.724676,-74.072812
Quebec,9335-3571 Quebec inc.,"Laval, QC H7K 3N9",3,High Wage,2263,Inspectors in public and environmental health and occupational health and safety,Unknown,1,45.622874,-73.718209
Quebec,9336-3216 Québec inc.,"Saint-Raymond, QC G3L 2N2",1,High Wage,7237,Welders and related machine operators,Corporation,1,46.8430075,-71.8006694
Quebec,9337-5574 Québec inc.,"LONGUEUIL, QC J4H 1C6",1,High Wage,6316,Other services supervisors,Unknown,1,45.54066,-73.508201
Quebec,9337-9329 Québec Inc,"ST-HYACINTHE, QC J2S 3H5",1,High Wage,6211,Retail sales supervisors,Unknown,1,45.625296,-72.9447677
Quebec,9339-8527 Québec inc,"SAINT-GERVAIS, QC G0R 3C0",1,High Wage,7511,Transport truck drivers,Partnership,1,46.715474,-70.886903
Quebec,9342-7490 Quebec Inc.,"Laval, QC H7E 1A1",5,High Wage,7511,Transport truck drivers,Unknown,1,45.61416,-73.668973
Quebec,9344-3174 Quebec Inc,"Terrebonne, QC J6W 2Z6",1,High Wage,3125,Other professional occupations in health diagnosing and treating,Unknown,1,45.698166,-73.634689
Quebec,9345-0138 QUEBEC INC.,"Montréal, QC H3L 1C5",1,High Wage,6332,Bakers,Unknown,1,45.554457,-73.668605
Quebec,9347 6596 QUEBEC INC,"Longueuil, QC J4G 1T5",4,High Wage,7237,Welders and related machine operators,Unknown,4,45.563734,-73.463893
Quebec,9348-9235 Québec Inc,"Montréal, QC H4R 0L7",2,High Wage,7511,Transport truck drivers,Partnership,1,45.5161364,-73.714502
Quebec,9353-4832 QUÉBEC INC.,"Montréal, QC H4K  2C",1,High Wage,1215,"Supervisors, supply chain, tracking and scheduling co",Corporation,1,,
Quebec,9356-3591 Québec Inc.,"Lachine, QC H8T 2Y5",1,High Wage,5241,Graphic designers and illustrators,Corporation,1,45.4616093,-73.7220524
Quebec,93638419 Québec Inc.,"Sainte-Julie, QC J3E 2J2",1,High Wage,1215,"Supervisors, supply chain, tracking and scheduling co",Co-operative,1,45.588136,-73.345102
Quebec,9364-8830 Québec inc,"Québec, QC G1K 1K1",6,High Wage,6322,Cooks,Unknown,3,46.811535,-71.233679
Quebec,9367-8019 Quebec inc,"Saint-Hubert, QC J3Z 0G7",1,High Wage,2171,Information systems analysts and consultants,Unknown,1,45.4739173,-73.4023694
Quebec,9370-0961 Québec inc.,"Montreal, QC H2T 1R3",1,High Wage,6321,Chefs,Unknown,1,45.521483,-73.58933
Quebec,9370-3437 Québec Inc,"Montréal, QC H3B  2E",1,High Wage,2171,Information systems analysts and consultants,Corporation,1,,
Quebec,9371-7015 QUEBEC INC.,"Montréal, QC H4P  2G",1,High Wage,6321,Chefs,Corporation,1,,
Quebec,9374-7244 Québec Inc.,"Montréal, QC H4N 3B8",1,High Wage,0631,Restaurant and food service managers,Corporation,1,45.534701,-73.665974
Quebec,9375-7003 Québec Inc.,"Québec, QC G1K 3Z6",1,High Wage,6322,Cooks,Unknown,1,46.813622,-71.202559
Quebec,9377-1392 Québec Inc.,"Dolbeau-Mistassini, QC G8L 0C2",1,High Wage,7313,Refrigeration and air conditioning mechanics,Corporation,1,48.888627,-72.210031
Quebec,9379-3925 QUEBEC INC.,"St-Laurent, QC H4R 3K8",1,High Wage,7205,"Contractors and supervisors, other construction trades, installers, repairers and servicers",Unknown,1,45.5016996,-73.725032
Quebec,9383-6526 QUEBEC INC,"Montréal, QC H2Z 1Y6",1,High Wage,6321,Chefs,Corporation,1,45.507286,-73.561254
Quebec,9386 - 2134 Québec,"Longueuil, QC J4J 3X3",1,High Wage,6332,Bakers,Unknown,1,45.532025,-73.487979
Quebec,9387-0723 Québec inc.,"Saint-Denis de Brompton, QC J0B 2P0",2,High Wage,7321,"Automotive service technicians, truck and bus mechanics and mechanical repairers",Unknown,1,45.380859,-72.081999
Quebec,9389-7387 Québec Inc.,"Montréal, QC H2Z 1N2",1,High Wage,6321,Chefs,Corporation,1,45.50479,-73.563634
Quebec,9389-8179 QUÉBEC INC,"Chibougamau, QC G8P 2Z3",1,High Wage,1223,Human resources and recruitment officers,Unknown,1,49.90597,-74.383739
Quebec,9395-6134 Québec Inc.,"Mont-Laurier, QC J9L 1L4",1,High Wage,6322,Cooks,Corporation,1,46.550852,-75.492952
Quebec,9398-5406 Québec inc.,"Laval, QC H7L  4X",1,High Wage,1241,Administrative assistants,Partnership,1,,
Quebec,9400-9305 Québec inc.,"Laval, QC H7W 2H7",1,High Wage,6322,Cooks,Corporation,1,45.526841,-73.764434
Quebec,9401-7605 QUEBEC INC,"Montréal, QC H3C 1P1",1,High Wage,6513,Food and beverage servers,Unknown,1,45.497942,-73.558112
Quebec,9405-1984 Quebec Inc,"Montréal, QC H2V 4B7",1,High Wage,7241,Electricians (except industrial and power system),Corporation,1,45.516863,-73.591354
Quebec,9407-2386 Québec Inc.,"Laval, QC H7M  1L",1,High Wage,1311,Accounting technicians and bookkeepers,Corporation,1,,
Quebec,9407-8797 Québec inc.,"Montréal, QC H2B  2X",1,High Wage,6411,Sales and account representatives ,Corporation,1,,
Quebec,9407-9530 Québec inc.,"MONTREAL, QC H2H 2K6",1,High Wage,1241,Administrative assistants,Unknown,1,45.538093,-73.569679
Quebec,9408-6030 QUEBEC INC.,"Sainte-Marthe-Sur-Le-Lac, QC J0N 1P0",2,High Wage,2281,Computer network technicians,Unknown,1,45.531324,-73.926417
Quebec,9409-7870 Québec inc.,"Montréal, QC H1S 1K1",1,High Wage,6331,"Butchers, meat cutters and fishmongers ",Corporation,1,45.570308,-73.587953
Quebec,9412-5804 Québec inc.,"Québec, QC G1H 3E2",1,High Wage,1123,"Professional occupations in advertising, marketing and public relations",Partnership,1,46.857524,-71.262
Quebec,9416-2930 Québec inc.,"Montreal, QC H3L 2C2",1,High Wage,1123,"Professional occupations in advertising, marketing and public relations",Corporation,1,45.540072,-73.6608
Quebec,9417-5064 QUEBEC INC. - GARAGE PIT STOP,"Gatineau, QC J8V  3T",1,High Wage,7321,"Automotive service technicians, truck and bus mechanics and mechanical repairers",Corporation,1,,
Quebec,9421-1976 Quebec inc,"Saint-Lambert, QC G0S 2W0",1,High Wage,1225,Purchasing agents and officers,Unknown,1,46.554609,-71.234934
Quebec,9423-2675 Québec inc.,"Montréal, QC H1S 3B1",1,High Wage,1241,Administrative assistants,Corporation,1,45.5872745,-73.5787604
Quebec,9425-1113 Québec inc.,"Montréal, QC H1A 1E6",1,High Wage,1241,Administrative assistants,Corporation,1,45.6754626,-73.5009245
Quebec,9425-1113 Québec inc.,"Montréal, QC H1A 1E6",1,High Wage,2242,Electronic service technicians (household and business equipment),Corporation,1,45.6754626,-73.5009245
Quebec,9425-3853 Québec Inc.,"Blainville, QC J7C 0Y2",1,High Wage,6221,Technical sales specialists ,Corporation,1,45.6745736,-73.9076741
Quebec,9427-8264 Québec inc,"Mirabel, QC J7J 2B7",7,High Wage,7291,Roofers and shinglers,Unknown,1,45.643129,-73.875906
Quebec,9430-3617 Québec Inc.,"Montréal, QC H3J 1N6",1,High Wage,6331,"Butchers, meat cutters and fishmongers ",Sole Proprietorship,1,45.483385,-73.574468
Quebec,9436-7166 Quebec Inc,"Brossard, QC J4Y 1M2",1,High Wage,2173,Software engineers and designers,Unknown,1,45.460182,-73.459758
Quebec,9440-2617 Québec Inc.,"New Richmond, QC G0C 2B0",1,High Wage,3131,Pharmacists,Corporation,1,48.169493,-65.864397
Quebec,9445-5706 Québec Inc.,"Saint-Sauveur, QC J0R 1R6",1,High Wage,6322,Cooks,Corporation,1,45.908473,-74.195758
Quebec,9448-7840 Québec inc.,"Albanel, QC G8M 3G2",2,High Wage,7321,"Automotive service technicians, truck and bus mechanics and mechanical repairers",Unknown,1,48.881943,-72.43923
Quebec,9451-7935 Québec inc.,"Montréal, QC G9H 1A5",1,High Wage,2281,Computer network technicians,Unknown,1,46.302034,-72.539331
Quebec,9455-8624 Québec Inc,"St-Michel des Saints, QC J0K 3B0",1,High Wage,7311,Construction millwrights and industrial mechanics,Unknown,1,46.7077560424805,-73.7726821899414
Quebec,9460-7769 Québec inc (Les planchers Mercier Inc),"Montmagny, QC G5V 4T1",2,High Wage,7333,Electrical mechanics,Corporation,1,46.9690563,-70.5842018
Quebec,9460-7769 Québec inc (Les planchers Mercier Inc),"Montmagny, QC G5V 4T1",1,High Wage,7612,Other trades helpers and labourers,Corporation,1,46.9690563,-70.5842018
Quebec,9466-7490 Québec Inc. (SPOCKEE eCommerce),"Montréal, QC H4M  2Z",1,High Wage,2174,Computer programmers and interactive media developers,Corporation,1,,
Quebec,9466-7490 Québec Inc. (SPOCKEE eCommerce),"Montréal, QC H4M  2Z",1,High Wage,2175,Web designers and developers,Corporation,1,,
Quebec,9471-6156 Québec inc.,"Laval, QC H7R 0C7",1,High Wage,7322,Motor vehicle body repairers,Corporation,1,45.5520179,-73.8510428
Quebec,9972749 Canada Inc.,"Laval, QC H7S 1Y9",5,High Wage,6211,Retail sales supervisors,Corporation,1,45.563666,-73.730822
Quebec,A.B.F. Systèmes Inc. A.B.F. Systems Inc.,"Boucherville, QC J4B 7M7",2,High Wage,2241,Electrical and electronics engineering technologists and technicians,Unknown,2,45.567348,-73.442739
Quebec,A7 Integration Inc.,"GRANBY, QC J2J 2R1",1,High Wage,7231,Machinists and machining and tooling inspectors,Corporation,1,45.392008,-72.757819
Quebec,AAA Canada,"Montreal, QC H3C 1L9",1,High Wage,7315,Aircraft mechanics and aircraft inspectors,Unknown,1,45.49939,-73.557986
Quebec,AAR Aircraft Services – Trois-Rivières ULC,"Trois-Rivières, QC G9B 2N8",3,High Wage,7315,Aircraft mechanics and aircraft inspectors,Unknown,3,46.331557,-72.615277
Quebec,AB Tech Services Polytechniques inc.,"Sherbrooke, QC J1L  2X",1,High Wage,2231,Civil engineering technologists and technicians,Sole Proprietorship,1,,
Quebec,Abattoir Agri-Bio inc.,"SAINT-AGAPIT, QC G0S 1Z0",3,High Wage,7333,Electrical mechanics,Co-operative,1,46.564625,-71.433008
Quebec,ABCP Architecture et Urbanisme Ltée,"Québec, QC G1K 7R1",1,High Wage,2253,Drafting technologists and technicians,Corporation,1,46.816727,-71.213123
Quebec,Acier Marquis inc.,"Saint-Célestin, QC J0C 1G0",1,High Wage,7235,Structural metal and platework fabricators and fitters,Unknown,1,45.885578,-72.765122
Quebec,Acier Marquis inc.,"Saint-Célestin, QC J0C 1G0",1,High Wage,7237,Welders and related machine operators,Unknown,1,45.885578,-72.765122
Quebec,Actoran Conseils,"Montréal, QC H3G 2T3",1,High Wage,1241,Administrative assistants,Corporation,1,45.49948,-73.578279
